currentGEOID,lon,lat,name,author_Id,created_at,location,place_type,place_full_name,place_country
175,46.685077,24.7219435,,1220450679371849743,2020-05-04 02:08:10,,city,"Riyadh, Kingdom of Saudi Arabia",Kingdom of Saudi Arabia
175,49.9945455,26.353591499999997,Sayed Sallam,1220450763991928832,2020-03-16 14:26:23,,city,"Dammam, Kingdom of Saudi Arabia",Kingdom of Saudi Arabia
200,28.872233,40.382634,Bursa Kenan Demir,1220450781016612881,2020-02-14 22:12:51,"Bursa, Trkiye",poi,Mudanya Yat Liman,Trkiye
164,-9.3605895,38.835553999999995,Cavalleri,1220450831302086656,2020-05-02 19:54:58,,city,"Sintra, Portugal",Portugal
205,-0.12272899999999999,51.511958,esco,1220450873823940609,2020-02-22 19:12:26,,poi,Covent Garden,United Kingdom
24,-114.09812409999999,51.0645549,jose resendiz,1220450876,2020-02-14 15:29:01,rioverde slp,city,"Calgary, Alberta",Canad
21,-46.99152,-20.917170000000002,Fbio Leme Soares,1220450900466196483,2020-02-17 12:54:36,So Sebastio do Paraso-MG,city,"So Sebastio do Paraso, Brasil",Brasil
21,-43.441578,-22.911421500000003,FaaLa Monaa,1220451180922445824,2020-02-15 02:55:18,"Rio de Janeiro, Brasil",city,"Rio de Janeiro, Brasil",Brasil
88,139.7317415,35.8337305,,122045133,2020-02-18 07:11:53,,city, ,
113,-9.473554,30.1562765,Hassan Akhlkhal,1220451459428429825,2020-02-18 18:29:59,,city,"Ait Amira, Royaume du Maroc",Royaume du Maroc
-9999,-34.550309000000006,-4.8747985,Ruan Ridley,1220451537841020943,2020-02-15 14:22:05,"Macei, Brasil",city,"Natal, Brazil",Brazil
21,-43.791562,-21.247522,Agnes,1220451646754512896,2020-03-01 04:47:17,,city,"Barbacena, Brasil",Brasil
119,-98.95691,19.430813,Mari Fer llamame al nmer 5618375966,1220451715444396033,2020-04-09 15:52:47,,poi,Mercado 15 De Septiembre,Mxico
21,-44.569676,-22.4430055,Zeno de Elia,1220451715851440129,2020-03-21 17:49:02,,city,"Itatiaia, Brasil",Brasil
21,-43.018208,-22.821465,JD Larica's Original,1220451730091139088,2020-02-14 17:00:14,"So Gonalo, Brasil",city,"So Gonalo, Brasil",Brasil
51,-7.866291,54.92103149999999,TELHolly (Holly Murray),1220451786009595904,2020-05-09 17:40:58,"Letterkenny Co.Donegal,Ireland",city,"Donegal, Ireland",Ireland
200,29.0052225,41.0213205,zhifa yu,1220451814564384768,2020-05-26 17:43:17,"stanbul, Trkiye",city,"stanbul, Trkiye",Turkey
21,-43.916702,-22.4210485,Joo Victor,1220452005598191617,2020-02-18 15:39:32,,city,"Barra do Pira, Brasil",Brasil
33,-70.6667,-33.45,robertojavier86,1220452099,2020-03-30 16:40:38,"Santiago, Metropolitana de San",city,"Santiago, Chile",Chile
205,-0.4398715,53.724880000000006,keith Petherbridge,1220452261761114128,2020-02-29 17:26:57,,city,"Hessle, England",United Kingdom
188,31.5925765,4.8437685,Agoth Agoth Yual,1220452289330151424,2020-02-15 12:52:38,,city,Juba,
21,-43.296872,-22.644558,tropadosinal,1220452409278959616,2020-02-28 14:23:49,,city,"Duque de Caxias, Brasil",Brasil
65,1.219819,44.3403585,Tanyancat,1220452464522158089,2020-03-10 21:04:02,,city,"Montcuq, France",France
82,72.87424399999999,19.174139999999998,Girish Vartak,1220452482729463808,2020-04-17 11:06:40,,city,"Mumbai, India",India
175,47.313725,24.262071,,1220452574702329865,2020-05-30 16:55:00,,poi,Farm,Kingdom of Saudi Arabia
49420,-120.006656,46.322703999999995,SQF,1220452615923744768,2020-03-12 05:34:02,"sunnyside, wa ",poi,Sunnyside Community Hospital,United States
211,-66.91278,10.512495,info_vzla,1220452684597211139,2020-02-18 19:29:23,,poi,Panten Nacional,Venezuela
200,29.623019,40.785646,Mavilikler16,1220452702221754384,2020-02-17 09:03:59,"North West, England",poi,Opet-Mehmetik Vakf,Trkiye
41180,-90.247824,38.653771,Harvey Dailey Law,1220452789140193280,2020-04-11 00:55:23,"St Louis, MO",city,"St Louis, MO",United States
21,-48.3999095,-27.493496,Julia,1220453013757841409,2020-02-21 22:39:11,,neighborhood,"Rio Vermelho, Florianpolis",Brazil
151,3.5018455000000004,6.441530500000002,maryjane,1220453028198866945,2020-05-06 09:50:17,"Lagos, Nigeria",city,"Victoria Island, Nigeria",Nigeria
21,-47.207794,-22.869539000000003,Flvio Medeiros dos Santos,1220453190530994176,2020-03-10 22:44:37,"Jardim Amanda II, Hortolndia",city,"Hortolndia, Brasil",Brasil
200,28.402803499999997,40.03878450000001,Gebostan...,1220453493422678037,2020-04-20 18:58:18,"Mustafakemalpaa, Trkiye",city,"Mustafakemalpaa, Trkiye",Trkiye
21,-40.7652095,-20.4331505,vinni,1220453609529380864,2020-02-14 00:39:02,"Vitria, Brasil",city,"Marechal Floriano, Brasil",Brazil
40980,-84.00574800000003,43.4627635,Key ,1220453655968722945,2020-02-16 09:20:09,,city,"Saginaw Township North, MI",United States
34700,-91.084775,41.4185915,Tom nickols,1220453793629986830,2020-04-06 19:56:15,,city,"Muscatine, IA",United States
19340,-90.485725,41.4872265,Tom nickols,1220453793629986830,2020-04-16 19:10:29,,city,"Moline, IL",United States
34700,-91.031554,41.588815999999994,Tom nickols,1220453793629986830,2020-06-05 22:11:51,,city,"Wilton, IA",United States
200,43.3593375,38.5146485,Emir Sarbulak,1220453879088930825,2020-02-16 13:53:42,,city,"Van, Trkiye",Trkiye
35840,-82.437464,27.520867499999998,River City Church,1220454024257904640,2020-03-27 12:42:52,"Mason City, IA",city,"Fort Hamer, FL",United States
200,35.458022,38.380002000000005,Hicran,1220454109645541377,2020-03-02 17:47:28,"Kayseri, Trkiye",poi,Develi KYK Kz Yurdu,Trkiye
65,2.551619,50.794822,Margot_gmp,1220454195561750531,2020-02-15 07:08:43,,city,"Terdeghem, France",France
24,-118.541725,51.064766,Michael Rebeyka,1220454205,2020-02-19 03:39:35,"Hafford, Saskatchewan",poi,Eagle Pass Mountain,Canada
40140,-116.510348,33.8273,Palm Springs Fire Department,1220454408678330368,2020-03-23 19:14:25,"Palm Springs, CA",poi,Palm Springs Fire Station 2,United States
200,32.801428,39.786039,bedevioo,1220454496138158085,2020-03-17 15:16:36,,poi,Mogan Gl,Trkiye
82,78.46509449999998,17.3886495,Seema Firdous,1220454528819986433,2020-04-14 06:39:25,,city,"Hyderabad, India",India
21,-56.120342,-15.650744,Evelyn Ferreira,1220454589318815761,2020-03-23 00:04:55,,poi,Aeroporto Internacional de Cuiab / Marechal Rondon (CGB),Brasil
171,125.19111,7.727410000000001,Layka Abaquita,1220454605777096704,2020-02-15 15:16:38,,city,"Quezon, Northern Mindanao",Republic of the Philippines
21,-49.270553,-25.431856,Roberto Luz Da Silva,1220454636412461066,2020-04-12 21:50:22,,poi,CIEE,Brasil
200,27.720383,38.4961195,Zeynep yasak,1220454767794839558,2020-02-14 09:33:41,,city,"Turgutlu, Trkiye",Trkiye
200,29.5091185,40.0855235,ouzhan,1220454776405663746,2020-04-06 19:28:04,"Bursa, Trkiye",city,"negl, Trkiye",Turkey
21,-49.078565000000005,-9.333683500000001,Mayelle Feitoza Gomes,1220454828062793729,2020-04-20 15:53:28,,city,"Dois Irmos do Tocantins, Brasil",Brasil
34980,-86.791549,36.200008000000004,mickey mccowen,1220454835625111552,2020-02-24 15:02:06,,city,"Nashville, TN",United States
21,-54.58210699999999,-25.543231, ,1220454891086405656,2020-02-24 00:58:33,"Foz do Iguau, Brasil",poi,Carnaval da Saudade,Brasil
82,75.0508035,31.664547499999998,Jaspreet,1220454931976675334,2020-02-22 14:59:51,Canada,city,"Amritsar, India",India
21,-44.229982,-2.593696,Vanessa Lopes,1220454999869837312,2020-03-05 04:09:56,,poi,Conjunto Sao Raimundo,Brasil
69,-2.3147925000000003,6.4537525,Francis Antwi,1220455041380835330,2020-02-28 10:19:46,"Western, Ghana",city,"Bibiani, Ghana",Ghana
222,110.4477,-6.986659,R,1220455053573509121,2020-03-06 12:13:41,,city,"Gayam Sari, Indonesia",Indonesia
95,126.7565455,35.1643615,,1220455099886997505,2020-05-26 18:36:35, ,city, ,
175,46.685077,24.7219435,   ,1220455363461427201,2020-02-19 21:17:13,,city,",   ",  
21,-52.7832325,-31.746881,Icaro cardoso,1220455369945894912,2020-02-15 19:51:02,"Cerrito, Brasil",city,"Cerrito, Brasil",Brasil
21,-43.966889,-19.901759,Gabi Morillo,1220455538368139267,2020-02-15 21:25:20,,poi,Dome Lounge BH,Brasil
88,131.34639049999998,31.893178499999998,,1220455668,2020-03-03 23:55:59,,city, ,
175,39.2541285,21.5857105,btc_shf2@hotmail.com,1220455776499785742,2020-03-07 18:55:32,,city,"Jeddah, Kingdom of Saudi Arabia",Kingdom of Saudi Arabia
205,-0.36118,51.5254325,Alison,1220455786532560902,2020-03-20 12:03:41,,city,"Southall, London",United Kingdom
13820,-86.6874775,33.6965535,Sweatt B,1220455846557167623,2020-04-11 12:55:05,"Locust Fork, Al",city,"Pinson, AL",United States
200,29.950974,40.772597999999995,eda,1220455951918075905,2020-03-20 18:19:28,,poi,yol,Trkiye
164,-9.159995,38.743614,nhakss,1220456085439635459,2020-04-27 05:27:27,"Lisbon, Portugal",city,"Lisbon, Portugal",Portugal
71,11.13536,49.439987, - ,1220456087729713158,2020-03-04 15:34:45,,city,"Nuremberg, Germany",Germany
31080,-117.913129,34.062318,WCHS Performing Arts Academy,1220456105173667841,2020-02-28 06:05:43,"West Covina, CA",poi,West Covina High School,United States
35620,-73.9487755,40.655138,mix b,1220456120306880512,2020-05-31 04:51:30,,city,"Brooklyn, NY",United States
200,29.034623,40.210876,ela,1220456149302108178,2020-02-17 20:34:53,pideli kftecide,poi,Alemdar,Trkiye
203,32.907174,-2.485862,Jakes Benjamin,1220456152871374849,2020-05-04 22:06:59,"Mwanza, Tanzania",poi,Rock City Mall,Tanzania
33100,-80.22855150000002,25.8585575,Dennis Graham,1220456185033383952,2020-03-14 22:30:08,Embrassing a WR,city,"West Little River, FL",United States
164,-8.505348,41.204895,carlos castro,1220456239202820100,2020-02-14 07:21:13,,city,"Valongo, Portugal",Portugal
12580,-76.63412500000003,39.185639,Hazel Santiago Santos,1220456317648887816,2020-02-18 23:07:54,,city,"Ferndale, MD",United States
205,-2.140253,52.447503000000005,The Bird in Hand,1220456388125696000,2020-03-12 00:01:44,147 Hagley Rd. DY8 2JB,poi,The Bird In Hand,United Kingdom
65,-0.6817690000000001,44.831368,Gal Galvani,1220456420166066214,2020-05-21 23:34:04,"Mrignac, France",city,"Mrignac, France",France
119,-96.124639,19.169795, Natalie  Pareja Sw Veracruz,1220456453783412750,2020-03-14 01:46:55,"Veracruz, Veracruz de Ignacio ",poi,Wing's Army,Mxico
65,5.4052739999999995,43.2943095,Julien Ravier 2020,1220456472875884547,2020-03-11 22:43:16,,city,"Marseille, France",France
33460,-93.100951,44.944684,heloisa,1220456635354832904,2020-02-24 01:29:09,,poi,Xcel Energy Center,United States
128,4.366680000000001,50.855274,Jacqueline Daly,1220456742989049856,2020-02-28 08:19:44,,poi,Hotel NH Brussels Bloom,Belgium
51,-8.3498705,53.6975265,Jacqueline Daly,1220456742989049856,2020-04-12 08:38:08,,city,"Roscommon, Ireland",Ireland
-9999,-34.550309000000006,-4.8747985,marcellfreire,1220456756729602050,2020-02-26 02:57:12,"Natal, Brasil",city,"Natal, Brazil",Brazil
21,-43.21826,-22.978938,marcellfreire,1220456756729602050,2020-03-04 15:52:33,"Natal, Brasil",poi,FlaExperience,Brazil
-9999,-34.550309000000006,-4.8747985,marcellfreire,1220456756729602050,2020-03-07 07:28:16,"Natal, Brasil",city,"Natal, Brazil",Brazil
21,-35.179885999999996,-5.889112,marcellfreire,1220456756729602050,2020-03-13 22:44:53,"Natal, Brasil",poi,Estdio Maria Lamas Farache,Brazil
-9999,-34.550309000000006,-4.8747985,marcellfreire,1220456756729602050,2020-03-20 00:47:50,"Natal, Brasil",city,"Natal, Brazil",Brazil
27,15.335385999999998,-4.152376,christo aken garang,1220456837499314191,2020-04-21 23:21:08,"Brazzaville, Congo",poi,Kintele Congress & Hotel Complex,Congo Brazzaville
119,-96.2293965,19.183953,Carmen.Nolasco,1220457084933701632,2020-05-27 16:34:29,,city,"Veracruz, Veracruz de Ignacio de la Llave",Mxico
33,-70.6596155,-33.4521615,Sebastian Izquierdo,1220457131465498636,2020-03-11 01:48:47,,city,"Santiago, Chile",Chile
21,-48.478899,-27.609691,Beatriz rc,1220457173404307462,2020-02-16 01:54:45,,city,"Florianpolis, Brazil",Brazil
222,105.2455905,-5.3615895,Nhina_Yhanie23,1220457229779779584,2020-03-13 22:08:44,"Kedaton, Indonesia",city,"Kedaton, Indonesia",Indonesia
82,78.46509449999998,17.3886495,Sri Charan Bunny,1220457353817931777,2020-05-10 06:16:53,"Hyderabad, India",city,"Hyderabad, India",India
119,-99.16570462,19.367280800000003,Jazmn Gallegos,1220457380,2020-03-12 04:07:50,"Distrito Federal, Mxico",city,"Benito Jurez, Distrito Federal",Mxico
30,112.989544,28.172207,,1220457392879439873,2020-04-12 07:18:11,,poi,,
21,-46.645324,-23.5265152,Diego Coelho,1220457403373801472,2020-02-17 22:01:07,"Bragana Paulista, Brasil",city,"So Paulo, Brasil",Brasil
19780,-93.6063695,41.5764375,keisha,1220457544738660367,2020-03-14 08:49:50,,city,"Des Moines, IA",United States
222,139.48773899999998,-4.86373,Bundiva Mungguat,1220457572609581056,2020-04-30 21:20:57,,poi,Yahukimo,Indonesia
200,32.660767,40.508263,Murathan Lobzhanidze,1220457641568296960,2020-03-15 07:41:17,Gecekondu,poi,Kzlcahamam,Trkiye
24,-79.27256949999999,43.629311,Waseemah Khan,1220457690528391168,2020-04-20 21:08:06,"Toronto, Ontario",city,"Toronto, Ontario",Canada
21,-43.362903,-22.821675,andressa,1220458018715860995,2020-02-23 15:15:48,"Costa Barros, Rio de Janeiro",poi,Divisa - Lagartixa/Pedreira,Brazil
41180,-90.517684,38.7930465,Kaylee,1220458161024524320,2020-06-04 02:53:32,Missouri,city,"St Charles, MO",United States
21,-56.128063,-29.1374,Amanda ,1220458227495854092,2020-02-15 19:36:02,"Itaqui, Brasil",city,"Itaqui, Brasil",Brasil
200,29.036929999999998,40.987681,TUBA ALLI,1220458350078582784,2020-03-07 16:52:32,"stanbul, Trkiye",poi,lker Stadyumu Fenerbahe kr Saracolu Spor Kompleksi,Turkey
96,47.920375,29.277154,,1220458674788937733,2020-02-17 11:37:12,,poi,     ,Kuwait
164,-8.61207804,41.14722013,Andr,122045876,2020-02-15 14:33:15,,city,"Porto, Portugal",Portugal
82,84.75564200000001,19.58577,Rakesh Kumar,1220458763372486657,2020-04-21 03:31:40,,city,"Boirani, India",India
21,-42.3953835,-22.568928,matheus_coutinho,1220458905337323529,2020-02-14 21:36:16,"Saquarema, Brasil",city,"Silva Jardim, Brasil",Brazil
200,38.795417,37.209026,Yunus etin,1220458917727297551,2020-05-18 21:36:01,"anlurfa, Trkiye",poi,Karakr,Trkiye
21,-44.7411075,-17.4183275,Eduarda Rabelo ,1220459034580594688,2020-02-26 07:56:22,,city,"Vrzea da Palma, Brasil",Brasil
175,40.476954,21.433115,,1220459196010856448,2020-05-26 18:21:33,,poi,"University of Taif, girls",Kingdom of Saudi Arabia
21,-38.51989,-3.789768,Elias Leite Fernandes Junior,1220459307352973320,2020-02-29 16:47:13,,city,"Fortaleza, Brasil",Brasil
21,-43.441578,-22.911421500000003,filho do jq ,1220459375015485461,2020-02-14 11:16:19,terra do j ,city,"Rio de Janeiro, Brasil",Brasil
30780,-92.430839,35.073111499999996,LiL Bam,1220459397400408064,2020-02-21 06:04:51,,city,"Conway, AR",United States
96,47.691563,29.333723, .,1220459449330163724,2020-03-09 08:46:46,,poi, / chabd,Kuwait
175,42.63672250000001,16.902668,Muhammad Naheed,1220459703270039555,2020-03-11 16:24:14,,city,"Jazan, Kingdom of Saudi Arabia",Kingdom of Saudi Arabia
21,-43.391915999999995,-22.831777,G.L,1220459813089484800,2020-03-03 23:45:43,,poi,Complexo do Chapado,Brasil
21,-48.667588,-27.7689385,ruby,1220459842097373185,2020-02-23 14:13:29,Brazil,city,"Palhoa, Brasil",Brazil
200,32.992995,40.114938,Zeliha Gen,1220459972443672576,2020-02-23 14:38:42,,poi,Ankara Esenboa Havaliman (ESB),Trkiye
200,32.9054875,39.97281750000001,Emrah Oral,1220460487391043585,2020-04-04 07:47:14,"Artvin, Trkiye",city,"Altnda, Trkiye",Trkiye
21,-39.291158,-16.6482445,Bruno Oliveira,1220460503828443136,2020-02-23 12:47:38,"Milford, CT",city,"Porto Seguro, Brasil",Brazil
128,4.284724,50.823028,LE C.,1220460596736548875,2020-02-15 01:39:47,,poi,Dokterspraktijk Helix Anderlecht,Belgique
65,5.4052739999999995,43.2943095,COUTIINHO,1220460596736548875,2020-02-28 04:16:53,,city,"Marseille, France",France
128,4.2773885,51.008503999999995,COUTIINHO,1220460596736548875,2020-03-11 14:19:53,LRVLR,city,"Londerzeel, Belgi",Belgique
46140,-95.913642,36.1093915,Jesse Seals,1220460795882024962,2020-04-28 23:48:33,"Tulsa, OK",city,"Tulsa, OK",United States
2,7.751005499999999,36.8915905,adem-nakamoura,1220460799879208960,2020-02-21 09:03:16,,city,"Annaba                                                                                              , Algeria",Algeria
21,-46.417166,-18.636639,Miltom Mesquita,1220460811723988998,2020-03-06 20:28:31,,city,"Patos de Minas, Brasil",Brasil
205,-0.092633,51.358931,SELAM Show  ,1220460841058951182,2020-04-29 06:18:38,UK,city,"Croydon, London",United Kingdom
151,8.340073,4.976338,Dr. Ibe Chiemezie (Star Doc),1220461014,2020-05-10 15:47:11,Abuja / Port Harcourt Nigeria,city,"Calabar, Nigeria",Nigeria
200,28.954340999999996,40.226213,inan,1220461055522103316,2020-06-08 19:46:58,,city,"Nilfer, Trkiye",Turkey
21,-45.3067865,-19.708327,bebell_ramoss,1220461216210083861,2020-05-07 23:38:09,,city,"Bom Despacho, Brasil",Brasil
175,44.75147850000001,26.3762815,  ,1220461242697113623,2020-02-14 12:04:12,,city,"Zulfi, Kingdom of Saudi Arabia",Kingdom of Saudi Arabia
24,-97.1526765,49.8538055,Jbiscocho,1220461339824529409,2020-02-18 03:43:10,,city,"Winnipeg, Manitoba",Canada
21,-53.824203000000004,-29.753085,Vitoria Silva,1220461368446541826,2020-05-08 18:14:00,,city,"Santa Maria, Brasil",Brasil
21,-40.2452325,-3.883402,Larissa Lobo,1220461484704178176,2020-02-17 21:05:32,"Sobral, Brasil",city,"Sobral, Brasil",Brasil
175,48.776192,28.816877,,1220461523522420738,2020-02-21 15:22:33, ,poi,Garoh island- ,
2,-1.3183844999999998,34.8783935,younes tlm,1220461705127452677,2020-03-22 13:02:04,,city,"Tlemcen                                                                                             , Algeria",Algrie
88,140.93698700000002,38.795767,,1220461816498671617,2020-04-14 19:49:59,,city, ,
186,2.1412275000000003,41.392657,natiterecarpio,1220462016416112644,2020-03-12 20:49:28,,city,"Barcelona, Espaa",Espaa
222,103.403541,-0.9876520000000001,Anggitonyqrastafara,1220462039555956736,2020-02-23 00:50:19,,city,"Tungkal Ilir, Indonesia",Indonesia
200,32.851476,39.911276,zzet Sargl,1220462052764004353,2020-02-25 07:33:05,"Ankara, Trkiye",poi,TBMM MHP Grup Bakanl,Trkiye
69,-0.1842935,5.6231985,awaisahmed,1220462129331015681,2020-03-18 12:51:31,,city,"Accra, Ghana",Ghana
151,5.780844,5.551759499999998,Pd_blaq,1220462203813408768,2020-05-03 06:29:57,,city,"Warri, Nigeria",Nigeria
160,-76.79600450000001,-12.2366575,Rose,1220462313997729798,2020-05-14 14:16:26,,city,"Lurin, Peru",Peru
65,5.898215,48.67944,bp,1220462493774024705,2020-05-11 07:28:52,,city,"Toul, France",France
26900,-86.34023450000002,39.601138,Elite Health & Wellness,1220462565404311553,2020-02-20 16:29:29,"16 E Main St. Mooresville, IN",city,"Mooresville, IN",United States
222,107.6158815,-6.8817675000000005,pebriani004@gmail.com,1220462622916534274,2020-02-14 07:38:22,,city,"Coblong, Indonesia",Indonesia
29820,-114.459644,36.5773645,John Jarrel,1220462638120833025,2020-03-28 05:19:45,"Moapa Valley, NV",city,"Moapa Valley, NV",United States
41100,-113.5777655,37.0855815,John Jarrel,1220462638120833025,2020-04-02 20:10:42,"Moapa Valley, NV",city,"St George, UT",United States
29820,-114.459644,36.5773645,John Jarrel,1220462638120833025,2020-04-03 14:55:15,"Moapa Valley, NV",city,"Moapa Valley, NV",United States
96,48.0016735,29.364715999999998,,1220462653681946624,2020-02-14 14:09:37,,city,"Al Dasma, Kuwait",Kuwait
65,1.5910360000000001,50.697478,Eillish ,1220462659868512256,2020-03-05 11:22:31,,city,"Outreau, France",France
21,-43.441578,-22.911421500000003,JOEL,1220462870158286851,2020-02-15 12:29:11,,city,"Rio de Janeiro, Brasil",Brasil
12060,-84.3907725,33.7582145,Excite Sports,1220463003499364354,2020-03-05 14:03:21,,neighborhood,"Downtown, Atlanta",United States
200,29.0052225,41.0213205,Furkan Kara,1220463119727759366,2020-03-04 05:59:36,"stanbul, Trkiye",city,"stanbul, Trkiye",Trkiye
88,140.29058750000002,36.1258635,,1220463231761731584,2020-04-27 23:01:18,,city, ,
38,-74.24367099999999,4.2622835,Jorgelino Snchez,1220463683245133825,2020-04-20 20:53:56,,city,"Bogot, D.C., Colombia",Colombia
88,135.50536699999998,34.4721155,Hiroyuki Shinshi,1220463753432449024,2020-03-14 13:00:26,,city, ,
205,-1.4668700000000001,53.384467,NO DM,1220463811616026629,2020-04-13 12:51:20,,poi,Snig Hill Police Station,United Kingdom
21,-43.441578,-22.911421500000003,Pedro De Paula,1220463920793706496,2020-02-14 11:17:35,,city,"Rio de Janeiro, Brasil",Brasil
21,-43.851412,-19.727778,Emili,1220464069427245057,2020-04-23 06:01:59,,city,"Santa Luzia, Brasil",Brasil
21,-43.441578,-22.911421500000003,Yasmin Andrade,1220464302764838913,2020-02-14 00:22:45,,city,"Rio de Janeiro, Brazil",Brazil
35620,-74.08856,40.617096999999994,Mrs. Scutellaro,1220464352291172359,2020-03-16 12:53:09,,poi,Bayshore Trail,United States
88,139.658553,35.67089,L Kamiya,1220464461363859456,2020-05-15 04:12:38, ,poi, ,Japan
26420,-95.63168950000001,29.603464,TEXAN LED LIGHTS,1220464510655483905,2020-02-18 00:18:01,,city,"Sugar Land, TX",United States
164,-9.263853999999998,39.246114500000004,Z Gomes,1220464650149597186,2020-03-12 19:25:19,,city,"Lourinh, Portugal",Portugal
88,139.770856,35.711151,@,122046479,2020-02-15 04:50:20,,poi, (Shinobazu Pond),
71,13.5936105,52.4054525,Horst Mumpitz,122046480,2020-04-28 14:27:58,"Berlin, Germany",neighborhood,"Grnau, Berlin",Germany
8,-58.442643,-34.604315,Pablo H Saraniti,122046485,2020-03-04 02:29:20,Argentina,city,"Ciudad Autnoma de Buenos Aires, Argentina",Argentina
222,110.3380405,-7.0632990000000015,Yanuar_Risky,1220464956748910592,2020-03-07 20:19:45,"Lamongan, Indonesia",city,"Mijen, Indonesia",Indonesia
186,-1.1177955,37.916841,Salvani,1220464988164325382,2020-02-14 12:48:36,,city,"Murcia, Espaa",Espaa
186,-15.661505499999999,28.09545,Beaforod,1220465102157156352,2020-02-18 00:28:23,,city,"Gldar, Espaa",Espaa
193,100.607871,13.656075,  ,1220465167,2020-02-15 14:25:01,,poi,The Black Forest,
21,-47.796623,-15.776254000000002,Thayna,1220465176325115906,2020-03-05 01:52:08,,city,"Braslia, Brazil",Brazil
200,29.0052225,41.0213205,rahatbirakinbi,1220465215214620673,2020-03-02 21:26:40,"stanbul, Trkiye",city,"stanbul, Trkiye",Trkiye
21,-40.37516700000001,-20.427329500000003,Martha_Casagrande,1220465612025204737,2020-02-29 00:54:48,#27 ,city,"Vila Velha, Brasil",Brasil
85,16.2706065,39.278898,NoSilenzio,1220465625614692353,2020-03-01 16:35:37,,city,"Cosenza, Calabria",Italia
88,135.551095,34.852061500000005,,1220465700,2020-02-26 13:47:31,,city, ,
33,-70.6596155,-33.4521615,Ana,1220465896705208332,2020-03-04 15:44:34,,city,"Santiago, Chile",Chile
-9999,-75.74854300000001,-29.7498335,Ana,1220465896705208332,2020-03-13 01:24:08,,city,"Valparaso, Chile",Chile
33,-70.6596155,-33.4521615,Ana,1220465896705208332,2020-03-16 21:58:59,,city,"Santiago, Chile",Chile
10580,-73.62847500000002,42.756448999999996,@Cooper2112,1220465910630244352,2020-04-29 17:42:13,Upstate ,city,"Sycaway, NY",United States
88,139.4625355,35.803453999999995,Naoya Isaka,122046597,2020-02-24 05:06:39,,city, ,
222,127.38363899999999,0.821876,Hafsah,1220465984122671105,2020-02-14 02:49:43,indonesia,poi,Helmi Jewelry,Indonesia
128,4.3173855,50.879369,,1220466034148364288,2020-04-28 21:15:37,"Ganshoren, Bruxelle ",city,"Jette, Belgi",Belgium
33100,-80.2948925,26.1566185,,1220466126154543105,2020-02-20 07:43:20,SoFl,city,"Sunrise, FL",United States
88,139.704456,35.530190999999995,(),122046616,2020-05-09 05:12:01,,poi,,
96,47.898407,29.254696000000003,,1220466172317044736,2020-02-20 05:50:50,,poi,CBA,Kuwait
21,-40.109235,-19.34151,yraliH,1220466240231264256,2020-02-15 04:13:59,"Linhares, Brasil",city,"Linhares, Brasil",Brasil
160,-76.9937,-12.0986,Seytu cosmetica Natural,1220466291208667136,2020-02-15 20:15:06,,city,"San Borja, Peru",Peru
21,-49.417575,-24.265691,Black Sengeano ,1220466343964790785,2020-05-05 17:22:32,"Sengs, Brasil",city,"Sengs, Brasil",Brasil
205,-0.159403,51.5424365,Gurinder Chadha OBE,122046636,2020-02-14 16:42:29,London,city,"Camden Town, London",United Kingdom
35620,-73.9685415,40.780709,Gurinder Chadha OBE,122046636,2020-02-25 04:39:24,London,city,"Manhattan, NY",United States
31080,-118.3512175,33.8337145,Gurinder Chadha OBE,122046636,2020-02-29 23:39:44,London,city,"Torrance, CA",United States
205,-0.159403,51.5424365,Gurinder Chadha OBE,122046636,2020-03-06 13:50:44,London,city,"Camden Town, London",United Kingdom
21,-44.3657935,-23.032432500000002,Marcelo Cortez,1220466488865447936,2020-04-05 19:02:01,Brasil,city,"Angra dos Reis, Brasil",Brasil
200,29.0052225,41.0213205,Canan Doa BJK,1220466579797872643,2020-02-21 16:21:38,"Istanbul, Trkei",city,"stanbul, Trkiye",Trkei
205,0.127886,51.554019,Nad,1220466585896398857,2020-04-28 10:28:45,United Kingdom,city,"Barking, London",United Kingdom
21,-52.483236,-23.198006,Thalia Alves,1220466748975173633,2020-04-12 13:18:33,"Tamboara, Brasil",city,"Tamboara, Brasil",Brazil
60,23.732907,61.464038,Lotta Linnea,1220466879380295680,2020-02-29 13:53:01,,poi,Tampereen messu- ja urheilukeskus (Pirkkahalli),Finland
205,-0.159403,51.5424365,Jtree Web Design,1220466928415911936,2020-02-17 14:11:37,,city,"Camden Town, London",United Kingdom
21,-41.307309000000004,-21.807068,r.layra,1220467008015302662,2020-03-01 22:06:16,"Campos dos Goytacazes, Brasil",poi,Parque Imperial,Brasil
42660,-122.3306025,47.614816999999995,Fernando FitPro,1220467121177579521,2020-03-07 02:28:17,,city,"Seattle, WA",United States
31080,-118.07951000000001,33.755328000000006,Fernando FitPro,1220467121177579521,2020-03-15 20:35:57,,city,"Seal Beach, CA",United States
200,29.0452,41.082633,lknur Ylmaz,1220467194359840768,2020-03-07 17:34:17,,poi,Tanova Sitesi,Trkiye
42200,-119.701636,34.429885,Batsukh,1220467204677754881,2020-03-23 04:54:01,,city,"Santa Barbara, CA",United States
65,2.3844425,48.709261,GMS ,1220467230753939457,2020-05-26 22:40:30,"Paris, France",city,"Athis-Mons, France",France
186,-3.685567,40.464133000000004,Ral lvarez,1220467421393444867,2020-03-11 07:25:23,"Alcorcn, Espaa",poi,Navacerrada,Spain
37900,-89.598676,40.687166999999995,Marley Schultz,1220467449956487168,2020-02-15 16:33:28,"Peoria, IL",poi,Dozer Park,United States
24,-73.43361800000001,45.5109365,lowludiablo,1220467674381279232,2020-03-18 04:46:29,Canada,city,"Longueuil, Qubec",Canada
8,-56.8572205,-37.0977935,Malvina,1220467734007439363,2020-02-27 20:54:15,"Ascensin, Buenos Aires",city,"Pinamar, Argentina",Argentina
21,-43.176056,-22.900351,Naay Crispin,1220467824134623242,2020-02-18 13:44:32,,poi,Largo da Candelria,Brasil
21,-40.292823,-20.2804105,rica Melo,1220467879319162886,2020-03-02 03:52:24,,city,"Vitria, Brasil",Brasil
200,37.199822999999995,38.2005775,NUR DC,1220467945937285120,2020-03-28 07:46:17,,city,"Elbistan, Trkiye",Trkiye
31080,-118.5032585,34.415631,RedbullRicky,1220468090,2020-04-17 04:22:39,so cal scv,city,"Santa Clarita, CA",United States
19980,-100.0104915,37.758688,El Vaquero,1220468142972993541,2020-02-16 18:31:42,,city,"Dodge City, KS",United States
24,-79.41766,43.663778,Queen Onika,1220468348892467202,2020-03-23 05:38:36,"Toronto, Canada",poi,Poop Caf,Canada
41940,-121.87206299999998,37.25761,fii.inthacuts,1220468348980301824,2020-02-16 22:12:05,,poi,Uncle Buck's Fish Bowl and Grill,United States
29540,-76.4174665,40.090773,Hempfield Football,1220468519663521792,2020-05-09 15:58:04,"Landisville, Pa ",city,"Salunga, PA",United States
21,-43.3697645,-22.7854705,maelzin (tpa),1220468781664874496,2020-05-10 18:44:14,"belford roxo, terra do homem ",city,"So Joo de Meriti, Brasil",Brazil
21,-45.917442,-23.061418,Renato B. Santos,1220468807363416064,2020-02-14 13:37:07,"So Jos dos Campos, Brasil",city,"So Jos dos Campos, Brasil",Brasil
175,42.7768635,18.350106,ron_s3d,1220468811209592832,2020-02-17 02:00:24,,city,"Khamis Mushait, Kingdom of Saudi Arabia",Kingdom of Saudi Arabia
21,-43.3697645,-22.7854705,Andr.,1220468962061889537,2020-02-14 01:00:51,"Coelho da Rocha, So Joo de M",city,"So Joo de Meriti, Brasil",Brasil
38,-75.590644,6.1393835,m4,1220468985189347328,2020-03-03 11:44:10,,city,"Envigado, Colombia",Colombia
87,44.021652,36.148664000000004,,1220469059067809793,2020-02-27 23:25:29,Iraq,poi,Erbil,Iraq
88,139.7926315,35.90661400000001,,122046906,2020-02-14 01:07:08,,city, ,
38300,-79.9806895,40.431389,CHF.SQD,1220469142953787392,2020-03-05 22:41:16,,city,"Pittsburgh, PA",United States
31080,-118.129042,33.8880815,Dakota_90,1220469255495282689,2020-04-20 10:34:23,,city,"Bellflower, CA",United States
17140,-84.515762,39.131840999999994,Mia Walker,1220469256254562305,2020-05-02 14:35:00,,poi,University of Cincinnati,United States
39300,-71.435563,41.725953000000004,Noah Ashe,1220469275925852161,2020-02-17 20:15:34,Massachusetts/Rhode Island,poi,T.F. Green Airport (PVD),United States
17140,-84.53981250000002,39.137038,Things UC Bearcats Don't Say,1220469528296972290,2020-02-15 17:35:53,University Of Cincinnati,city,"Cincinnati, OH",United States
222,123.389227,0.771716,Annisaaa,1220469583364026368,2020-02-17 13:07:09,"Bolaangmongondow Utara, Sulawe",city,"Bolangitang, Indonesia",Indonesia
33,-70.8244775,-33.515108000000005,Griff556,1220469602028859392,2020-05-07 13:33:39,,city,"Maip, Chile",Chile
178,18.040910999999998,-33.04652,Ms Zinhle Novazi,122046976,2020-03-24 19:16:20,"Cape Town, South Africa",poi,Club Mykonos Marina,South Africa
88,139.3001175,35.5274805,,1220469817477480448,2020-04-16 23:26:38, 30. 10.28,city,"Aikawa-machi, Kanagawa",Japan
50,32.891505,24.093425,Loay muhamed ,1220470044909502469,2020-05-08 17:28:51,", ",poi,Elephantine Island |  ,Egypt
21,-42.1536125,-21.390234500000002,Gamadinho,1220470051335299072,2020-04-11 15:42:24,"Rio de Janeiro, Brasil",city,"Miracema, Brasil",Brasil
21,-48.9664745,-26.261689500000003,Matheus M.,1220470874245083137,2020-02-19 15:04:45,"Joinville, Brasil",city,"Joinville, Brasil",Brazil
38,-75.619213,6.270883,JSHU,1220471007615561728,2020-02-18 08:42:53,"Medelln, Colombia",city,"Medelln, Colombia",Colombia
8,-58.560701,-34.641386,Apolo,1220471029732167680,2020-02-27 01:28:41,Argentina,poi,Argentina,Argentina
96,47.99840356,29.3571849, ,1220471191149871110,2020-02-28 17:20:03,,city,"Al Mansouriyah, Kuwait",Kuwait
151,6.7102565,6.2012195,John Frances,1220471287740616704,2020-05-23 13:51:51,"Delta, Asaba",city,"Asaba, Nigeria",Nigeria
32820,-90.02477900000001,35.04146,Chosen Enhancements,1220471366715170818,2020-06-05 19:37:24,,poi,Nail Plus Day Spa,United States
151,10.4676075,11.3096535,Amir Adamu Turaki,1220471608650936320,2020-03-20 08:30:21,,city,"Misau, Nigeria",Nigeria
21,-39.8371895,-17.4297425,Rapunzel,1220471639210590209,2020-02-16 02:47:52,"Teixeira de Freitas, Brasil",city,"Teixeira de Freitas, Brasil",Brasil
175,36.614784,28.39854,,1220471694558744576,2020-05-07 11:00:09,,city,"Tabuk, Kingdom of Saudi Arabia",Kingdom of Saudi Arabia
69,-0.1842935,5.6231985,Stone Gee,1220471698383941632,2020-02-18 02:27:11,Tantra hill,city,"Accra, Ghana",Ghana
205,-3.1667955,56.117732999999994,Scotland Unchained/#FSI,122047171,2020-02-17 05:29:08,"A paddy in Fife, Scotland",city,"Kirkcaldy, Scotland",United Kingdom
205,0.5277305,51.263579,SN87,1220472159023304704,2020-03-07 00:15:16,,city,"Maidstone, South East",United Kingdom
151,3.39583,6.45306,specialobv,1220472197032095746,2020-04-22 07:12:05,,city,"Lagos, Nigeria",Nigeria
21,-44.281524,-21.2384655,exausta,1220472255370747905,2020-03-11 00:31:21,,city,"So Joo del Rei, Brasil",Brazil
24,-114.4670645,51.18940600000001,Glenda Jordan,1220472295816253441,2020-03-25 13:23:12,,city,"Cochrane, Alberta",Canada
205,-7.373119,57.640584999999994,@joanF,1220472300547596289,2020-02-16 12:48:58,"North Uist , Outer Hebrides ",poi,Isle of North Uist,United Kingdom
21,-35.214542,-5.9182125,Analinews@docente2020.com,1220472333351211011,2020-02-20 23:05:43,,city,"Parnamirim, Brasil",Brasil
8,-64.1980255,-31.4154565,agostina,1220472373218103298,2020-02-15 14:20:41,Argentina,city,"Crdoba, Argentina",Argentina
36420,-97.427291,35.8757985,Savannah,1220472373775912961,2020-05-10 02:12:06,United States,city,"Guthrie, OK",United States
21,-50.946837,-17.783723000000002,Ipuchima,1220472477136171009,2020-02-25 17:14:25,"Jata, Brasil",poi,Parque Interlagos,Brasil
96,48.0860765,28.841995500000003,,1220472697370632198,2020-03-04 13:32:37, ,city,"Aeraifjan, Kuwait",Kuwait
200,33.6282,40.606389,m.,1220472757860913152,2020-04-10 08:44:44,,city,"ankr, Trkiye",Trkiye
35300,-72.9291585,41.298394,ChapelST,1220472774474510338,2020-02-20 15:09:33,,city,"New Haven, CT",United States
222,107.097447,-6.412797,Muhamad Herdian,1220472786713374720,2020-04-25 03:48:42,,poi,Mutiara Bekasi Jaya Blok A,Indonesia
2,3.5939400000000004,36.566192,Bissat Errih,1220472847254114307,2020-02-18 11:16:06,,city,"Lakhdaria                                                                                           , Algeria",Algrie
71,6.9156595,51.570915,schirmegegenrechts,1220472940661297152,2020-02-21 13:08:42,"Herne, Deutschland",city,"Bottrop, Deutschland",Germany
21,-41.726288000000004,-22.316761,Armando Monteiro,1220472973800460289,2020-02-18 21:29:10,,poi,Costa Paradiso,Brasil
24,-74.662301,45.7028715,Sunshine04,1220473038451376134,2020-03-08 13:18:39,"Ottawa, Canada",city,"Grenville-sur-la-Rouge, Qubec",Canada
200,28.993540999999997,40.24132,brahimerkani,1220473063323635712,2020-02-15 21:19:37,Bursa/Trkiye,poi,Cehennemde Locada,Trkiye
35620,-73.9685415,40.780709,big queen,1220473117455405057,2020-03-05 05:38:49,,city,"Manhattan, NY",United States
51,-6.247621499999999,53.3549025,Maria-was-here,1220473249613647872,2020-05-22 15:54:56,,city,"Dublin City, Ireland",Ireland
119,-98.9739505,18.943552,Montse,1220473357520367616,2020-04-15 00:36:36,,city,"Tlayacapan, Morelos",Mexico
41860,-122.43597849999999,37.7706565,Jason Shapiro,1220473753,2020-02-14 02:09:00,"San Francisco, CA",city,"San Francisco, CA",United States
14860,-73.3425245,41.144642,Jason Shapiro,1220473753,2020-03-21 00:57:09,"San Francisco, CA",city,"Westport, CT",United States
45300,-82.53435400000002,28.483847499999996,gary,1220473780864274433,2020-03-07 22:24:02,,city,"Spring Hill, FL",United States
222,110.12553500000001,-7.584260499999999,,1220473999,2020-02-14 03:12:03,"Magelang, Central Java",city,"Salaman, Indonesia",Indonesia
14460,-71.0887125,42.3136695,James Bartlett,1220474108674224134,2020-02-14 01:54:32,"Beacon Hill, Boston",city,"Boston, MA",United States
21,-58.5602335,-12.960015499999999,GABI,1220474136507703297,2020-04-09 00:07:54,"Sapezal, Brasil",city,"Sapezal, Brasil",Brasil
31080,-118.66260600000001,34.13726,MistyDawn,1220474180,2020-02-24 01:35:28,"Santa Clarita, CA",city,"Calabasas, CA",United States
21,-47.7877835,-15.260517000000002,Rodrigo Barbosa,1220474275813036033,2020-05-28 22:25:22,"Planaltina, Brasil",city,"Planaltina, Brasil",Brasil
222,114.004057,-8.528133500000001,Cak Udin,1220474403646914560,2020-03-26 09:03:35,,city,"Pesanggaran, Indonesia",Indonesia
24,-122.818486,49.111519,Bill Elms.,1220474503429443585,2020-02-21 06:57:25,,city,"Surrey, British Columbia",Canada
8,-59.862469499999996,-36.7816765,Ro Milanessi,1220474533800501258,2020-03-30 15:22:56,,city,"Azul, Argentina",Argentina
167,51.503005,25.29278,,1220474624603033601,2020-02-21 14:09:20,Qatar,poi,Hamad General Hospital,Qatar
88,138.29269349999998,34.8451625,KURISANCHI,1220474659205832704,2020-02-16 03:48:00,3-3-32,city, ,
21,-46.5075055,-23.955464000000003,Bruno Vieira Rodrigues,1220474704064139270,2020-03-08 22:43:59,,city,"So Vicente, Brasil",Brasil
31080,-117.8874385,33.739992,"John Adams Elementary School, SAUSD",1220474710661595136,2020-02-27 19:04:41,2130 S Raitt St. Santa Ana,city,"Santa Ana, CA",United States
88,139.349842,36.307464,Liliana Hamagashira,1220474722757926912,2020-02-16 21:25:09,,city,"Ota-shi, Gunma",Japan
200,32.79748,39.92901,idem,1220474730572107778,2020-03-04 11:05:34,Ankara,poi,Cumhurbakanl Millet Ktphanesi,Trkiye
48,-69.933142,19.365369,Luder Guzmn,1220474766907322369,2020-03-18 09:28:45,,city,"Nagua, Dominican Republic",Dominican Republic
41940,-121.8737305,37.331159,frantastic,1220474957219516418,2020-05-10 04:58:56,"San Jose, CA",city,"San Jose, CA",United States
222,109.271782,-7.528983,rislam(GOLLEP),1220475014,2020-05-03 03:30:10,jakarta,city,"Banyumas, Indonesia",Indonesia
119,-116.929102,32.332876500000005,Roberto Llanes,1220475046650531840,2020-03-26 21:10:21,"Tijuana, Baja California",city,"Tijuana, Baja California",Mxico
65,-1.195506,48.3511935,Frdrique Coquelet,1220475075239075841,2020-02-14 08:46:45,"Bretagne, France",city,"Fougres, France",France
38060,-112.1246765,33.5528625,chynna ,1220475229,2020-02-21 06:15:20,phx//az ,city,"Phoenix, AZ",United States
200,40.1973355,37.9374775,songl aygn,1220475350431535104,2020-02-22 13:08:57,"Tatvan, Bitlis",city,"Diyarbakr, Trkiye",Trkiye
37980,-75.37591450000001,39.849025,KartiarBear_,1220475640836653057,2020-02-14 04:15:01,Philly,city,"Chester, PA",United States
88,136.78230449999998,35.44726900000001,yacchi-t,1220475671501144064,2020-05-28 09:18:26,,city, ,
8,-57.50988100000001,-37.850348,Mauro,1220475935172055040,2020-02-23 17:16:08,"Buenos Aires, Argentina",city,"Mar Chiquita, Argentina",Argentina
200,37.387009000000006,37.062044,yusuf,1220476027346046976,2020-04-03 16:22:47,"Gaziantep, Trkiye",city,"Gaziantep, Trkiye",Turkey
88,139.6345155,35.636514,&Co.,122047611,2020-02-16 09:38:27,,city, ,
151,6.167631,6.262098,Tina,1220476304912457729,2020-06-09 20:14:01,"Lagos, Nigeria",poi,Royal Courtyard,Nigeria
41860,-121.979527,37.5236445,mira ,1220476372130222080,2020-05-09 21:21:48,,city,"Fremont, CA",United States
33,-71.884103,-33.986641,25 Nudos Lodge,1220476399124873217,2020-03-11 01:12:16,"La Vega de Pupuya, Navidad ",poi,Boca de Pupuya,Chile
40140,-117.22331899999999,34.126377000000005,b e l l a ,1220476422168252417,2020-06-03 01:58:17,"Hesperia, CA",poi,Here,United States
88,136.79075999999998,35.310094,,1220476452186943488,2020-04-04 03:57:30,,city,"Ichinomiya-shi, Aichi",Japan
44700,-121.3004255,37.980826,Billie Mumford,1220476489373585408,2020-04-03 01:29:41,,city,"Stockton, CA",United States
222,108.22378,-7.322400999999999,KangEzaaa,1220476595070103553,2020-02-19 07:33:49,"Yogyakarta, Indonesia",poi,Stasiun Tasikmalaya,Indonesia
38,-74.24367099999999,4.2622835,Rapphhass@gmail.com,1220476632496066562,2020-04-06 03:55:11,,city,"Bogot, D.C., Colombia",Colombia
21,-46.185715,-23.559382,Roberto Salina SP Leste ,1220476755682656259,2020-02-14 01:58:09,"So Paulo, Brasil",city,"Mogi das Cruzes, Brasil",Brasil
222,106.0483515,-6.0416655,Aldi Rizki Fauzi,122047678,2020-02-14 00:10:53,"T: -6.0035669,106.0644813",city,"Cilegon, Indonesia",Indonesia
193,100.569407,13.720195,,122047692,2020-03-23 05:37:43,"Bangkok, Thailand",city,", ",
200,32.567358,39.9647495,Muhammet,1220476951519023104,2020-02-16 18:31:07,,city,"Sincan, Trkiye",Turkey
40380,-77.698275,42.560365999999995,Michelle,1220477085925494784,2020-06-06 15:37:26,,city,"Dansville, NY",United States
16700,-80.17241,32.999978999999996,Michelle,1220477085925494784,2020-06-11 13:08:59,,city,"Summerville, SC",United States
151,3.3386055,6.4931125000000005,zainab_biy,1220477093026435072,2020-04-27 13:25:27,"Lagos, Nigeria",city,"Lagos, Nigeria",Nigeria
8,-58.56449,-34.4587225,valeentiin!,1220477215328165888,2020-03-10 23:47:00,"Buenos Aires, Argentina",city,"San Fernando, Argentina",Argentina
21,-43.422867499999995,-21.708015,mbile,1220477621747822592,2020-02-14 22:30:00,"Mercs, Brasil",city,"Juiz de Fora, Brasil",Brazil
82,80.88440750000002,26.8251695,Farhan Baig,1220477729855770624,2020-02-20 22:36:39,,city,"Lucknow, India",India
21,-51.043855,-29.664957,FernandaMellofgb,1220477750324203522,2020-02-16 12:19:54,,city,"Campo Bom, Brasil",Brasil
200,29.0052225,41.0213205,elvann,1220478086434689026,2020-03-18 22:47:16,,city,"stanbul, Trkiye",Turkey
71,8.8298849,53.0383672,"NegativeNegater , Chamlion Cyborg King Even Prohn",1220478139148787713,2020-02-20 19:39:07,Somewhere in the Living World,city,"Bremen, Deutschland",Deutschland
16980,-87.732013,41.8335845,Notorious Jewish Ba(n)ker,1220478170,2020-03-21 02:57:31,"Chicago, IL",city,"Chicago, IL",United States
-9999,-34.550309000000006,-4.8747985,Jamila lima,1220478443139272707,2020-03-09 00:19:13,Natal,city,"Natal, Brazil",Brazil
65,-4.1851045,48.667492,Issa Kamali,1220478452542976002,2020-02-16 19:25:09,,city,"Plouescat, France",France
200,30.680889,36.89007,Seydi Tomasl,1220478463833972736,2020-03-31 05:34:00,,city,"Antalya, Trkiye",Trkiye
51,-7.293810499999999,52.5684865,Ferrybank Community First Responders,1220478464094101504,2020-03-03 23:19:17,"Ferrybank, ",city,"Kilkenny, Ireland",Ireland
175,38.1911485,24.105024,Muhammadzeshan629@gmail.com,1220478487510888449,2020-04-04 09:02:48,,city,"Yanbu, Kingdom of Saudi Arabia",Kingdom of Saudi Arabia
82,79.174911,26.662695000000003,Thakur Divyank Singh Chauhan,1220478566514585601,2020-06-03 18:08:54,"Lakhna, India",poi,bakewar,India
128,5.0628425,50.4894385,clem.lz ( Nvx Compte ),1220478632705056770,2020-03-18 08:35:15,,city,"Andenne, Belgique",Belgium
36540,-96.124342,41.447701,ava jenkins,1220478729245417475,2020-04-25 07:44:39,omaha nebraska ,poi,Lakeland,United States
193,100.98831750000001,13.3622705,   ,1220478808068780032,2020-02-22 15:11:20, ,city,", ",
46140,-95.79733509999998,36.0309856,Kim Blake,1220478812,2020-02-24 23:35:03,Oklahoma,city,"Broken Arrow, OK",United States
19100,-96.8775,32.9289,Kim Blake,1220478812,2020-04-23 17:13:54,Oklahoma,city,"Farmers Branch, TX",United States
27260,-81.3132,29.8924,Kim Blake,1220478812,2020-05-02 01:05:39,Oklahoma,city,"St Augustine, FL",United States
46140,-95.8301,36.2929,Kim Blake,1220478812,2020-05-14 15:34:22,Oklahoma,city,"Owasso, OK",United States
27260,-81.2656,29.8503,Kim Blake,1220478812,2020-05-31 14:47:25,Oklahoma,city,"St Augustine Beach, FL",United States
21,-62.22253015,-10.73309111,Thary,1220478876549373957,2020-02-17 01:34:41,"Rio Branco, Brasil",city,"Ouro Preto do Oeste, Brasil",Brazil
21,-46.5955455,-23.682803,Joice De Cassia,1220479009949089792,2020-04-19 05:53:06,,city,"So Paulo, Brasil",Brasil
28140,-94.5592815,39.1000485,Jaquevis Day,1220479070208700422,2020-03-25 05:56:55,grannys house,city,"Kansas City, MO",United States
2,-0.6297515,35.682718,Safsaf Rahmouni,1220479096574095361,2020-02-16 01:19:42,,city,"Oran                                                                                                , Algeria",Algrie
24,-73.63442914,45.47764776,Tafilaltt  ( Acha Adnan ),1220479137359585282,2020-02-24 02:06:04,"Rissani, Tafilalt ",city,"Hampstead, Qubec",Canada
19660,-80.9093545,28.968526,Melanie Ellis,1220479279,2020-02-14 18:29:39,"Edgewater, FL",city,"Edgewater, FL",United States
21,-43.441578,-22.911421500000003,andre faria,1220479386979315712,2020-02-28 08:13:14,,city,"Rio de Janeiro, Brasil",Brasil
35620,-74.3903,40.7772,GoodLittleDoBee,1220479459658256384,2020-06-01 20:01:09,"New Jersey, USA",city,"Florham Park, NJ",United States
205,-1.13067,52.6262635,Luciano Radrigan,1220479477240729601,2020-04-01 08:49:13,Reino Unido,city,"Leicester, England",United Kingdom
200,28.954340999999996,40.226213,manani .. ,1220479537731055619,2020-03-01 16:51:56,,city,"Nilfer, Trkiye",Turkey
24,-82.5577735,46.1884345,djbigzee420,1220479787334017024,2020-03-26 18:07:06,"Serpent River 7, Ontario",city,"Serpent River 7, Ontario",Canada
151,5.4847280000000005,10.406884000000002, H A R-Q A L L H ,1220479788718137345,2020-03-08 16:56:38,"Niger, Nigeria",city,"Kontagora, Nigeria",Nigeria
88,136.449659,34.634395,MK,1220480036555223042,2020-02-19 01:52:14,,poi, ,Japan
48260,-80.564155,40.399744,GreekTrader,1220480072303497216,2020-05-08 01:31:36,"Pennsylvania, USA",poi,Earth,United States
65,4.835099,45.75782150000001,Florian Duchez,1220480163718291458,2020-04-11 12:22:30,Lyon,city,"Lyon, France",France
21,-43.441578,-22.911421500000003,Alex,1220480187726553089,2020-06-01 16:48:37,Rio de Janeiro ,city,"Rio de Janeiro, Brasil",Brasil
16980,-87.732013,41.8335845,Hepheastus,1220480342735425539,2020-05-13 22:42:29,,city,"Chicago, IL",United States
21,-44.271997,-23.002461,Th,1220480519814643714,2020-02-27 00:09:24,,poi,Camorim Grande,Brasil
69,-0.1842935,5.6231985,DaDa Anelka,1220480677759635459,2020-04-16 03:24:44,,city,"Accra, Ghana",Ghana
119,-99.179292,19.409108,Scarlett LC,1220480845,2020-04-07 02:00:09,,neighborhood,"Hipdromo Condesa, Cuauhtmoc",Mxico
205,-0.09613,50.997937,Brighton Pundit,1220481170334416899,2020-04-08 01:07:41,"Brighton, England",city,"Haywards Heath, England",United Kingdom
21,-50.4475825,-25.9278135,tas  aps,1220481171462729730,2020-04-21 13:15:54,9.727km.,city,"So Mateus do Sul, Brasil",Brasil
82,74.812737,13.3271155,Ganesh,122048120,2020-03-28 11:07:40,India,city,"Udupi, India",India
21,-41.889143100000005,-21.2039704,vulgo Dionsio,1220481229784592384,2020-02-17 19:19:17,,city,"Itaperuna, Brasil",Brasil
222,112.514168,-7.889122,Zhavirra Noor Rivdha,1220481322520465408,2020-03-12 14:59:28,,poi,Amarta Hills Hotel & Resort,Indonesia
30,106.45166200000001,29.563176000000002,@chongqing,1220481359459704835,2020-02-19 01:19:47,,poi,C,People's Republic of China
161,67.02997199999999,30.207511,sardar looni,1220481365134729216,2020-03-04 18:51:17,,city,"Quetta, Pakistan",Pakistan
119,-101.20114699999999,19.689625,ojomorelia,1220481369857347584,2020-03-06 16:49:17,"Morelia, Michoacn de Ocampo",poi,Facultad De Economia,Mxico
200,29.0052225,41.0213205,Kemal Dernek,1220481536635678725,2020-02-15 09:08:10,"mraniye, stanbul",city,"stanbul, Trkiye",Turkey
96,48.0878215,28.60718, . ,1220481566687842305,2020-02-27 18:22:25,"Alasimah, Kuwait",city,"Wafra Farms, Kuwait",Kuwait
21,-43.3697645,-22.7854705,iluminado por Deus ,1220481585100869635,2020-02-20 11:11:12,"Rio de Janeiro, Brasil",city,"So Joo de Meriti, Brasil",Brasil
82,77.58681800000001,14.697060500000001,Pavan Nanda,1220481607,2020-04-10 18:21:02,"Hyderabad, India",city,"Anantapur, India",India
82,86.6977,24.491487,Viney Srivastava,1220481685826834433,2020-03-13 13:02:37,"Uttar Pradesh, India",poi,Baidyanath Dham Mandir,India
21,-40.7652095,-20.4331505,Patrcia Jahring Ferreira,1220481892069396481,2020-04-11 22:03:56,,city,"Marechal Floriano, Brasil",Brasil
21,-43.296872,-22.644558,Rafael Fernandes de Alencar,1220482069253558272,2020-02-14 00:58:37,,city,"Duque de Caxias, Brasil",Brasil
120,101.86212900000001,2.953135,Mokhtaromzie @gmail. Com,1220482129210904576,2020-03-29 05:54:26,,city,"Semenyih, Selangor",Malaysia
46520,-158.056149,21.487773,Lightning 6,1220482186115084288,2020-05-28 23:57:04,"Schofield Barracks, Hawai`i",poi,Warrior Inn DFAC,United States
-9999,-34.550309000000006,-4.8747985,Walter Ferreira,1220482321247281159,2020-04-21 01:20:28,,city,"Natal, Brasil",Brasil
69,-0.027335,5.708778,Mr. Potter,1220482322782392320,2020-04-27 10:59:42,,poi,Community 22,Ghana
200,28.929762,41.044556,Hudperest,1220482410279833600,2020-02-14 13:29:01,,poi,Sahn- Semn slam limler Eitim ve Aratrma Merkezi,Trkiye
200,40.517653499999994,41.0293075,pearliliyy,1220482418232131586,2020-03-20 18:16:56,"Rize, Trkiye",city,"Rize, Trkiye",Turkey
85,11.9198855,43.0259695,mario,1220482556287770624,2020-03-15 07:25:49,,city,"Chiusi, Toscana",Italia
21,-43.441578,-22.911421500000003,Bruno,1220482642304552960,2020-04-13 20:39:19,rj / zn,city,"Rio de Janeiro, Brasil",Brasil
12580,-76.624746,39.133363,boomguys,1220482693949022208,2020-02-15 14:41:40,,city,"South Gate, MD",United States
88,131.24559,34.209213000000005,,122048286,2020-03-29 11:39:02,,city, ,
21,-43.441578,-22.911421500000003,Rei Leo,1220482886710722562,2020-02-18 09:37:41,complexo de Anchieta,city,"Rio de Janeiro, Brasil",Brasil
65,4.938396,49.700463,Kamel MEDAH,1220482939865260034,2020-02-15 21:12:06,Sedan Ardennes Grand Est,poi,Stade Louis-Dugauguez,France
151,3.3180660000000004,6.590611,Sex'E'me,1220483034077634561,2020-02-15 15:46:30,"Lagos, Nigeria",city,"Ikeja, Nigeria",Nigeria
82,85.49878749999998,26.592359,    ,1220483047784505346,2020-03-10 11:52:31,,city,"Sitamarhi, India",India
21,-43.41394520000001,-22.7942497,Juan Azevedo,1220483075169300480,2020-03-23 01:20:27,021,city,"Nilpolis, Brasil",Brasil
8,-58.013021499999994,-34.9363185,Yanina,1220483093578092544,2020-02-21 22:33:03,,city,"La Plata, Argentina",Argentina
21,-39.7643545,-16.986425500000006,Junnie,1220483096409247744,2020-04-30 04:46:44,multifandom amg ,city,"Itamaraju, Brasil",Brasil
21,-43.459276,-23.025759, INSTA: lifeofmateus ,1220483164734480385,2020-02-14 17:00:23,,poi,Posto 10,Brasil
65,1.950652,48.7545705,carlos404,1220483241183977474,2020-04-07 01:38:32,,city,"La Verrire, France",France
186,-3.7035075,40.4777945,Podosito,1220483271114547200,2020-03-09 00:04:45,,city,"Madrid, Spain",Spain
205,-4.9,50.3,Splendidly Imperfect by Sarah,1220483304488624129,2020-02-17 10:55:27,cornwall,city,"Grampound, England",United Kingdom
96,48.032672,29.318847,Mohammed Al Tabtabai,1220483396943609856,2020-03-23 15:15:26,,city,"Al Jabriyah, Kuwait",Kuwait
19740,-104.9220935,39.713563,betsy leighton,1220483641580519424,2020-04-17 04:19:09,,city,"Denver, CO",United States
21,-43.311504,-22.791492,@Mchll649,1220483744441737216,2020-03-18 10:35:58,,poi,McDonald's,Brasil
12260,-82.063185,33.4407175,So_Roxkout,1220483908694937601,2020-02-28 19:00:12,"Augusta, GA",city,"Augusta, GA",United States
79,15.33494,45.236748,House Emma,1220484251717709826,2020-02-17 07:48:38,,poi,Kukaa,Hrvatska
8,-58.3901175,-34.702244500000006,Guasn,1220484329597546497,2020-03-27 02:11:17,,city,"Lans Oeste, Argentina",Argentina
96,47.942971,29.304575,,1220484689217183749,2020-02-20 14:54:01,,poi,VOX Cinemas,Kuwait
21,-46.5955455,-23.682803,Bryan Prado,1220484718627606531,2020-03-12 17:22:07,,city,"So Paulo, Brasil",Brasil
222,100.663239,-0.10782,Lembayung Senja,1220484793663574017,2020-03-01 21:18:13,"Riau, Indonesia",poi,Lembah Harau,Indonesia
96,48.096903000000005,29.136896999999998,,1220484875595272192,2020-02-17 05:42:53,   ,poi,   , 
200,29.0052225,41.0213205,Fatmanur,1220484914971381760,2020-02-14 09:02:48,,city,"stanbul, Trkiye",Trkiye
65,-0.371959,49.184634499999994,lo ma,1220484921921363968,2020-03-15 18:48:45,,city,"Caen, France",France
14460,-71.152874,42.18476,Breweries with Bex,1220485000476405761,2020-02-27 22:38:31,,poi,Trillium Brewing Company,United States
21,-46.5955455,-23.682803,live this moment,1220485003966144512,2020-02-20 20:37:19,,city,"Sao Paulo, Brazil",Brazil
88,139.93690800000002,36.9961015,Force,1220485031434452993,2020-02-14 04:24:27, ,city,"Nasushiobara-shi, Tochigi",Japan
24860,-82.208899,34.79872450000001,Jim Holt,1220485100539912192,2020-02-26 01:51:48,"Georgia, USA",city,"Five Forks, SC",United States
23580,-83.87678000000001,34.223620999999994,Jim Holt,1220485100539912192,2020-03-02 15:46:32,"Georgia, USA",city,"Oakwood, GA",United States
16740,-80.7601875,34.7288365,Jim Holt,1220485100539912192,2020-03-03 16:13:59,"Georgia, USA",city,"Lancaster, SC",United States
24860,-82.208899,34.79872450000001,Jim Holt,1220485100539912192,2020-03-04 03:15:45,"Georgia, USA",city,"Five Forks, SC",United States
18460,-83.5315975,34.520514500000004,Jim Holt,1220485100539912192,2020-03-13 23:14:16,"Georgia, USA",city,"Cornelia, GA",United States
24860,-82.23942199999999,34.938684499999994,Jim Holt,1220485100539912192,2020-03-18 15:30:39,"Georgia, USA",city,"Greer, SC",United States
174,30.1353,-1.9638669999999998,Manzi,1220485134102732800,2020-03-13 17:26:46,Rwanda,poi,Document Check,Rwanda
21,-43.441578,-22.911421500000003,silva,1220485192323825664,2020-02-14 16:47:41,,city,"Rio de Janeiro, Brasil",Brasil
193,102.7613955,17.873155500000006,(),1220485195,2020-02-14 08:28:34,", ",city,", ",
21,-43.441578,-22.911421500000003,Weslley,1220485221935656961,2020-04-21 20:02:15,"Rio de Janeiro, Brasil",city,"Rio de Janeiro, Brazil",Brazil
21,-47.796623,-15.776254000000002,Verinaldo,1220485274188296193,2020-02-16 16:01:18,"Braslia, Brasil",city,"Braslia, Brasil",Brasil
21,-46.5955455,-23.682803,Bravata Connection - Codinome: Jacozinho,1220485309470793729,2020-02-14 22:03:32,"So Paulo, Brasil",city,"Sao Paulo, Brazil",Brazil
120,101.2025985,4.6471325,Sarihah,1220485411086061570,2020-03-16 07:17:00,,city,"Hulu Kinta, Perak",Malaysia
151,3.3180660000000004,6.590611,Biitruz Yusuph Lil'bit,1220485583396622338,2020-02-18 22:44:57,"Lagos, Nigeria",city,"Ikeja, Nigeria",Nigeria
21,-42.96726599,-22.41145388,Paty Marins,1220485590296268805,2020-02-14 23:18:33,"Terespolis, Brasil",city,"Terespolis, Brasil",Brasil
38060,-112.1246765,33.5528625,asher,1220485684370141190,2020-02-23 21:50:49,,city,"Phoenix, AZ",United States
186,-2.946774,35.292836,baabyy_,1220485693237088256,2020-04-10 05:21:15,"Melilla, Espaa",city,"Melilla, Spain",Spain
17140,-84.56467599999998,39.028003000000005,chester copperpot,1220485773021065218,2020-05-15 00:16:04,,city,"Crestview Hills, KY",United States
205,-2.911308,53.371412,Eve Wilkinson,1220485781665591296,2020-04-12 11:04:59,,poi,TeamSport Liverpool,United Kingdom
193,100.642595,13.765816000000001,UmimPhoto,1220485963,2020-02-29 12:45:25,,poi,The Mall Bangkapi ( ),
21,-43.3990075,-22.375629999999997,Morena Anjos,1220485964671438849,2020-03-13 01:14:25,"Paty do Alferes, Brasil",city,"Paty do Alferes, Brasil",Brasil
51,-9.0333065,51.903863,Richie A,1220486057051009026,2020-02-14 19:58:42,"Cork, Ireland",city,"Cork, Ireland",Ireland
151,7.029838000000001,5.498543,JayBaaba Da HypeMonster,1220486123975335939,2020-03-06 20:13:58,,city,"Owerri, Nigeria",Nigeria
88,130.41748,33.31816,MAURA TSUYOSHI,122048636,2020-04-14 14:04:30,,city, ,
222,106.956122,-6.365329,Risya Salma,1220486591816200192,2020-04-23 07:20:39,Ciangsana,poi,Masjid Darussalaam Kota Wisata,Indonesia
21,-50.5020645,-26.3061075,Taina Nogath,1220486593313759233,2020-02-16 20:19:59,,city,"Canoinhas, Brasil",Brasil
21,-39.6958365,-17.6341195,Kelly Morais,1220486828588961794,2020-02-23 17:21:00,,city,"Caravelas, Brasil",Brasil
71,8.5653755,49.4768975,Freie Whler Ilvese,122048718,2020-04-12 07:25:54,Ilvesheim,city,"Ilvesheim, Deutschland",Deutschland
61,177.430911,-17.778979,Kimberly Ellen Kerr,1220487302,2020-03-08 00:38:11,,poi,Skydive Fiji,Fiji
31080,-118.4119065,34.0207895,Kimberly Ellen Kerr,1220487302,2020-03-12 21:20:24,,city,"Los Angeles, CA",United States
21,-43.285446,-22.805301,Lucas Murillo,1220487369893318657,2020-03-27 11:30:39,,poi,Parque das Misses,Brasil
21,-46.666184,-23.524293,Gk Sousa,1220487460989341696,2020-02-17 16:45:16,"So Paulo, Brasil",poi,Barra Funda,Brasil
40140,-116.361297,33.7405385,jenniferlozinski,1220487477460291584,2020-03-11 22:17:13,,city,"Palm Desert, CA",United States
24,-104.64089399999999,50.455135999999996,taken by baby,1220487477460291584,2020-04-05 04:54:38,"Regina, Saskatchewan",city,"Regina, Saskatchewan",Canada
119,-99.747424,25.668778,Pimenio,1220487518799319041,2020-02-14 02:58:58,,poi,San Isidro,Mxico
47580,-83.653738,32.616627,k.raw ,1220487649800179712,2020-05-31 03:00:23,,poi,At Home,United States
120,100.4085575,5.911549, Eryque Etiqaz | Giveaway Bae ,1220487868834992128,2020-05-10 04:44:39,"Kuala Lumpur, Malaysia",city,"Sala Besar, Kedah",Malaysia
21,-35.8801555,-7.0086075, Chris com h,1220487869606912000,2020-03-04 20:47:57,,city,"Esperana, Brasil",Brazil
175,39.2541285,21.5857105, ,1220487883,2020-02-20 13:39:57,,city,",   ",  
200,30.97931,37.4928315,Nesli,1220487940964605954,2020-04-17 10:09:31,"Isparta, Trkiye",city,"Stler, Trkiye",Trkiye
21,-48.6615725,-7.268911500000001,Clayton Lima Melo,1220487988507041792,2020-02-26 18:30:48,"Araguana, Brasil",city,"Araguana, Brasil",Brasil
152,5.593953,51.287583500000004,vankessel.95,1220488015279280133,2020-04-03 03:02:25,,city,"Cranendonck, Nederland",The Netherlands
200,29.810513,40.763183500000004,Eren,1220488100838879233,2020-05-18 13:30:34,Kocaeli Derince,city,"Derince, Trkiye",Trkiye
38,-75.619213,6.270883,KOLON TIB,1220488244057473024,2020-03-12 03:59:10,,city,"Medelln, Colombia",Colombia
21,-35.30133100000001,-6.0791785,Breno Nogueira,1220488354728501248,2020-03-07 19:49:42,"Natal, RN",city,"So Jos de Mipibu, Brasil",Brasil
-9999,-34.5063665,-4.8747985,Breno Nogueira,1220488354728501248,2020-03-09 03:12:34,"Natal, RN",neighborhood,"Ponta Negra, Natal",Brasil
21,-35.30133100000001,-6.0791785,Breno Nogueira,1220488354728501248,2020-03-09 03:23:01,"Natal, RN",city,"So Jos de Mipibu, Brasil",Brasil
-9999,-34.550309000000006,-4.8747985,Breno Nogueira,1220488354728501248,2020-03-13 16:27:07,"Natal, RN",city,"Natal, Brasil",Brasil
21,-35.206881,-5.8675485,breno,1220488354728501248,2020-05-10 15:05:34,Natal - RN ,neighborhood,"Nepolis, Natal",Brasil
-9999,-34.550309000000006,-4.8747985,breno,1220488354728501248,2020-05-12 06:13:25,Natal - RN ,city,"Natal, Brasil",Brasil
41740,-117.10498899999999,32.810012,San Diego Air Care,1220488367739002880,2020-05-24 20:44:48,"San Diego, CA",city,"San Diego, CA",Estados Unidos
171,121.0627355,14.683012,Hennesey,1220488413712764928,2020-02-16 02:40:57,,city,"Quezon City, National Capital Region",Republic of the Philippines
151,3.3386055,6.4931125000000005,oluwatinny,1220488555090366464,2020-06-08 10:54:22,"Lagos, Nigeria",city,"Lagos, Nigeria",Nigeria
151,7.424094,9.073663999999999,Manuel_Atule,1220488558911377409,2020-03-25 13:58:06,"Abuja, Nigeria",city,"Abuja, Nigeria",Nigeria
193,100.585711,13.733137,  ,1220488579,2020-05-31 13:33:55,,city,", ",
200,28.557143,41.0119835,CYHNULU,1220488641203572737,2020-03-20 19:52:34,,city,"Bykekmece, Trkiye",Turkey
88,139.3881,35.562427500000005,164 taka,1220488720333148160,2020-02-15 14:34:37,,city,"Machida-shi, Tokyo",Japan
175,46.685077,24.7219435, ,1220488759571025925,2020-02-22 12:03:17,  ,city,"Riyadh, Kingdom of Saudi Arabia",Kingdom of Saudi Arabia
151,9.825524,10.315941,Idris Buba,1220489015109079040,2020-05-26 16:22:22,"Jos, Nigeria",city,"Bauchi, Nigeria",Nigeria
21,-43.49035000000001,-22.898284,Menozinho ,1220489114002370560,2020-03-22 06:19:24,,neighborhood,"Senador Camar, Rio de Janeiro",Brasil
35620,-74.29020463,40.70561528,niibangout,1220489390725660686,2020-03-05 16:35:13,Inna cut,city,"Union, NJ",United States
8,-58.59181792,-34.6445795,niibangout,1220489390725660686,2020-03-07 18:09:53,Inna cut,city,"Morn, Argentina",Argentina
35620,-73.92161114,40.80725409,niibangout,1220489390725660686,2020-03-12 21:43:45,Inna cut,city,"Bronx, NY",United States
186,-0.733166,38.0738725,Raulalberca98,1220489452998529030,2020-03-21 14:17:39,"Rojales, Espaa",city,"Rojales, Espaa",Espaa
23420,-119.74528899999999,36.813386,Zyon Goodman,1220489456467107840,2020-03-19 20:45:34,"Fresno, CA",poi,Fresno State - Satellite Student Union,United States
24,-79.5657915,43.8371045,joseph,1220489471247966209,2020-02-28 02:22:25,canada,city,"Vaughan, Ontario",Canada
41860,-122.086077,38.008277,Forrest (the Band),1220489500767350785,2020-04-04 18:08:13,"Martinez, CA",poi,The Bay Area,United States
16740,-80.8467855,35.209059,NINAAA ,1220489552235810817,2020-02-22 18:28:26,"Raleigh, NC",city,"Charlotte, NC",United States
200,30.056413,39.903505,Merve Tunca,1220489594107502599,2020-06-02 10:53:31,,city,"Bozyk, Trkiye",Trkiye
119,-99.16073408,19.39146109,Machine Garage MX,1220489769374961664,2020-02-20 19:10:30,,city,"Benito Jurez, Distrito Federal",Mxico
21,-51.1593095,-30.099836,Rogerio Primi,1220489814379724801,2020-02-14 22:14:19,Porto Alegre,city,"Porto Alegre, Brasil",Brasil
222,107.87997549999999,-7.0769779999999995,Hari Nugraha,1220489876849614848,2020-03-23 23:24:00,"Garut, Indonesia",city,"Kadungora, Indonesia",Indonesia
31080,-118.24512,34.055717,rogasake,1220489957770350593,2020-03-05 03:30:43,California,poi,City of Los Angeles,United States
21,-43.296872,-22.644558,Silvia,1220489981434703872,2020-05-19 18:09:07,,city,"Duque de Caxias, Brasil",Brasil
88,139.793928,35.695305, ,1220489996,2020-02-19 14:54:04,,poi,  ,
186,-5.9352529999999994,37.351143,Juan Manuel Barroso,1220490091505823746,2020-04-03 06:41:39,,poi,Sevilla,Espaa
119,-102.3102455,19.9412275,pera am,1220490421723418627,2020-04-20 06:04:34,"Michoacn de Ocampo, Mxico",city,"Jacona, Michoacn de Ocampo",Mexico
24,-78.94820849999998,43.7481015,MOTAROLA FLIP FONE,1220490435086430210,2020-03-20 03:54:25,,city,"Ajax, Ontario",Canada
200,29.096246,37.7721435,Ahmet,1220490695082946562,2020-02-21 06:29:20,"Denizli Merkez, Denizli",city,"Denizli, Trkiye",Trkiye
40140,-117.462698,34.1081605,Simeon1,1220490715987210241,2020-03-02 22:57:54,,city,"Fontana, CA",United States
88,135.77316284,35.00547028,ANNA,122049091,2020-03-01 08:51:29,,city,  ,
186,-2.608701,36.7773725,Hctor,1220490914516422659,2020-03-09 14:45:52,,city,"Roquetas de Mar, Espaa",Espaa
65,4.8422,45.7597,Je gote la Chine,1220490990164889600,2020-03-07 14:27:46,France,city,"Lyon, France",France
21,-38.5026475,-12.8753345,Mrio Cesar Batista da Silva,1220491152480198658,2020-05-07 01:21:25,,city,"Salvador, Brasil",Brasil
211,-66.87677724,10.49556456,Jos Reyes,122049116,2020-02-14 14:39:33,"BARUTA, ",city,"Caracas, Venezuela",Venezuela
205,0.135916,52.200974,Brett Parker,122049119,2020-02-14 08:56:33,"Cambridge, England",city,"Cambridge, England",United Kingdom
65,7.0982785,43.6469265,Anthony,1220491226937462784,2020-02-18 12:13:45,"Villeneuve-Loubet, France",city,"Villeneuve-Loubet, France",France
8,-58.7150835,-34.485839500000004,ricardobrizuela286@gmail.com,1220491270986092545,2020-02-14 00:01:59,,city,"Los Polvorines, Argentina",Argentina
21,-48.447758,-27.452292,isis.elkader,1220491610179489792,2020-04-26 05:42:26,"Florianpolis, Brasil",poi,Floripa SC,Brazil
83,59.61437900000001,36.287679,ali,1220491631356411905,2020-02-28 15:46:30,Tehran,poi,Goharshad Mosque |  ,Islamic Republic of Iran
88,137.91933699999998,35.9924885,sammy&jin,1220491657453305856,2020-06-08 00:50:36,,city,"Shiojiri-shi, Nagano",Japan
21,-43.195027,-22.925952,C a f a j e s t e ,1220491736453124102,2020-06-03 00:53:54,F.F.C ,poi,FALLET/FOGUETEIRO,Brasil
21,-43.116521999999996,-22.893557,mariazinhakk,1220492026703155200,2020-03-11 20:05:04,,poi,Liceu Nilo Peanha,Brasil
-9999,-79.197632,3.6874905,Los atardeceres del puerto,1220492251350097928,2020-02-15 00:11:31,"Buenaventura, Colombia",city,"Buenaventura, Colombia",Colombia
82,88.352242,22.6127055,abhimanu Shaw,1220492362708738049,2020-05-08 16:22:24,,city,"Kolkata, India",India
26860,-79.160094,40.61405,IUP Management Association,1220492364860575744,2020-02-18 22:38:07,"Indiana, PA",poi,Eberly College of Business (IUP),United States
31080,-117.92468400000001,33.80899,maria,1220492425,2020-03-08 15:51:13,,poi,Starbucks,United States
171,121.061079,14.581934,J.Carlo,1220492432543907840,2020-05-23 05:43:44,,poi,Tycoon Center,Republic of the Philippines
21,-37.324033,-10.7759635,Jennifer De Jesus Maximiano,1220492466530455552,2020-02-17 19:09:09,"Areia Branca, Brasil",city,"Areia Branca, Brasil",Brasil
21,-37.3440905,-10.369006,Lerdo Geov,1220492578937888768,2020-02-17 05:42:25,So Miguel Do Aleixo ,city,"So Miguel do Aleixo, Brasil",Brasil
21,-34.883371000000004,-7.1494765000000005,Leandro Nobre,122049279,2020-02-14 02:02:46,Joo Pessoa - Paraba - Brasil,city,"Joo Pessoa, Brasil",Brasil
21,-34.883371000000004,-7.1494765000000005,Bruninho_jp ,1220492867938017281,2020-02-16 14:46:29,,city,"Joo Pessoa, Brasil",Brasil
88,135.496868,34.711729999999996,,1220492967749681153,2020-03-04 09:08:40,,poi,,Japan
21,-49.0571945,-25.647161999999998,Renato Araujo,1220493022602956801,2020-04-25 19:46:54,"So Jos dos Pinhais, Brasil",city,"So Jos dos Pinhais, Brasil",Brasil
39,-82.693876,9.638214999999999,Raybel,1220493109743833090,2020-02-26 21:08:19,"London, England",poi,Punta Uva,Costa Rica
205,-0.3506925,51.461742,Raybel,1220493109743833090,2020-04-04 19:04:25,"London, England",city,"Hounslow, London",United Kingdom
175,46.686745,24.679612,saud alsudairy,1220493158204825600,2020-02-16 18:49:03,Riyadh,poi,Specialized Medical Center |   ,Kingdom of Saudi Arabia
193,102.1187715,12.5811595,Rsyp_Rksn,1220493165657935873,2020-03-06 15:01:08,,city,", ",
21,-46.5955455,-23.682803,Slvia Amorim,1220493272566706177,2020-02-14 20:56:17,,city,"So Paulo, Brasil",Brasil
48,-69.9029415,18.613332,Frank Del Rosario,1220493306448240640,2020-04-06 21:05:53,,city,"Santo Domingo Norte, Dominican Republic",Dominican Republic
117,58.4641695,23.549159000000003,Folabi,1220493324743778304,2020-04-10 02:35:14,15 and confused,city,"Muscat, Oman",Oman
88,141.129238,38.954978999999994,,1220493442452578304,2020-02-18 22:41:41,,city, ,
222,106.82721200000002,-6.252675,putmel,1220493462107119616,2020-02-14 02:44:14,"Mampang Prapatan, Indonesia",poi,Duren tiga raya,Indonesia
91,36.920972,-1.191802,tony Taylor,1220493523,2020-06-03 06:22:50,,poi,kahawa garrison,Kenya
175,46.0327485,28.350082500000003,,1220493739820560390,2020-02-21 08:16:13,,city,"Hafr Al Batin, Kingdom of Saudi Arabia",Kingdom of Saudi Arabia
95,127.033926,37.661751,la_mi07,1220493740457910272,2020-03-10 05:23:16,,city,"Dobong-gu, Republic of Korea",Republic of Korea
88,136.823114,35.125279,,1220493848318660610,2020-02-22 10:22:11,,poi,,Japan
193,99.010123,18.784437,Mikkee,1220493919344979968,2020-02-14 10:03:46,,city,", ",
35620,-73.754737,41.0262045,Westchester Rockland Guardians Association,1220493943726661632,2020-03-03 00:47:34,"Westchester County, NY",city,"White Plains, NY",United States
222,112.63106499999999,-7.163289999999999,Melody Senja,1220494091672141825,2020-03-18 03:21:30,"Gresik, Indonesia",poi,BPJS Ketenagakerjaan Gresik,Indonesia
50,31.486376,30.648787,ahmedsaeed,1220494204352319488,2020-05-12 11:34:10,,poi,  ,Egypt
21,-46.61705,-23.688005,Gabs,1220494206508191745,2020-04-30 20:00:40,"Guarulhos, Brasil",poi,Bolivia,Brazil
171,121.16399750000001,14.860594,zanniatwain,1220494353245724672,2020-03-15 11:14:41,,city,"San Jose Del Monte, Central Luzon",Republic of the Philippines
40140,-117.572379,34.14779,Michelle N,1220494556178735109,2020-03-04 20:44:04,,poi,Chaffey College,United States
44140,-72.5702365,42.1713475,Paul Davis,1220494606569218049,2020-02-15 22:08:07,,city,"Chicopee, MA",United States
119,-100.955511,22.3111195,Alberto Clemente tristan Aguilar,1220494611124310018,2020-02-26 01:52:52,Mxico,city,"San Luis Potos, Mxico",Mxico
222,110.4265505,-7.068175,Rizky Arvianto W,122049466,2020-03-12 10:51:32,"semarang,indonesia",city,"Banyumanik, Indonesia",Indonesia
49,-78.657623,-1.768784,Luis Alberto Conde,1220494671337656320,2020-02-16 02:39:58,,poi,Punin,Ecuador
21,-43.441578,-22.911421500000003,Braddock,1220494684826558471,2020-02-28 14:23:45,Santa Cruz Rj,city,"Rio de Janeiro, Brasil",Brasil
91,36.830397,-1.274277,Tonnie Muriuki,1220494829081309190,2020-05-29 15:19:15,,poi,Republic Of Tanzania,Kenya
186,-5.445489,36.8275155,clau,1220495078478811136,2020-04-12 16:20:28,"Jerez de la Frontera, Espaa",city,"Zahara, Espaa",Spain
88,139.1349505,36.7339165,supreme,1220495099706011648,2020-02-26 06:18:04,,city,"Kawaba-mura, Gunma",Japan
119,-103.335882,20.676652,Jazmn RV,1220495215158534144,2020-03-01 01:58:43,"Guadalajara, Jalisco",city,"Guadalajara, Jalisco",Mxico
40060,-77.60834,37.510394,Noodles and Co. Cambodia,1220495278513496077,2020-03-08 01:44:57,Cambodia,poi,At Home,United States
222,112.26953700000001,-7.857017499999999,Yas,1220495730780991489,2020-02-16 11:24:08,,city,"Kepung, Indonesia",Indonesia
222,112.61145049999999,-7.348292000000002,taliaasprmn,1220495824519458816,2020-02-18 06:31:32,,city,"Driyorejo, Indonesia",Indonesia
45780,-83.574671,41.65659049999999,djohnson,1220495867700039681,2020-03-19 13:37:04,,city,"Toledo, OH",United States
151,3.3386055,6.4931125000000005,Blessed,1220496396509380608,2020-02-19 00:46:17,,city,"Lagos, Nigeria",Nigeria
21,-51.043855,-29.664957,Vilair Tatoute,1220496485344825344,2020-03-28 15:02:20,,city,"Campo Bom, Brasil",Brasil
193,100.32083399999999,14.803822, ,1220496638214467584,2020-02-17 22:47:12,", ",poi, (Khai Bang Rachan Park and Monument),
21,-38.513877,-10.761832,Ronie Santos,1220496762399576064,2020-03-16 01:13:13,,city,"Ribeira do Pombal, Brasil",Brasil
42200,-119.701636,34.429885,Elisete piedade,1220496864279220224,2020-03-06 05:23:42,"So Paulo, Brasil",city,"Santa Barbara, CA",United States
21,-47.794358,-22.7106265,Elisete piedade,1220496864279220224,2020-04-10 17:48:43,"So Paulo, Brasil",city,"Piracicaba, Brasil",Brazil
200,28.592658,41.017081,abidin,1220496997620293633,2020-02-25 19:58:52,,poi,Bykekmece Sahili,Turkey
193,99.9836595,7.4643085000000005,,1220497013948600322,2020-02-25 00:59:56,,city,", ",
82,72.8625,24.885,darshan khatri,1220497079618789376,2020-05-27 19:10:26,"Sirohi, India",city,"Sirohi, India",India
21,-46.559186,-23.117102,Vincius Albano,1220497260695445511,2020-03-27 17:32:40,"Mairipor, Brasil",poi,Atibaia,Brasil
88,139.769123,35.695953,Kuni,1220497321470783489,2020-03-13 02:58:32,,poi,,Japan
193,100.055304,9.546567999999999,Nu Beer,1220497340005408770,2020-03-09 16:03:21,"., .",city,", ",
21,-48.772193,-25.795313500000002,Sarah,1220497372318502914,2020-03-22 12:37:19,,city,"Guaratuba, Brasil",Brasil
21,-44.3025505,-2.6292855,meu nome  z piqueno,1220497645355048962,2020-06-10 23:28:05,,city,"So Lus, Brasil",Brasil
19100,-97.22431800000001,32.860387,G M Paschall,1220497715257397250,2020-04-28 17:05:14,,city,"North Richland Hills, TX",United States
205,-4.2417515,55.85830249999999,Foley,1220497917473062912,2020-02-14 11:01:48,"Glasgow, Scotland",city,"Glasgow, Scotland",United Kingdom
21,-45.4831625,-12.0234695,Matheus De Luca,1220497956631130114,2020-02-26 02:15:07,"Lus Eduardo Magalhes, Brasil",city,"Barreiras, Brasil",Brasil
21,-52.170077,-32.075860999999996,Dindo do prncipe J,1220497981578928129,2020-04-19 17:20:06,,poi,"Ro Branco, Uruguay",Brasil
31080,-118.4119065,34.0207895,Val,1220498048092008450,2020-03-16 14:09:03,,city,"Los Angeles, CA",United States
35620,-73.8311875,40.6708795,Dipa limbu,1220498058053636096,2020-05-31 18:17:55,"New York, USA",city,"Queens, NY",United States
106,20.093593,32.064011,  ,1220498080086269952,2020-03-05 19:40:11,,poi,Koton,Libya
50,31.383501000000003,30.017971000000003,Kareem Magdy,1220498135325323265,2020-02-16 04:04:32,,poi,El-Moshir Tantawy Mosque |   ,Egypt
119,-106.568008,31.452274000000006,Edgar Morales,1220498378666270720,2020-05-03 23:07:12,,city,"Jurez, Chihuahua",Mxico
17860,-92.22125799999999,38.969974,Chris Martucci,1220498428787978240,2020-03-04 01:32:42,"Columbia, MO",poi,Battle High School,United States
30060,-92.729489,38.012642,Chris Martucci,1220498428787978240,2020-03-11 22:50:49,"Columbia, MO",poi,Camdenton High School,United States
175,44.257112,26.333564000000003, .,1220498555967807489,2020-03-06 09:19:12,  ,poi, ,Kingdom of Saudi Arabia
21,-48.7397865,-26.758349499999998,Izaa,1220498636125167616,2020-02-17 21:33:09,"Piarra, Brasil",city,"Balnerio Piarras, Brasil",Brazil
193,98.995683,18.810188,top k.8 ,1220498650524053504,2020-03-17 15:11:58,,poi,  Hom Bar,Thailand
88,139.466871,35.6987,,1220498795424669697,2020-02-16 00:39:34,,poi, ,
48,-69.9034802,18.5309787,Miguel Maireni Amador Castillo,1220498951088021505,2020-02-18 06:51:48,,city,"Santo Domingo Norte, Dominican Republic",Dominican Republic
21,-48.319320000000005,-10.200844,Segue-me,1220499154092339201,2020-04-08 22:33:55,,poi,Santurio Nossa Senhora de Ftima,Brasil
38,-77.17049800000002,1.0755555,Pelegcastillo,1220499228142772225,2020-02-26 12:36:39,,city,"Pasto, Colombia",Colombia
31140,-85.72234549999999,38.195555,Lincolnmeriwether,1220499533702017024,2020-02-20 10:57:19,,city,"Louisville, KY",United States
119,-99.0444445,19.568279999999998,frankarredondo,1220499548247928838,2020-04-10 15:44:12,"Ecatepec de Morelos, Mxico",city,"Ecatepec de Morelos, Mxico",Mxico
88,139.6735625,35.76839800000001,,122049961,2020-02-29 02:20:51,tokyo Japan,city, ,
21,-43.441578,-22.911421500000003,Dayzinha,1220499624584261632,2020-02-20 22:36:52,"Cuiab, Brasil",city,"Rio de Janeiro, Brazil",Brazil
21,-43.5243665,-22.696528,PATRICK,1220499637330759681,2020-02-23 11:31:48,,city,"Nova Iguau, Brasil",Brasil
222,99.203315,3.346129, ,1220499644364361733,2020-02-15 12:37:10,"Kota Tebing Tinggi, Sumatera U",poi,PT.DSMT,Indonesia
171,121.22203459999999,15.5652566,,1220499646113411073,2020-04-01 09:44:56,,city,"Laur, Central Luzon",Republic of the Philippines
21,-39.847669,-18.4793435,Rhanie Vervloet,1220499727386664962,2020-02-28 01:50:47,,city,"Conceio da Barra, Brasil",Brasil
151,7.422322500000001,10.511245,Base Daniel,1220499765995147266,2020-02-25 11:03:36,"Kaduna, Nigeria",city,"Kaduna, Nigeria",Nigeria
171,125.172729,6.253189,Rhist Lee,1220499805438271488,2020-02-22 08:35:51,General Santos City ,poi,Balakayo Overlooking,Republic of the Philippines
21,-51.035027,-29.068624,Valen,1220499823683670016,2020-03-11 19:30:44,,city,"Caxias do Sul, Brasil",Brasil
14460,-71.112377,42.3781975,Brian Hurst,1220500099,2020-02-17 02:29:04,"Boston, MA",city,"Cambridge, MA",United States
211,-66.884953,10.4873,Josetimo,1220500141519572992,2020-03-03 12:01:43,"Caracas, Venezuela",poi,Universidad Bolivariana de Venezuela,Venezuela
119,-99.14794499999999,19.417101000000002,TRABAJADORES UNIDOS NOTIMEX,1220500181407412226,2020-02-27 21:59:02,,poi,Profedet,Mxico
21,-46.621235,-20.727937,Luiz Miguel de Lima,1220500461012373504,2020-03-29 00:55:08,Brasil,city,"Passos, Brasil",Brazil
21,-46.564870500000005,-23.624796, ,1220500505014734850,2020-02-14 01:53:57,,city,"So Caetano do Sul, Brasil",Brasil
222,106.808194,-6.3944565,Nylsstnrmdhn,1220500577051795457,2020-04-27 05:55:59, ,city,"Pancoran Mas, Indonesia",Indonesia
38,-74.6578315,10.900633500000001,TACO_RANDOM,1220500601626333186,2020-04-01 14:41:34,,city,"Sitionuevo, Colombia",Colombia
38060,-111.917897,33.646848,rip,1220500896292802560,2020-03-16 04:29:50,,poi,The Jail Cell,United States
8,-58.59885799999999,-34.433605,MATIAS,1220500902546636801,2020-02-19 01:37:49,,poi,Predio Club Atltico Tigre,Argentina
17780,-96.2916485,30.5854715,CoronaVirus,1220500905285554178,2020-02-27 05:47:43,"College Station, TX",city,"College Station, TX",United States
47020,-96.9729125,28.802534,CoronaVirus,1220500905285554178,2020-03-10 21:15:36,"College Station, TX",city,"Victoria, TX",United States
171,121.73999199999999,17.5747574,ajayayayyyyy,1220500906644406272,2020-04-10 10:30:28,"Mandaluyong City, National Cap",city,"Enrile, Cagayan Valley",Republic of the Philippines
200,36.5527095,40.320624,melis,1220500925573402624,2020-02-18 20:04:13,,city,"Tokat, Trkiye",Turkey
82,77.095086,28.638489500000002,Rakesh Tiwari,1220500945,2020-03-25 06:35:02,Delhi,city,"New Delhi, India",India
88,135.343871,34.867204,,1220500996511526912,2020-02-28 23:04:46,,city, ,
21,-42.44334050000001,-3.2890764999999997,  ,1220501581893971970,2020-06-05 01:49:35,,city,"So Bernardo, Brasil",Brasil
65,4.8748595,44.835353000000005,,1220501620699598848,2020-02-14 23:05:17,"Paris, France",city,"Etoile-sur-Rhne, France",France
9,151.230471,-33.827518,Max Perri,1220501668204183552,2020-02-23 01:08:35,,poi,Siborg Cafe,Australia
21,-46.5955455,-23.682803,Silvex,1220501790149545986,2020-03-14 08:03:10,,city,"So Paulo, Brasil",Brasil
69,-0.1842935,5.6231985,Brempong,1220502053933453313,2020-02-18 11:44:40,"Accra, Ghana",city,"Accra, Ghana",Ghana
205,-3.5521435,54.630171499999996,Daniel Murphy,1220502102008614912,2020-02-15 16:13:11,,city,"Workington, England",United Kingdom
9,146.8157,-19.2601,Kayde Austinn  #BLM,1220502328119189504,2020-06-10 03:27:50,Australia,city,"Townsville, Queensland",Australia
38,-76.67783299999998,3.4212985000000002,YiyiArevalo89,1220502348570800128,2020-02-17 18:28:09,"Cali, Colombia",city,"Cali, Colombia",Colombia
19100,-97.19976761,32.829863800000005,James Mitchell,1220502380682317827,2020-02-15 22:33:10,"Dallas, TX",city,"Hurst, TX",United States
21,-42.9761935,-21.111988,Douglas Massagens,1220502386369859584,2020-05-16 17:56:53,"Ub, Brasil",city,"Ub, Brasil",Brasil
113,-7.6882535,33.58457,Ferhat Tarik,1220502399703449601,2020-03-08 14:19:02,,city,"Anfa, Royaume du Maroc",Royaume du Maroc
8,-64.1980255,-31.4154565,BUENO BONITO BARATO CBA,1220502446826541056,2020-02-27 02:34:49,"Crdoba, Argentina",city,"Crdoba, Argentina",Argentina
30140,-76.388199,40.308141,isabella,1220502609850781697,2020-03-11 00:20:28,,poi,Sign's & Stuff,United States
21,-46.4336617,-23.8959853, ,1220502676103991296,2020-04-22 17:19:33,"013 So Paulo, Brasil",city,"Cubato, Brasil",Brasil
151,7.649576,11.0163075,Abdussamad hayatuddeen,1220502815711416320,2020-05-14 10:14:38,"Kaduna, Nigeria",city,"Zaria, Nigeria",Nigeria
222,110.389366,-7.740576,RainandoG,1220502849617973248,2020-03-09 03:34:08,,poi,BIG GUN Screen Printing,Indonesia
38,-74.24367099999999,4.2622835,gilberto jara medina,1220503143248814082,2020-04-06 12:28:12,,city,"Bogot, D.C., Colombia",Colombia
21,-52.6371385,-27.10106,Versalino Multiservio & Turismo,1220503170998317056,2020-05-19 10:55:16,"Chapec, Brasil",neighborhood,"Jardim Amrica, Chapec",Brasil
35620,-74.346266,40.653384499999994,UnicornioAzul    ,1220503318612660224,2020-04-26 01:57:01,Westfield NJ,city,"Westfield, NJ",United States
21,-46.530655,-23.8040495,Gabslobaloba... hmmm,1220503501014433792,2020-02-14 09:39:59,,city,"So Bernardo do Campo, Brasil",Brasil
21,-43.09377622,-22.91971241,Vitor Parente,1220503521084215305,2020-02-14 01:37:26,"Niteri, Brasil",city,"Niteri, Brasil",Brasil
21,-43.441578,-22.911421500000003,LuancarvalhoCo1,1220503685911973892,2020-03-05 03:50:23,"Rio de Janeiro, Brasil",city,"Rio de Janeiro, Brasil",Brasil
175,49.6465035,25.957304500000003,Doha Naser,1220503801007833090,2020-02-14 12:59:50,",   ",city,",   ",  
120,100.5335315,5.8015655000000015,Daanishnorhisyam,1220503973620150272,2020-03-16 05:17:08,,city,"Gurun, Kedah",Malaysia
200,28.844703000000003,41.001554,Mustafa Diner,1220504040544591872,2020-03-31 11:24:38,,poi,irinevler Meydan,Trkiye
65,4.594951,44.7213675,Nassim D Dz,1220504294690041857,2020-04-26 10:21:45,"Le Kreider                                                                                          , Algeria",city,"Privas, France",France
88,133.52131200000002,33.9363115,yamashita,1220504563129565184,2020-03-31 06:50:19,,city,"Shikokuchuo-shi, Ehime",Japan
38,-75.66541600000001,9.4096615,Helibeth Capela ortiz,1220504590782730245,2020-03-12 11:51:53,,city,"Coveas, Colombia",Colombia
119,-100.955511,22.3111195,Laura Loyola,1220504801445928961,2020-05-21 15:10:02,"San Luis Potos, Mxico",city,"San Luis Potos, Mxico",Mxico
65,-0.385159,48.70818850000001,Gendron Marie Christine,1220505025522348038,2020-03-16 11:00:13,,city,"Briouze, France",France
151,4.9455385000000005,11.319579,Tarvarious Amibola XXXIII,1220505123761393672,2020-05-16 01:10:41,South Sudan,city,"Uganda, Nigeria",Nigeria
19100,-96.7617535,32.819858499999995,Indie Rose Boutique,1220505295224479746,2020-03-01 17:53:24,,city,"Dallas, TX",United States
31180,-101.897173,33.5705265,Indie Rose Boutique,1220505295224479746,2020-04-14 19:18:30,,city,"Lubbock, TX",United States
19100,-97.1509985,32.960651,Indie Rose Boutique,1220505295224479746,2020-05-18 15:33:40,,city,"Southlake, TX",United States
88,139.745379,35.652789,,122050553,2020-05-06 08:53:38,tokyo,city, ,
21,-36.011340999999994,-6.2707820000000005,Matheus,1220505774163681280,2020-04-02 13:36:20,"Santa Cruz, Brasil",city,"Santa Cruz, Brasil",Brasil
21,-41.041203,-18.5380855,mimi,1220505816391995393,2020-03-18 08:21:36,,city,"gua Doce do Norte, Brasil",Brasil
222,106.85680900000001,-6.225842,mojoman,1220505822305718272,2020-04-11 12:17:31,,city,"Tebet, Indonesia",Indonesia
38,-74.24367099999999,4.2622835,Jos Mestra,1220505839351554054,2020-04-16 17:52:10,,city,"Bogot, D.C., Colombia",Colombia
222,101.4159165,0.6318155000000001,rettiwt,1220505869256839168,2020-02-14 00:42:34,,city,"Rumbai, Indonesia",Indonesia
38,-76.06196159999999,1.8519506000000001,WILLIAM FERNANDO ROJAS GMEZ,1220505924579811336,2020-02-16 17:12:19,,city,"Pitalito, Colombia",Colombia
175,46.685077,24.7219435,Refal,1220506186014973952,2020-04-20 05:01:11,"Riyadh, Kingdom of Saudi Arabia",city,"Riyadh, Kingdom of Saudi Arabia",Kingdom of Saudi Arabia
31080,-118.1567105,33.809171500000005,Crystal ,1220506281322012672,2020-02-21 05:22:59,"California, USA",city,"Long Beach, CA",United States
40140,-117.3630675,34.531222,Crystal ,1220506281322012672,2020-02-22 05:27:13,"California, USA",city,"Victorville, CA",United States
160,-78.40873400000002,-8.900004,fredyalva04@gmail.com,1220506287349403648,2020-02-16 20:41:58,,city,"Chimbote, Peru",Peru
21,-49.11254200000001,-22.2387405,Suzy,1220506340919070720,2020-02-22 17:52:00,,city,"Bauru, Brasil",Brasil
21,-43.2038275,-22.9832055,blessed ,1220506384975921152,2020-02-25 20:51:24,", Rio de Janeiro",neighborhood,"Ipanema, Rio de Janeiro",Brasil
152,5.41439665,52.12281749,Julian Baars,122050639,2020-03-06 19:18:05,Netherlands,city,"Leusden, Nederland",Nederland
222,105.559727,-5.535812,yoll,1220506413396447232,2020-03-25 02:00:57,"Bandar Lampung, Lampung",city,"Candipuro, Indonesia",Indonesia
222,106.84237399999999,-6.484541,EASERAHLO,1220506415745232896,2020-02-29 16:20:43,,poi,Cibinong City Mall,Indonesia
21,-43.296872,-22.644558,Gaivotapeixoto,1220506471407984640,2020-02-18 18:05:04,Saracuruna ,city,"Duque de Caxias, Brasil",Brasil
222,104.657498,-3.201118,Iqballaksmana_,1220506586231083009,2020-03-09 11:32:06,"Kota Manado, Sulawesi Utara",poi,Indralaya,Indonesia
82,77.095086,28.638489500000002,Bharti Chopra,1220506677331419136,2020-03-06 19:39:45,,city,"New Delhi, India",India
21,-43.5243665,-22.696528,Mi,1220506723586363393,2020-04-04 16:05:46,"Nova Iguau, Brasil",city,"Nova Iguau, Brasil",Brasil
49,-78.52275949999999,-1.3574735,Alexis Ortega,1220506727252099073,2020-02-26 00:53:50,,city,"San Pedro De Pelileo, Ecuador",Ecuador
200,28.329271999999996,37.9124805,UGUR,1220506772563283968,2020-04-27 20:35:16,Nazillli ,city,"Nazilli, Trkiye",Trkiye
31080,-117.874032,33.617638,Veeral Patel,1220506797909266432,2020-05-08 20:04:39,,city,"Newport Beach, CA",United States
8,-58.6447,-34.772935,Mariana,1220506861071470593,2020-03-21 12:51:47,,poi,Estacin Gonzlez Catn [Lnea Belgrano Sur],Argentina
82,85.10203849999998,25.569474,Kittu Kumar,1220506936229027841,2020-04-08 09:36:27,,city,"Patna, India",India
8,-58.280767000000004,-34.747911,braian,1220507012519333888,2020-03-28 01:07:06,,city,"Quilmes, Argentina",Argentina
69,-1.612222,6.693627,Abel Jackson,1220507183147900928,2020-04-04 00:34:57,"Kumasi, Ghana",city,"Kumasi, Ghana",Ghana
35620,-74.011252,40.709971,Kevin Jace,1220507266375471104,2020-02-24 19:50:15,"New York, NY",poi,Amazon Go,
222,105.2331219,-5.3716276,Great Oz,122050733,2020-03-03 12:49:07,+62,city,"Kedaton, Indonesia",Indonesia
161,67.199315,24.839006,  ,122050743,2020-03-22 21:05:31,Karachi,poi,Landhi Gymkhana Cricket Ground,Pakistan
21340,-106.4174305,31.793368,Jenny Crager,1220507476736577541,2020-03-08 22:54:33,,city,"El Paso, TX",United States
21,-47.293066,-23.1733835,Isinhaaa,1220507547028873217,2020-02-14 01:07:37,,city,"Salto, Brasil",Brasil
47900,-77.505064,38.9779805,sara,1220507575814447104,2020-03-12 12:24:22,,city,"Loudoun Valley Estates, VA",United States
31080,-118.4178075,34.266397999999995,Banco,1220507608450158594,2020-02-23 07:10:29,,neighborhood,"Pacoima, Los Angeles",United States
82,77.228844,28.663897,Ashish,1220507660,2020-05-04 05:47:24,delhi.... india,city,"New Delhi, India",India
41980,-66.271338,18.136497,Julisa,1220507827103502337,2020-03-05 18:39:25,Puerto Rico,city,"Aibonito, USA",United States
222,108.5372075,-6.719110499999999,Nourmaa,1220508056754122752,2020-05-30 10:42:16,,city,"Cirebon Barat, Indonesia",Indonesia
164,-8.662180000000001,41.222302500000005,Rita Burni ,1220508125867974656,2020-02-18 15:46:25,Matosinhos,city,"Matosinhos, Portugal",Portugal
21340,-106.42347190000001,31.7506106,Adrin Huerta,1220508185783623680,2020-03-03 17:55:56,"Jurez, Chihuahua",city,"Jurez, Chihuahua",Mxico
222,107.2016625,-6.8080859999999985,Bhamzz,1220508284047654913,2020-04-03 13:24:29,,city,"Karangtengah, Indonesia",Indonesia
200,29.0052225,41.0213205,Emin Okumu,1220508294013489153,2020-02-14 21:23:16,"stanbul, Trkiye",city,"stanbul, Trkiye",Turkey
47900,-77.20287450000002,39.27235500000001,Tereso Argueta,1220508329488846850,2020-04-29 23:24:47,,city,"Damascus, MD",United States
213,106.712116,10.814925,Mink_ss,1220508721488355329,2020-03-27 13:41:06,,poi,Cu Bnh Triu,Vietnam
28140,-94.561594,39.2044445,Angela Dye,1220508776693891073,2020-02-18 01:52:55,"Gladstone, MO",city,"Gladstone, MO",United States
119,-99.1614805,19.380613,Dr. Miguel . Minero Hibert,1220508808872513537,2020-05-08 13:19:40,"Centro de la Ciudad de Mxico, Cuauhtmoc",city,"Benito Jurez, Distrito Federal",Mexico
88,131.818692,34.515040500000005,,1220508863016779777,2020-02-15 12:47:37, ,city,"Tsuwano-cho, Shimane",Japan
8,-60.9520765,-34.5944525,M a i c o l,1220509025269403649,2020-02-14 02:37:20,"Junn, Argentina",city,"Junn, Argentina",Argentina
222,107.73292099999999,-6.9298315000000015,rrrizky.fz,1220509063701680128,2020-02-27 11:04:36,"Cileunyi, Indonesia",city,"Cileunyi, Indonesia",Indonesia
82,80.228206,13.066614,Siva Kumar,122050907,2020-03-03 03:18:21,,city,"Egmore Nungambakkam, India",India
38,-75.056533,7.817966999999999,Verde Esperanza,1220509150205173760,2020-05-10 15:19:46,,city,"Caucasia, Colombia",Colombia
39,-84.05504,9.93298,MajoFenrir,1220509315204812800,2020-04-30 16:36:17,Costa Rica,city,"San Pedro, Costa Rica",Costa Rica
85,7.653759,45.063464,Fabio Del Prete,122050957,2020-03-02 15:22:10,Torino,poi,Scuola Internazionale di Comics,Italia
222,119.88630400000001,-0.9015049999999999,Mohammad Akib H Lawisa,1220510054715031552,2020-02-19 08:11:45,"Kota Palu, Sulawesi Tengah",poi,Empat Belas Roasters,Indonesia
31080,-118.399639,34.082496500000005,Jenise,1220510085400514560,2020-03-16 23:05:36,"Los Angeles, CA",city,"Beverly Hills, CA",United States
29820,-115.13516499999999,36.060964500000004,Husani ,1220510085400514560,2020-06-06 23:38:16,"Los Angeles, CA",city,"Paradise, NV",United States
31080,-118.4119065,34.0207895,Husani ,1220510085400514560,2020-06-09 01:47:20,"Los Angeles, CA",city,"Los Angeles, CA",United States
178,18.511045000000003,-33.873404,Bongani Bhoxoza,1220510106019934211,2020-03-09 18:34:34,South Africa,city,"Joe Slovo Park, South Africa",South Africa
21,-51.1593095,-30.099836,Lo ,1220510170637328391,2020-05-20 23:48:14,,city,"Porto Alegre, Brasil",Brasil
40140,-117.1195165,33.501021,D.fit91,1220510186957205504,2020-02-26 00:42:00,,city,"Temecula, CA",United States
21,-46.660216,-23.625581,yasmim ferreira,1220510226094477312,2020-02-20 09:48:26,"Recife, Brasil",poi,Aeroporto de So Paulo / Congonhas (CGH),Brasil
88,139.67923249999998,35.49304,Tosuii,1220510282801303553,2020-03-27 23:10:47, ,city,  ,
21,-34.883371000000004,-7.1494765000000005,Lucas Duarte,1220510288514113538,2020-05-06 04:04:19,,city,"Joo Pessoa, Brasil",Brasil
33,-69.348134,-24.2283195,Jacqueline,1220510371070599168,2020-05-19 16:26:34,,city,"Antofagasta, Chile",Chile
22420,-83.62248149999998,43.085117,Hannah ,1220510457913643009,2020-06-09 01:06:57,"Indiana, USA",city,"Genesee, MI",United States
21,-49.990685,-29.6877205,Barbie de Chernobyl,1220510468793683968,2020-02-14 01:51:56,"Capo da Canoa, Brasil",city,"Capo da Canoa, Brasil",Brasil
88,135.74528396,34.98933656,you_th_che,122051056,2020-02-14 10:58:53,"KYOTO,JAPAN",city,  ,
21,-41.9777405,-22.2822555,Lauren Freitas ,1220510635093635073,2020-02-14 21:44:48,"Barra de Maca, Maca",city,"Maca, Brasil",Brasil
16740,-80.619743,35.4882025,Courtney Hedrick - Real Estate Broker,1220510698285010945,2020-02-22 14:35:43,,city,"Kannapolis, NC",United States
119,-98.768165,20.098228,@hombre-liberal20,1220510714596593664,2020-02-14 20:31:08,,poi,Galeras Pachuca,Mxico
24500,-111.2978705,47.493836,Cait,1220510842229153793,2020-05-24 17:07:58,"Montucky, USA",city,"Great Falls, MT",United States
85,9.6246855,45.197026,Alberto Berselli,122051115,2020-05-13 10:26:42,"Termeno sulla Strada del Vino, Trentino-Alto Adige",city,"Casalpusterlengo, Lombardia",Italia
88,139.931051,35.715682,,1220511286519222279,2020-02-14 00:06:22,,city, ,
12900,-91.6250775,35.785776,Austin D. Vance,1220511420707680257,2020-04-13 01:14:28,"Heber Springs, AR",city,"Batesville, AR",United States
42620,-92.029644,35.506033,Austin D. Vance,1220511420707680257,2020-05-01 17:06:46,"Heber Springs, AR",city,"Heber Springs, AR",United States
40780,-93.09886,35.669140999999996,Austin D. Vance,1220511420707680257,2020-05-27 04:37:44,"Heber Springs, AR",poi,Rotary Ann Overlook,United States
42620,-91.730936,35.2383235,Austin D. Vance,1220511420707680257,2020-06-09 21:13:43,"Heber Springs, AR",city,"Searcy, AR",United States
23900,-77.05421199999999,39.863352500000005, ,1220511622395047936,2020-04-17 02:25:35,highway to hell-13,city,"New Oxford, PA",United States
16740,-80.8467855,35.209059,Summer,1220511974439735296,2020-05-29 16:21:08,"Charlotte, NC",city,"Charlotte, NC",United States
119,-100.772211,20.5226915,genaro rico flores,1220512091028717568,2020-04-23 14:29:05,,city,"Celaya, Guanajuato",Mxico
21,-43.351541,-22.959362,Ricardo Guimares,1220512128588812290,2020-02-21 01:21:43,,poi,Garden Brasa restaurante e pizzaria,Brasil
21,-48.022192499999996,-16.5552415,Dudinha $2,1220512153431674880,2020-04-07 03:00:45,,city,"Luzinia, Brasil",Brasil
35620,-74.3052695,40.9615815,jane mertrud,1220512168992485376,2020-04-22 01:29:44,"New Jersey, USA",city,"Pequannock, NJ",United States
88,139.4600115,35.705549,,1220512263531925504,2020-03-13 23:32:05,,city, ,
35620,-73.78031800000001,41.1902035,reggie,1220512486941655041,2020-03-17 01:31:46,cant remember ask ur mum,city,"Chappaqua, NY",United States
35620,-73.8311875,40.6708795,mohamed,1220512596333342721,2020-05-25 08:39:35,,city,"Queens, NY",United States
88,140.1739095,35.940427500000006,,1220512725962412034,2020-03-20 10:30:42, ,city,"Ryugasaki-shi, Ibaraki",Japan
33100,-80.2333285,25.7823535,billie eilish fans,1220512809043333120,2020-02-15 04:04:13,,city,"Miami, FL",United States
225,54.436615,24.430695,Yahia,1220513102380388353,2020-03-06 14:38:42,"Abu Dhabi, United Arab Emirate",poi,Solitaire Cafe,United Arab Emirates
55,-88.941787,14.102794,Marvin Lpez,1220513273893748736,2020-06-07 20:09:04,"Chalatenango, El Salvador",poi,"Llano Grande, concepcion quezaltepeque",El Salvador
30340,-70.25688099999999,44.0833785,Lee Hill,1220513283356139521,2020-04-08 01:16:58,,city,"Auburn, ME",United States
37980,-75.554872,39.727564,Wyatt Wasylak,1220513302608039937,2020-03-07 16:13:13,"Hillsborough, NJ",poi,76ers Fieldhouse,United States
35620,-74.6328365,40.5015775,Wyatt Wasylak,1220513302608039937,2020-03-23 20:00:47,"Hillsborough, NJ",city,"Hillsborough, NJ",United States
38060,-112.1246765,33.5528625,Jaylen Beverly-Rushing,1220513356085202944,2020-02-29 02:17:33,"Tempe, AZ",city,"Phoenix, AZ",United States
82,84.870103,22.2003605,Chaturbhuja Majhi,1220513394236645377,2020-02-23 10:09:35,,city,"Rourkela Industrial Township, India",India
21,-47.796623,-15.776254000000002,puttobrasil,1220513433638096905,2020-03-11 21:00:43,,city,"Braslia, Brasil",Brasil
119,-109.76626850000001,23.269879,@tamalito1989,1220513447575605254,2020-03-28 23:19:50,"Los Cabos, Baja California Sur",city,"Los Cabos, Baja California Sur",Mxico
222,112.51621329999999,-7.1521395000000005,aku pohon ,1220513454072549376,2020-02-15 11:00:57,"Gayungan, Indonesia",city,"Duduk Sampeyan, Indonesia",Indonesia
21,-51.14083100000001,-29.741586,Micael Duarte,1220514231059206146,2020-02-29 22:36:03,,city,"So Leopoldo, Brasil",Brasil
222,110.385558,-7.792552000000001,Putri Cahya Pertiwi,1220514319135207424,2020-04-08 07:47:47,"Yogyakarta, Indonesia",poi,"Pantai Wonosari, Gunung Kidul, Yogyakarta",Indonesia
21,-43.441578,-22.911421500000003,Neto RODRIGUES Neto,1220514394225938432,2020-03-30 05:04:11,,city,"Rio de Janeiro, Brasil",Brasil
200,26.335081,38.3161435,Serkan Topcuolu,1220514566116978693,2020-02-17 21:31:01,,city,"eme, Trkiye",Turkey
95,126.91146299999998,37.556418,,122051491,2020-03-24 14:08:14,,city,"Mapo-gu, Republic of Korea",Republic of Korea
88,139.5769495,35.584871,,1220515032452063233,2020-04-24 23:28:33,,city,"Kawasaki-shi Miyamae, Kanagawa",Japan
175,43.717933,25.989204, ,1220515131953680384,2020-02-29 09:44:43,,poi,Herfy | ,Kingdom of Saudi Arabia
171,120.93007800000001,14.718399,ALDRIN DELOS REYES,1220515159698886656,2020-04-30 14:40:41,"Paliwas,Obando Bulacan",poi,"San Pascual , Obando Bulacan",Republic of the Philippines
96,47.668634999999995,29.342105,,1220515315836243974,2020-03-04 11:01:38,,poi,Lamasat Salon,Kuwait
88,140.682967,37.4064045,,1220515424892157954,2020-04-13 01:49:29, ,city, ,
222,105.30501149999999,-5.1498125,Kurnia,1220515437475090433,2020-04-28 05:44:44,,city,"Metro Selatan, Indonesia",Indonesia
37980,-75.117998,40.0048655,17.,1220515532748791808,2020-05-12 10:45:17,"Philadelphia,Pa",city,"Philadelphia, PA",United States
171,122.000082,12.410614,charls,1220515545390276608,2020-03-17 13:00:57,,city,"Odiongan, Mimaropa",Republic of the Philippines
21,-52.333895500000004,-31.561389000000002,Dede Machado,1220515662898049026,2020-04-14 01:14:48,,city,"Pelotas, Brasil",Brasil
186,-3.6894395,42.344393,Noelia,1220515756783423489,2020-02-19 20:17:16,"Carrin de los Condes, Espaa",city,"Burgos, Espaa",Espaa
35620,-73.9487755,40.655138,joli,1220515961914171392,2020-06-10 19:36:51,she/her  18 ,city,"Brooklyn, NY",United States
21,-46.830678000000006,-16.386416,mari ana,1220516187391627269,2020-02-23 15:16:53,,city,"Una, Brasil",Brasil
151,6.536375,9.627832000000001,Aliyu Musa Kinta,1220516198607134721,2020-05-15 20:54:59,,poi,Vagosh Hotel,Nigeria
21,-49.04810550000001,-26.375272999999996,Ana Antunes,1220516221868814336,2020-02-20 17:07:50,,city,"Schroeder, Brasil",Brasil
222,109.72898,-7.0429685000000015,Dek Erma,1220516314592108544,2020-02-23 01:18:15,"Pekalongan, Indonesia",city,"Talun, Indonesia",Indonesia
39,-84.0982,9.9327,Carv's Costa Rica,1220516795842547712,2020-05-30 23:01:24,"San Jos, Costa Rica",city,"San Jose, Costa Rica",Costa Rica
171,121.4285355,18.400583,Lee,1220516827924615168,2020-02-20 03:49:09,"Abulug, Cagayan Valley",city,"Abulug, Cagayan Valley",Republic of the Philippines
186,-5.09957,37.5428,javibh,122051688,2020-02-16 21:54:43,,city,"cija, Espaa",Espaa
21,-43.391915999999995,-22.831777, ,1220516929091330049,2020-04-05 04:55:15,"Rio de janeiro,chapado",poi,Complexo do Chapado,Brazil
33100,-80.11711650000002,26.931496000000006,Mark,1220517086419660801,2020-02-22 02:27:00,,city,"Jupiter, FL",United States
38,-74.24367099999999,4.2622835,Alberto Herrera,1220517139892834304,2020-03-20 21:36:32,,city,"Bogot, D.C., Colombia",Colombia
200,29.981932500000003,39.425502,Bra Erolu,1220517309669957633,2020-02-19 21:35:25,,neighborhood,"Meydan, Ktahya",Trkiye
222,101.0702705,-1.4861975,Utiafrans,1220517405333446656,2020-03-22 17:03:48,,city,"Sungai Pagu, Indonesia",Indonesia
222,106.76828700000002,-6.157728,Bidang Jalan dan Jembatan,1220517562594676736,2020-02-19 16:44:46,DKI Jakarta,poi,Pesing,Indonesia
69,-2.0980630000000002,7.178545,Adamu De Critical thinker,1220517653787422721,2020-02-23 12:17:38,Duayaw Nkwanta ,poi,Duayaw Nkwanta,Ghana
24,-73.602226,45.472583,pomso,1220518175441399808,2020-04-24 19:03:17,"Montral, Qubec",poi,Montreal Children's Hospital,Canada
21,-36.015144,-8.1849265,Valdir Martins,1220518204524695553,2020-02-17 05:11:32,,city,"Caruaru, Brasil",Brasil
-9999,-34.550309000000006,-4.8747985,Valdir Martins,1220518204524695553,2020-02-24 19:09:00,,city,"Natal, Brasil",Brasil
21,-35.2771075,-5.6770295,Valdir Martins,1220518204524695553,2020-02-26 14:02:17,,city,"Extremoz, Brasil",Brasil
-9999,-34.550309000000006,-4.8747985,Valdir Martins,1220518204524695553,2020-02-26 19:03:38,,city,"Natal, Brasil",Brasil
21,-36.015144,-8.1849265,Valdir Martins,1220518204524695553,2020-02-28 11:36:22,,city,"Caruaru, Brasil",Brasil
222,106.9260075,-6.377322,switerdenhoney,1220518257829892097,2020-02-15 00:53:52,,city,"Gunung Putri, Indonesia",Indonesia
222,101.520524,0.5351575,  ,1220518268454072320,2020-02-16 01:39:49,,city,"Bukit Raya, Indonesia",Indonesia
21,-38.5026475,-12.8753345,leviachan,1220518296837074946,2020-02-14 17:19:13,"Salvador, Brasil",city,"Salvador, Brazil",Brazil
21,-43.5243665,-22.696528,Jovem Tralha.,1220518402781011970,2020-02-24 16:59:10,"Nova Iguau, Brasil",city,"Nova Iguau, Brasil",Brasil
119,-99.216787,19.565116,jukilop,1220518610956890113,2020-03-18 23:07:06,,poi,Consultorios Nazca - Medicina Integral,Mxico
17140,-84.3615325,39.506103499999995,kievaprema@aol.com,1220518671619174400,2020-03-14 14:46:45,,city,"Middletown, OH",United States
222,107.010654,-6.3162210000000005,A N I S,1220518725780004865,2020-02-20 15:09:37,,city,"Bantargebang, Indonesia",Indonesia
21,-48.45979749999999,-1.2729295,Jos Maia,1220518826179252225,2020-03-20 03:07:12,,city,"Belm, Brasil",Brasil
222,108.7664635,-7.511964499999999,JFB! zy,1220518884928708608,2020-02-27 03:11:02,di hatimu,city,"Kedungreja, Indonesia",Indonesia
171,123.7765065,10.281025499999998,Y U R $,1220518894734983168,2020-04-19 10:56:15,Lagkaw Ville,city,"Minglanilla, Central Visayas",Republic of the Philippines
8,-58.442643,-34.604315,Oriana,1220518993,2020-05-24 03:12:37,"Buenos Aires, Argentina",city,"Ciudad Autnoma de Buenos Aires, Argentina",Argentina
82,78.687717,28.7725925,Amit Sharma,1220519219747442688,2020-02-27 00:12:24,,city,"   , ",
21,-46.562096000000004,-22.9364315,Maah Camargo,1220519445787004930,2020-02-29 22:41:29,,city,"Bragana Paulista, Brasil",Brazil
31080,-118.48042,34.022688,Pedro Romero,1220519487927046144,2020-04-28 13:28:13,,city,"Santa Monica, CA",Estados Unidos
119,-101.8688765,21.5335195,fatimalopez301199@gmail.com,1220519488157818880,2020-02-21 02:10:03,,city,"Lagos de Moreno, Jalisco",Mxico
96,48.103646000000005,29.212157,,1220519490334724096,2020-02-22 13:22:30,Kuwait,poi,Abu Al-Hasaniya |  ,Kuwait
19100,-96.7617535,32.819858499999995,Frank Calhoun II,1220519505232900103,2020-02-25 17:07:34,"Irving, TX",city,"Dallas, TX",United States
91,36.841879999999996,-1.214316,Winnieaustine,1220519602742013952,2020-06-01 05:41:30,,poi,Fourways Junction Estate,Kenya
21,-49.2884605,-25.4952495,Brendon Bvjr,1220519744727584773,2020-03-18 15:29:46,,city,"Curitiba, Brasil",Brasil
95,127.05576,37.4885575,Minna,1220519764667187202,2020-03-11 23:57:32,"Seoul, Republic of Korea",city,"Gangnam-gu, Republic of Korea",Republic of Korea
21,-46.5554484,-23.6350243,Wellington Sousa,1220520066221006850,2020-05-04 13:30:59,,city,"So Caetano do Sul, Brasil",Brasil
21,-49.155077500000004,-25.430832,pai Nei de ogun,1220520308471476224,2020-03-09 09:35:50,"Pinhais, Brasil",city,"Pinhais, Brasil",Brasil
119,-103.335882,20.676652, Cynthia Rub ,1220520398,2020-02-14 12:37:13,Mxico,city,"Guadalajara, Jalisco",Mxico
40140,-116.9030105,33.9251585,#chica dorada  #StarCodeRONDNY,1220520580719374337,2020-02-15 03:02:13,banning California ,city,"Banning, CA",Estados Unidos
40900,-119.98735649999999,38.89340900000001,Ten Crows BBQ,1220520608527568897,2020-03-29 18:36:03,"South Lake Tahoe, CA",city,"South Lake Tahoe, CA",United States
200,40.1973355,37.9374775,sleyman arslan,1220520617222512641,2020-02-14 05:52:08,"Diyarbakr, Trkiye",city,"Diyarbakr, Trkiye",Turkey
21,-36.4066155,-8.2689035,,1220520706074652672,2020-03-19 21:28:58,,city,"Belo Jardim, Brasil",Brasil
8,-58.442643,-34.604315,mel,1220520856927047680,2020-03-31 07:20:37, Argentina ,city,"Ciudad Autnoma de Buenos Aires, Argentina",Argentina
160,-73.387215,-3.795382,Gobierno Regional de Loreto,1220520979442487296,2020-05-28 03:22:20,Per,city,"Iquitos, Peru",Peru
222,116.28538600000002,-8.628061,deDare,1220521015198932992,2020-04-08 13:05:26,Lombok,poi,"Lombok Tengah, Nusa Tenggara Barat",Indonesia
21,-43.39133472,-22.94149369,. ,1220521222489939969,2020-03-18 03:34:13,Bernardo ,city,"Rio de Janeiro, Brasil",Brasil
21,-49.897154,-29.519054999999998,Alice ,1220521361749180416,2020-05-26 02:27:45,"Arroio do Sal, Brasil",city,"Arroio do Sal, Brasil",Brasil
151,4.75189,7.6284615,Ilesanmi Olawale Simeon,1220521462647468038,2020-02-21 13:39:34,,city,"Ilesa, Nigeria",Nigeria
88,139.2957855,35.6581635,,1220521537318424576,2020-02-14 12:35:12,,city, ,
96,47.975367999999996,29.284412,OTHMAN.,1220521631161954304,2020-04-02 09:50:52,Kuwait,city,"Khaitan, Kuwait",Kuwait
21,-43.296872,-22.644558,TROUXA,1220521633808515073,2020-03-26 17:04:05,,city,"Duque de Caxias, Brasil",Brasil
82,77.73629349999999,29.2788315,Pragun,1220521749512478720,2020-04-26 21:07:12,,city,"Khatauli, India",India
8,-58.446241,-34.659632,Ezequiel,1220522005478432773,2020-03-24 03:43:40,,city,"Villa Soldati, Argentina",Argentina
21,-43.441578,-22.911421500000003,5 dias,1220522048843370497,2020-02-17 17:03:49,Em oto patamar ,city,"Rio de Janeiro, Brasil",Brasil
