currentGEOID,lon,lat,name,author_Id,created_at,location,place_type,place_full_name,place_country
21,-43.441578,-22.911421500000003,sunflower,2305889024,2020-03-02 03:02:28,"Campo Grande, Rio de Janeiro",city,"Rio de Janeiro, Brasil",Brasil
28140,-94.208765,39.0127195,Treasonous T.Rump,23058892,2020-02-14 20:36:32,Midwest,city,"Grain Valley, MO",United States
9,144.97854785,-37.8218648,David Morgan Referee,23058899,2020-02-14 09:57:48,Melbourne,city,"Melbourne, Victoria",Australia
47260,-76.355918,36.841764000000005,B Peeps,230589050,2020-04-24 02:52:54,,city,"Portsmouth, VA",United States
24,-73.723025,45.5578305,angelicaa,2305890514,2020-05-10 02:03:17,"Montral, Qubec",city,"Montral, Qubec",Canada
26900,-86.20095,39.868390000000005,Vanny,230589059,2020-05-09 22:56:28,indianapolis indiana,poi,Indianapolis Public Library- Michigan Road Branch,United States
33,-68.55226800000001,-22.101634,nacho!,230589114,2020-03-01 04:46:15,Chile,city,"Calama, Chile",Chile
26420,-95.1271425,29.526190000000003,D Valerius,2305892432,2020-03-16 19:01:37,Texas,city,"Webster, TX",United States
65,2.2600580000000003,48.834056,Hicham,2305892811,2020-02-27 17:37:02,,poi,TF1,France
88,141.4078,43.0944955,,2305892864,2020-03-05 09:07:26, ,city,  ,
21,-48.33333333,-10.18333333,Augusto Alencar,2305893205,2020-03-30 05:07:38,,city,"Palmas, Brasil",Brasil
29820,-115.223125,36.232915000000006,HotNVegas,2305893974,2020-02-14 01:32:49,"Las Vegas, NV",city,"Las Vegas, NV",United States
152,4.4765288,52.0533223,Veldsterkte,2305894192,2020-02-23 08:09:02,Zoetermeer,city,"Zoetermeer, Nederland",Nederland
91,41.849990000000005,3.9375370000000003,Abdirahman -Ahmed,2305895104,2020-05-17 16:59:53,"Nairobi, Kenya",poi,Sufti Ethiopia,Kenya
33,-72.1167,-36.6,margaret lara,2305895162,2020-04-15 19:58:44,Chilln - Chile,city,"Chilln, Chile",Chile
186,-4.674251,37.8476005,Dante,2305895524,2020-04-04 21:43:06,"Crdoba, Andaluca",city,"Crdoba, Espaa",Espaa
222,106.72113799999998,-6.220018,alfian,2305896756,2020-02-29 10:28:37,,city,"Ciledug, Indonesia",Indonesia
48620,-97.2894,37.6869,Kimberly Vieux,2305897244,2020-05-21 17:51:39,,city,"Wichita, KS",United States
22220,-94.2134,36.3667,Kimberly Vieux,2305897244,2020-05-23 19:55:23,,city,"Bentonville, AR",United States
21,-46.530655,-23.8040495,Alves,2305897290,2020-02-18 14:34:35,"Vila Sua, Santo Andr",city,"So Bernardo do Campo, Brasil",Brasil
8,-58.56449,-34.4587225,Claudia Sarmiento,230589789,2020-03-24 03:34:58,San Fernando ,city,"San Fernando, Argentina",Argentina
175,39.10816267,21.60421525,,2305898765,2020-06-01 03:52:30,Jeddah,city,",   ",  
119,-98.1542665,19.0322295,victor manuel,2305900279,2020-03-17 04:20:40,,city,"Puebla, Mxico",Mxico
222,106.15531000000001,-6.091130000000001,Merry Iriani Sortha,2305900848,2020-03-07 12:23:04,"Sumatera Utara, Indonesia",city,"Serang, Indonesia",Indonesia
35620,-73.704577,41.525575,Sharon Schreiber,23059067,2020-03-06 11:33:55,"Stormville, NY",city,"Pecksville, NY",United States
119,-113.56738870000001,31.32186976,Mike Beltran,2305907414,2020-03-25 23:37:05,,city,"Puerto Peasco, Sonora",Mexico
51,-8.645068499999999,54.193422,Michelle Gildea,2305907992,2020-02-20 13:24:06,,city,"Sligo, Ireland",Ireland
12060,-83.89654300000001,33.571181,Sittin' With Michael,2305909497,2020-02-15 17:54:41,"Conyers, GA",poi,The Mill at Yellow River,United States
24,-78.817061,44.5222745,Leigh1414,23059111,2020-03-06 13:21:37,"Lindsay, On, Canada",city,"Kawartha Lakes, Ontario",Canada
51,-6.1743985000000015,53.257282999999994,K,2305912587,2020-05-24 21:37:43,"Slutsend, Dublin",city,"Dun Laoghaire-Rathdown, Ireland",Ireland
26420,-95.4464865,29.838495,C.Joseph,230591358,2020-02-25 19:25:01,"Houston,Tx",city,"Houston, TX",United States
88,138.994417,35.196708,,230591380,2020-02-14 04:44:38,,poi, ,
21,-44.0590765,-2.5956935000000003,Lili Soares,230591446,2020-04-20 01:57:47,"So Lus, Brasil",city,"So Jos de Ribamar, Brasil",Brasil
120,102.25293103,6.09173715,haifa_scha,230591535,2020-03-12 04:32:16,kota bharu,city,"Kota, Kelantan",Malaysia
38060,-112.3594,33.6386,Vicki,2305916059,2020-02-17 03:11:24,"Surprise, Arizona",city,"Surprise, AZ",United States
25540,-72.6086,41.7122,Vicki,2305916059,2020-05-23 03:33:27,"Surprise, Arizona",city,"Glastonbury, CT",United States
38060,-112.3594,33.6386,Vicki,2305916059,2020-05-24 22:29:01,"Surprise, Arizona",city,"Surprise, AZ",United States
31080,-118.136676,34.0855965,SHEESH,2305917222,2020-02-15 01:35:20,"Los Angeles, CA",city,"Alhambra, CA",United States
21,-42.127660999999996,-22.93629,Peter Santos,2305917501,2020-02-25 20:20:36,londres ,poi,Condomnio Lagoa Azul,Brasil
30580,-100.9358555,37.04406400000001,Joel Applegate,2305918166,2020-02-17 23:39:42,,city,"Liberal, KS",United States
30420,-99.986315,40.857903,Joel Applegate,2305918166,2020-05-04 19:59:44,,city,"Cozad, NE",United States
30580,-100.9358555,37.04406400000001,Joel Applegate,2305918166,2020-05-12 03:56:11,,city,"Liberal, KS",United States
12060,-83.99673100000001,34.118083,Ant$kii ,2305918389,2020-03-12 21:44:11,"Atlanta, GA",city,"Buford, GA",United States
175,36.614784,28.39854,  ,2305921252,2020-03-18 06:20:15,"Los Angeles, CA",city,",   ",  
8,-57.5814305,-38.01158750000001,nora viviana,230592150,2020-03-28 20:53:07,Mar del Plata,city,"Mar del Plata, Argentina",Argentina
33,-70.53669049999998,-33.4471385,fernando avila,230592247,2020-05-01 14:40:52,,city,"La Reina, Chile",Chile
9,145.0531355,-37.9725665,Tim Nguyen,2305922515,2020-02-22 23:27:42,,city,"Melbourne, Victoria",Australia
49,-78.5103,-0.2158,Andrs Granda,230592306,2020-03-21 19:21:01,Quito-Ecuador,city,"Quito, Ecuador",Ecuador
235,20.4622,44.8206,Nikola 011,2305923791,2020-04-18 10:25:24,"Belgrade City, Republic of Serbia",city,"Belgrade, Republic of Serbia",Republic of Serbia
161,73.09089248,33.73064107,Shehla Mir Ansari,2305924136,2020-02-15 03:50:29,,city,"Islamabad, Pakistan",Pakistan
21,-49.275918,-25.448976000000002,Bernardo,230592432,2020-05-20 21:19:22,"Curitiba, Brasil",poi,Arena da Baixada,Brasil
222,115.1081085,-8.5176575,be yourself,230592434,2020-02-26 11:15:17,Bali,city,"Tabanan, Indonesia",Indonesia
37980,-75.117998,40.0048655,JP Lutz,230592533,2020-02-25 02:13:15,"Philadelphia, PA",city,"Philadelphia, PA",United States
119,-103.50418,25.711095,Mario P.,2305925856,2020-02-18 02:56:49,"Gmez Palacio, Durango",city,"Gmez Palacio, Durango",Mxico
175,46.710011,24.756928,#7.,2305925860,2020-02-19 07:34:32,Riyadh,poi,   ,  
31180,-101.897173,33.5705265,Archer Nelson,2305926680,2020-02-17 18:13:26,nm | ttu,city,"Lubbock, TX",United States
10740,-106.632718,35.117002500000005,Archer Nelson,2305926680,2020-03-15 01:06:05,nm | ttu,city,"Albuquerque, NM",United States
44060,-117.425,47.6589,Rochelle Anderson,23059292,2020-05-11 00:58:15,"Los Angeles, CA",city,"Spokane, WA",United States
12580,-76.62048200000002,39.284713,Master P ,2305929359,2020-05-14 14:01:36,,city,"Baltimore, MD",United States
42020,-120.648,35.1483,Todd Mack,2305929535,2020-04-15 20:36:16,"Atlanta, GA",city,"Pismo Beach, CA",United States
49,-79.8833,-2.1833,Emilio Guillen,230593216,2020-04-15 04:10:42,,city,"Guayaquil, Ecuador",Ecuador
47900,-78.5115,38.8771,SherfeyMane,2305932742,2020-04-16 19:15:44,"Woodstock, VA",city,"Woodstock, VA",United States
25500,-78.5653,38.8225,SherfeyMane,2305932742,2020-04-20 19:43:35,"Woodstock, VA",city,"Edinburg, VA",United States
47900,-78.5115,38.8771,SherfeyMane,2305932742,2020-04-20 22:50:55,"Woodstock, VA",city,"Woodstock, VA",United States
37980,-75.117998,40.0048655,aine the gemini ,2305933873,2020-02-14 19:08:11,West philly,city,"Philadelphia, PA",United States
171,121.243523,14.168071,Rai,2305935398,2020-02-18 07:28:15,"Capas, Central Luzon",poi,Vega Arcade,Republic of the Philippines
200,29.0052225,41.0213205,Derin Orhon,2305935454,2020-02-16 15:21:00,,city,"stanbul, Trkiye",Turkey
41700,-98.5406515,29.417501,Dillon Collier,230593671,2020-02-14 03:29:28,"San Antonio, TX",city,"San Antonio, TX",United States
47900,-77.0143985,38.898603,Dillon Collier,230593671,2020-03-06 14:13:19,"San Antonio, TX",city,"Washington, DC",United States
41700,-98.49901,29.423004,Dillon Collier,230593671,2020-06-06 21:16:02,"San Antonio, TX",poi,San Antonio Police Headquarters,United States
191,8.290141,47.459083,Raegi,23059378,2020-05-18 13:33:18,Killwangen,city,"Baden, Schweiz",Schweiz
211,-66.9146,10.505999999999998,"Edsel A, Salazar B.",230593795,2020-02-16 22:28:30,Caracas-Venezuela ,city,"Caracas, Venezuela",Venezuela
35620,-74.066663,40.7180015,Vernon Huffman,230593905,2020-05-25 22:48:59,"Jersey City, New Jersey ",city,"Jersey City, NJ",United States
24,-80.25,43.55,Delectably Simple,23059402,2020-06-01 15:16:51,"Toronto, Ontario",city,"Guelph, Ontario",Canada
158,174.75433850000005,-41.2529975,Kyle Ebarle,2305941116,2020-02-23 09:25:41,"Wellington City, New Zealand",city,"Wellington City, New Zealand",New Zealand
88,139.555057,35.660503999999996,ZONO SATO /  ,230594212,2020-02-22 23:56:26,,city, ,
9,144.97343,-37.830517,Victorian Ombudsman,2305942596,2020-04-25 00:44:52,"Victoria, Australia",poi,Shrine of Remembrance,Australia
16740,-80.8627,35.4072,Author Marcus J King,23059430,2020-02-25 18:49:13,Looking for a page turner?,city,"Huntersville, NC",United States
36740,-81.3775,28.5421,Author Marcus J King,23059430,2020-04-14 13:51:07,Looking for a page turner?,city,"Orlando, FL",United States
88,139.781479,35.722190000000005,MOK,2305943515,2020-03-01 04:56:47,,poi,DEN,
14860,-73.15175699999999,41.233668,Albert Dzurka,2305944157,2020-03-20 12:00:21,United States,poi,Target,United States
9,145.0531355,-37.9725665,Chels ,2305945088,2020-05-18 04:23:08,"Melbourne, Victoria",city,"Melbourne, Victoria",Australia
35380,-90.09693100000001,29.987033,duck nasty ,2305946688,2020-02-24 21:17:49,msp/nola,poi,City Park Botanical Gardens,United States
17300,-87.3221685,36.5509835,Alex,2305946786,2020-02-19 12:55:58,"Clarksville, TN",city,"Clarksville, TN",United States
88,137.945968,36.200506,,230594691,2020-05-16 11:57:27,,poi, 100 ,Japan
19100,-97.2859135,32.7799665,peibeinjay,230594697,2020-02-16 19:07:26,"Texas, USA",city,"Fort Worth, TX",United States
33340,-88.129425,43.0606215,peibeinjay,230594697,2020-02-18 04:09:46,"Texas, USA",city,"Brookfield, WI",United States
19100,-97.2859135,32.7799665,peibeinjay,230594697,2020-02-20 15:08:12,"Texas, USA",city,"Fort Worth, TX",United States
33100,-80.13296249999998,25.8169655,peibeinjay,230594697,2020-03-04 02:21:24,"Texas, USA",city,"Miami Beach, FL",United States
19100,-97.2859135,32.7799665,peibeinjay,230594697,2020-03-06 22:21:42,"Texas, USA",city,"Fort Worth, TX",United States
33540,-114.03115,46.8791,peibeinjay,230594697,2020-06-03 01:56:34,"Texas, USA",city,"Missoula, MT",United States
19100,-97.2859135,32.7799665,peibeinjay,230594697,2020-06-05 23:46:44,"Texas, USA",city,"Fort Worth, TX",United States
65,4.4455445000000005,47.458809,mathieusbn,2305947545,2020-02-18 19:58:43,,city,"Marigny-le-Cahout, France",France
47900,-77.0143985,38.898603,kisiah jo ,2305947861,2020-02-15 23:24:52,,city,"Washington, DC",United States
45300,-82.67290299999998,27.7957195,big bitch jupiter,2305947861,2020-03-14 02:42:17,,city,"St Petersburg, FL",United States
47900,-76.949078,39.05468000000001,big bitch jupiter,2305947861,2020-03-21 18:06:48,,city,"Calverton, MD",United States
12580,-76.77176949999999,39.144723,big bitch jupiter,2305947861,2020-03-21 18:35:21,,city,"Jessup, MD",United States
19380,-84.29198149999998,39.789929,big bitch jupiter,2305947861,2020-03-23 15:32:28,,city,"Trotwood, OH",United States
119,-105.2845295,20.835845000000003,victor.arellano30,230594838,2020-03-13 21:40:04,Mxico,city,"Baha de Banderas, Nayarit",Mxico
95,128.5494565,35.81313450000001,Nebraska Clique  ||-//,2305949126,2020-02-16 00:07:37,"Nebraska  tp4L
",city,"Dalseo-gu, Republic of Korea",Republic of Korea
119,-99.19955037,19.41603714,JP REDS,230594920,2020-03-02 05:23:02,MEX,city,"Miguel Hidalgo, Distrito Federal",Mexico
175,46.685077,24.7219435, ,2305949939,2020-06-10 17:11:40,",   ",city,",   ",  
21,-42.784822999999996,-5.1863185000000005,Gardnia Carvalho,2305950597,2020-04-15 01:20:02,,city,"Teresina, Brasil",Brasil
21340,-106.187572,31.6901135,Pedro Delgado,2305951735,2020-02-16 00:01:55,"El Paso, TX",city,"Horizon City, TX",United States
119,-99.3184285,19.3740755,Omar Ruiz,230595211,2020-02-15 00:44:22,Mexico DF,city,"Huixquilucan, Mxico",Mxico
119,-99.1158905,19.518656,Carlos Ramos Solis,2305952875,2020-04-18 01:39:58,,city,"Gustavo A. Madero, Distrito Federal",Mxico
119,-99.08179,19.2362445,Pantufla,2305953332,2020-06-05 20:06:27,En un lugar de un gran Pas ,city,"Xochimilco, Distrito Federal",Mxico
35380,-90.1786295,30.001244,January 31st ,2305954458,2020-02-22 00:58:47,"New Orleans, LA",city,"Metairie, LA",United States
38,-73.13269700000002,7.144792999999999,Keily Pealoza,2305954792,2020-02-14 02:34:49,"Bucaramanga, Santander.",city,"Bucaramanga, Colombia",Colombia
24,-78.82221799999998,43.8309855,Larry James,230595483,2020-02-16 01:11:30,"Oshawa, Ontario",city,"Oshawa, Ontario",Canada
24,-113.12109299999999,53.6239735,Deb Williams,2305956145,2020-04-01 03:38:24,"Sherwood Park,AB",city,"Strathcona County, Alberta",Canada
158,170.343357,-44.682337,David Roulston,2305956222,2020-02-14 04:29:26,"Oamaru North, Waitaki District",city,"Waitaki District, New Zealand",New Zealand
8,-58.54075699999999,-34.4902185,Dani.,230595758,2020-02-17 20:37:13,"Buenos Aires, Argentina",city,"San Isidro, Argentina",Argentina
65,2.37496944,48.80517539,jk minsik wifey ,2305958489,2020-04-18 04:31:16,jk heart,city,"Vitry-sur-Seine, France",France
22220,-94.2187445,36.3739955,Joyce Lane,23059600,2020-02-14 07:19:41,Arkansas,city,"Bentonville, AR",United States
88,139.051802,37.908015000000006,KC_TAKEOVER,230596000,2020-03-20 21:04:34,City,city,  ,
222,106.90872,-6.2725095,Deyan muhammad aji,2305960062,2020-02-20 07:25:48,"Jakarta Timur, DKI Jakarta",city,"Makasar, Indonesia",Indonesia
13140,-94.12863349999999,30.086918,Mason,2305960106,2020-02-19 17:51:12,,city,"Beaumont, TX",United States
12060,-84.27617749999997,33.276238500000005,TG-13,2305961931,2020-04-02 20:06:22,,city,"Experiment, GA",United States
85,10.68956,43.90805,Wildboar8x,230596203,2020-04-29 11:42:57,Shadow Moses,city,"Pescia, Toscana",Italia
171,120.97765657,14.693694699999998,Asizzzzz,2305962373,2020-03-01 10:15:05,Philippines. Manila. ,city,"Valenzuela City, National Capital Region",Republic of the Philippines
82,79.96387150000002,12.963486999999999,Maheshwar Subramani,2305963204,2020-02-17 06:05:31,", ",city,"Sriperumbudur, India",India
88,140.420367,36.181154,,2305963465,2020-05-02 13:46:33,,poi,  (JASDF Hyakuri Air Base),
82,78.65185136,17.29991192,Dj Srinu Bns,2305963610,2020-03-05 08:49:13,Bhainsa,city,"Hayathnagar, India",India
9,150.931975,-33.848244,Sydney Observer,2305964024,2020-04-15 00:20:01,Sydney,city,"Sydney, New South Wales",Australia
33100,-80.295886,25.711706,$IMONE,2305964211,2020-05-20 23:54:26,,city,"South Miami, FL",United States
200,27.006511,38.4079305,Serkan,2305964794,2020-05-15 09:13:58,"zmir, Trkiye",city,"zmir, Trkiye",Trkiye
19100,-96.78298249999999,33.3055065,Eric Baesel,23059655,2020-02-17 01:52:47,"Dallas, TX",city,"Celina, TX",United States
200,29.0052225,41.0213205,okyergn,2305965671,2020-02-14 13:39:27,"Trabzon, Trkiye",city,"stanbul, Trkiye",Trkiye
65,0.33907,46.574051000000004,Seve86,23059662,2020-03-08 12:48:59,France,poi,Lilot Tison,France
222,95.291794,5.538256499999999,donat gula,2305966788,2020-02-14 09:39:14,Banda Aceh,city,"Meuraxa, Indonesia",Indonesia
192,-61.51929200000001,10.665199000000001,Qu,23059672,2020-02-21 04:45:28,"10.6667 N, 61.5167 W",poi,Maraval Road,Trinidad and Tobago
222,110.05985700000001,-7.8892565,,2305967738,2020-03-06 10:48:03,"Yogyakarta, Indonesia",city,"Temon, Indonesia",Indonesia
31080,-118.4119065,34.0207895,shari bender ,2305967983,2020-03-20 19:55:57,Los Angeles,city,"Los Angeles, CA",United States
20500,-78.9072,35.9886,Patrick Martin,230596845,2020-03-08 12:24:01,,city,"Durham, NC",United States
24660,-79.7913,36.0731,Patrick Martin,230596845,2020-04-22 03:56:19,,city,"Greensboro, NC",United States
51,-6.114964,53.288366,Eoin Flood,230596954,2020-05-22 11:01:24,"Dublin City, Ireland",poi,Sandycove Beach,
21,-39.6335715,-16.2847525,me deixa,230596961,2020-05-30 05:38:49,"So Paulo, Brasil",city,"Eunpolis, Brasil",Brasil
8,-64.26465999999999,-27.7930225,Mica Luna ,230596964,2020-03-20 15:37:10,"Santiago del Estero, Argentina",city,"Santiago del Estero, Argentina",Argentina
35620,-73.96165,40.716640000000005,Black Tie Brass,2305969970,2020-02-19 20:45:21,NYC,city,"Brooklyn, NY",United States
82,73.5528525,18.7866785,Vikas Jagdale,2305970288,2020-04-15 11:16:50,Pune,city,"Lonavala, India",India
82,72.82594399999999,18.938792000000003,RAMDAS JADHAV,2305970510,2020-03-08 10:16:44,"Mumbai, India",poi,Wankhede Stadium,India
222,110.4265505,-7.068175,olyvia susanti,2305971240,2020-06-02 08:03:15,"Semarang,Central java ",city,"Banyumanik, Indonesia",Indonesia
205,-2.8889075,52.685834,Shroppieoomon,2305971257,2020-03-20 20:51:59,"Shrewsbury, England",city,"Yockleton, England",United Kingdom
41860,-122.48861111,37.79,Emmas Parlour,2305971739,2020-03-26 00:28:30,"Castro Valley, Ca",city,"San Francisco, CA",United States
51,-7.09227142,52.40199173,Emmas Parlour,2305971739,2020-04-14 22:14:44,"Castro Valley, Ca",city,"Kilkenny, Ireland",Ireland
41860,-122.15577611,37.7481061,Emmas Parlour,2305971739,2020-04-19 23:06:00,"Castro Valley, Ca",city,"Oakland, CA",United States
17020,-121.87481854,39.7680585,Emmas Parlour,2305971739,2020-04-26 05:55:12,"Castro Valley, Ca",city,"Chico, CA",United States
41860,-122.06989041,37.68565588,Emmas Parlour,2305971739,2020-04-27 18:37:26,"Castro Valley, Ca",city,"Castro Valley, CA",United States
151,3.394647,6.485549,Ephraim OK ,2305972917,2020-02-28 08:39:50,"Lakes of the Four Seasons, IN",poi,Third Mainland Bridge,Nigeria
41860,-122.0664725,37.715782,BRIGID,2305972962,2020-02-14 05:31:51,Lordes basement,city,"Castro Valley, CA",United States
46700,-122.04297450000001,38.233362,BRIGID,2305972962,2020-02-16 21:50:21,Lordes basement,city,"Fairfield, CA",United States
17020,-121.83373,39.747037,BRIGID,2305972962,2020-02-21 06:44:59,Lordes basement,city,"Chico, CA",United States
41860,-122.0664725,37.715782,BRIGID,2305972962,2020-02-29 03:00:46,Lordes basement,city,"Castro Valley, CA",United States
17020,-121.83373,39.747037,BRIGID,2305972962,2020-03-03 17:03:30,Lordes basement,city,"Chico, CA",United States
41860,-122.0664725,37.715782,BRIGID,2305972962,2020-03-14 05:12:11,Lordes basement,city,"Castro Valley, CA",United States
17020,-121.83373,39.747037,BRIGID,2305972962,2020-04-06 00:36:02,Lordes basement,city,"Chico, CA",United States
41860,-122.0664725,37.715782,BRIGID,2305972962,2020-04-10 02:40:05,Lordes basement,city,"Castro Valley, CA",United States
24,-130.32102,54.314009999999996,Paul Williams,2305973916,2020-03-14 04:19:18,now appearing in northern BC,city,"Prince Rupert, British Columbia",Canada
31080,-118.4119065,34.0207895,xc,2305976486,2020-02-14 06:57:14,,city,"Los Angeles, CA",United States
9,144.963419,-37.813937,Matt,230597678,2020-02-26 09:57:12,,poi,"Melbourne, Australia",Australia
16980,-87.732013,41.8335845,Mark,230597686,2020-02-16 17:05:49,Assenisipia,city,"Chicago, IL",United States
82,78.00876,30.320672499999997,Kaustav Chatterjee,2305977097,2020-04-18 22:13:53,"Kolkata, India",city,"Dehradun, India",India
35620,-73.93656800000001,40.850693,Sofrito,2305978286,2020-02-25 01:50:52,Bronx,poi,Tampopo Ramen,United States
88,138.663801,35.142201,,230598057,2020-02-15 01:09:24, ,poi, ,
119,-100.315249,25.714318,osvaldo,2305980715,2020-03-10 04:35:30,"Monterrey, Nuevo Len",poi,Parque Nios Hroes,Mxico
45780,-83.71224649999998,41.6930445,Justin Billau,23059814,2020-02-24 00:06:36,"Lambertville, Michigan",city,"Sylvania, OH",United States
33780,-83.62070399999998,41.763428499999996,Justin Billau,23059814,2020-03-12 23:05:42,"Lambertville, Michigan",city,"Lambertville, MI",United States
45780,-83.558818,41.658095,Justin Billau,23059814,2020-03-14 00:39:28,"Lambertville, Michigan",poi,Peristyle Theater,United States
9,152.9931965,-27.382143,samarjit vasran,230598165,2020-02-15 00:21:29,"Adelaide, South Australia",city,"Brisbane, Queensland",Australia
205,-2.2222299999999997,52.19107,Just Keep Going.,23059833,2020-02-14 22:57:36,Where the Wild Things Are.,city,"Worcester, England",United Kingdom
205,-4.19315515,57.47411112,Robert Taylor,23059841,2020-03-31 08:50:21,"Culloden, Inverness",city,"Inverness, Scotland",United Kingdom
153,11.15260363,59.92162438,Eirik Huseby,23059846,2020-05-25 20:04:15,Norway,city,"Fet, Norge",Norge
171,120.7341,14.8364,joel raymundo,230598498,2020-03-05 12:20:02,singapore,city,"Hagonoy, Central Luzon",Republic of the Philippines
88,142.47120142,43.76930507,joel raymundo,230598498,2020-04-03 06:12:33,singapore,city,"Asahikawa-shi, Hokkaido",Japan
24,-79.368,43.708,J.J. Shier,23059856,2020-04-04 17:29:37,Toronto,city,"Toronto, Ontario",Canada
186,-4.4237,36.7167,Jose a. s. s,2305985841,2020-02-23 15:35:28,malaga,city,"Mlaga, Espaa",Espaa
82,77.6114105,12.9127385,krutarth gor,230598598,2020-05-30 03:15:54,"Bengaluru, India",neighborhood,"BTM Layout, Bengaluru South",India
40140,-117.3149705,33.6658655,S,230598616,2020-02-15 21:07:37,"Los Angeles, CA",city,"Lake Elsinore, CA",United States
31080,-118.006657,33.8527355,S,230598616,2020-02-22 18:58:30,"Los Angeles, CA",city,"Buena Park, CA",United States
40140,-117.3149705,33.6658655,S,230598616,2020-02-23 23:44:38,"Los Angeles, CA",city,"Lake Elsinore, CA",United States
193,99.3756865,18.350662,Charoen poong toong,2305986734,2020-02-27 05:52:52,,city,", ",
119,-103.23313,25.244223,Observando ComarcaL,2305986813,2020-03-05 03:25:30,Comarca Lagunera,city,"Torren, Coahuila de Zaragoza",Mxico
200,29.132593,40.109245,Ersel Pehlivan,230598690,2020-03-07 20:54:11,,poi,Uluda,Trkiye
47900,-77.0143985,38.898603,SINK OR SWIM,230598703,2020-02-17 04:22:42,IG- @1valentino_sos,city,"Washington, DC",United States
19100,-96.9328395,33.170365999999994,c pick seis,230598740,2020-02-20 01:17:46,,city,"Little Elm, TX",United States
45300,-82.44269399999997,27.9965945,Caroline Ryals,230598846,2020-05-17 02:57:11,"New York, New York",city,"Tampa, FL",United States
85,12.2064,45.8231,Ester Zanatta,2305988722,2020-03-07 22:35:49,"Nervesa della Battaglia, Venet",city,"Nervesa della Battaglia, Veneto",Italia
71,6.9667,50.95,AJ,2305988811,2020-02-15 13:17:20,now,city,"Kln, Deutschland",Deutschland
31080,-117.79457599,34.10875333,Peachi Pooh Bear,2305989030,2020-02-15 03:33:29,"San Dimas, CA",city,"San Dimas, CA",United States
222,109.6806885,-7.682452499999999,Mira C. Karuniawati,230598927,2020-02-16 09:34:17,Indonesia,city,"Kebumen, Indonesia",Indonesia
171,121.019927,14.518776999999998,CJ,230598959,2020-02-21 08:33:45,,poi,Resorts World Manila (RWM),Republika ng Pilipinas
82,86.008985,20.369460500000002,Sanjay kumar nayak,2305989782,2020-02-23 13:35:10,cuttack,city,"Cuttack, India",India
82,78.1433485,9.9630895,Gokul Ajith Gunasekaran,2305989936,2020-06-03 03:34:48,"Madurai North, India",city,"Madurai North, India",India
47900,-77.0143985,38.898603,ngela ,230599089,2020-02-14 01:35:39,Colombia ,city,"Washington, DC",Estados Unidos
37860,-86.8762135,30.4243925,ngela Ordez,230599089,2020-03-20 12:51:41,Colombia ,city,"Navarre, FL",Estados Unidos
88,135.570357,34.510736,_CY6A,2305991834,2020-02-16 07:55:07,,poi, ,
12580,-76.81452949999998,39.1500035,Benjamin Holcomb,230599184,2020-06-03 19:18:06,"ozark, mo",city,"Savage, MD",United States
21,-46.2900965,-23.86332,Jorge Costa,230599250,2020-03-23 18:10:30,Brasil,city,"Santos, Brasil",Brazil
16740,-81.08412,35.220827500000006,Kirk Brown,230599378,2020-02-14 14:52:58,"Cramerton, NC",city,"Cramerton, NC",United States
34820,-78.688827,33.82451399999999,Kirk Brown,230599378,2020-05-29 22:27:35,"Cramerton, NC",city,"North Myrtle Beach, SC",United States
82,77.4044755,23.272495000000003,priyanka@511,2305993891,2020-03-10 06:32:00,"Bhopal, India",city,"Bhopal, India",India
88,133.87823400000002,33.9531085,No.,230599395,2020-02-16 12:05:16,,city, ,
82,81.8644645,21.2814035,Prashant Kumar,2305994390,2020-02-24 20:25:08,New Delhi,city,"Raipur, India",India
12060,-84.43310600000001,33.7671945,Steven Norris,230599507,2020-02-28 18:28:30,"Atlanta, GA",city,"Atlanta, GA",United States
187,-61.043426000000004,13.940301000000002,Jules Lavin,23059954,2020-02-20 14:17:33,London,poi,Anse le Raye Fish Fry Friday,Saint Lucia
205,-0.1091815,51.5469265,Jules Lavin,23059954,2020-03-09 20:28:57,London,city,"Islington, London",United Kingdom
29740,-106.7374385,32.3422995,Luke Wilson,2305996077,2020-02-22 16:31:50,"Louisa, VA",city,"Las Cruces, NM",United States
34980,-86.791549,36.200008000000004,Christie Fultz,2305996278,2020-03-22 02:15:49,"Nashville, TN",city,"Nashville, TN",United States
88,132.755047,35.3367195,tosshi818,230599661,2020-02-21 14:20:17,,city, ,
31980,-85.680261,40.552181,trin,2305996870,2020-03-07 20:51:04,,city,"Marion, IN",United States
171,120.35375049999999,16.608753,glenn,2305998344,2020-02-18 15:27:59,J A D ,city,"San Fernando City, Ilocos Region",Republic of the Philippines
24,-123.1204,49.2819,Ruben Castelblanco,2305999416,2020-05-29 21:20:26,"Vancouver, British Columbia",city,"Vancouver, British Columbia",Canada
178,28.415109,-25.715682,Interlude ,2305999649,2020-04-14 04:56:14,PTA,poi,"Phase 5, Mamelodi East",South Africa
82,75.417698,23.4504895,#irfan_Gori,2306003184,2020-04-12 05:38:14,"Nagda, India",city,"Nagda, India",India
39300,-70.9555395,41.7709295,Erica,2306003981,2020-03-13 11:47:11,Boston / Reykjavk,city,"East Freetown, MA",United States
28580,-81.7707575,24.5693445,ERICA,2306003981,2020-06-07 05:36:03,Boston,city,"Key West, FL",United States
35840,-82.57367500000002,27.4739745,ERICA,2306003981,2020-06-08 22:33:08,Boston,city,"Bradenton, FL",United States
45300,-82.407523,27.764152000000003,ERICA,2306003981,2020-06-09 02:44:03,Boston,city,"Apollo Beach, FL",United States
205,-1.5909520000000001,53.739596,craig horsfall,2306006176,2020-02-15 01:52:21,Leeds,city,"Gildersome, England",United Kingdom
164,-8.25220155,37.08856032,craig horsfall,2306006176,2020-03-10 16:27:34,Leeds,city,"Albufeira, Portugal",Portugal
205,-1.5994,53.743,craig horsfall,2306006176,2020-04-09 18:26:37,Leeds,city,"Gildersome, England",United Kingdom
21,-48.478899,-27.609691,Animadora Transiosa puta com bozonoro,2306006699,2020-04-10 04:55:03,,city,"Florianpolis, Brazil",Brazil
88,136.924075,35.161404,NiSS ENTERTAINMENT @,2306007259,2020-05-26 04:47:17,OVER COFFEE,poi, ,
200,30.287207000000002,37.734367999999996,Reyhan Baar,2306007964,2020-02-15 20:14:32,"Burdur, Trkiye",city,"Burdur, Trkiye",Trkiye
65,-0.371959,49.184634499999994,VICTOR,2306008049,2020-02-14 11:34:14,"Caen, France",city,"Caen, France",France
88,124.185895,24.33902,twotorn,230600809,2020-05-18 10:44:51,,poi,,
95,127.2663675,37.964067,Park juho,230600839,2020-03-07 19:18:43, ,city, ,
71,7.748891,49.425241,       ,2306008752,2020-02-17 22:52:35,"Rhineland-Palatinate, Germany",city,"Kaiserslautern, Germany",Germany
160,-77.598316,-11.070433999999999,jair omar,2306008796,2020-02-20 04:40:46,Huaura,poi,Plaza de Armas de Huaura,Peru
38060,-112.1246765,33.5528625,.co,2306009046,2020-02-14 17:35:46,Arizona,city,"Phoenix, AZ",United States
8,-58.25883500000001,-37.84894850000001,mar,2306009190,2020-04-03 00:33:34,"Balcarce, Argentina",city,"Balcarce, Argentina",Argentina
21,-43.441578,-22.911421500000003,bia NO JUDGEMENT,230600934,2020-02-14 18:41:48,Rio de Janeiro ,city,"Rio de Janeiro, Brazil",Brazil
171,121.033212,14.5464995,Veronica ,230600993,2020-02-19 02:03:34,Manila City ,city,"Makati City, National Capital Region",Republic of the Philippines
96,47.9867565,29.3118675,   ,2306010063,2020-02-17 11:38:53,,city,"Qortuba, Kuwait",Kuwait
16820,-78.3952195,37.29779,Rico Pea,2306010437,2020-02-17 01:06:38,,city,"Farmville, VA",United States
47260,-76.50780850000002,37.090301000000004,Rico Pea,2306010437,2020-02-21 20:58:32,,city,"Newport News, VA",United States
16820,-78.3952195,37.29779,Rico Pea,2306010437,2020-02-26 01:16:29,,city,"Farmville, VA",United States
47260,-76.50780850000002,37.090301000000004,Rico Pea,2306010437,2020-02-29 02:50:31,,city,"Newport News, VA",United States
16820,-78.3952195,37.29779,Rico Pea,2306010437,2020-03-10 13:28:51,,city,"Farmville, VA",United States
40060,-77.49317049999998,37.529883,Rico Pea,2306010437,2020-03-14 22:41:47,,city,"Richmond, VA",United States
16820,-78.3952195,37.29779,Rico Pea,2306010437,2020-03-15 23:39:55,,city,"Farmville, VA",United States
31340,-79.179013,37.4009555,Rico Pea,2306010437,2020-04-06 14:26:37,,city,"Lynchburg, VA",United States
16820,-78.3952195,37.29779,Rico Pea,2306010437,2020-04-06 19:46:48,,city,"Farmville, VA",United States
47260,-76.50780850000002,37.090301000000004,Rico Pea,2306010437,2020-04-10 22:29:34,,city,"Newport News, VA",United States
16820,-78.3952195,37.29779,Rico Pea,2306010437,2020-04-14 01:53:19,,city,"Farmville, VA",United States
47260,-76.50780850000002,37.090301000000004,Rico Pea,2306010437,2020-04-19 18:41:12,,city,"Newport News, VA",United States
16820,-78.3952195,37.29779,Rico Pea,2306010437,2020-04-20 17:29:35,,city,"Farmville, VA",United States
47260,-76.50780850000002,37.090301000000004,Rico Pea,2306010437,2020-05-10 17:12:54,,city,"Newport News, VA",United States
71,13.4246065,52.506701,Davyde,2306011,2020-02-17 05:43:51,"Vancouver, British Columbia",city,"Berlin, Germany",Germany
24,-123.123581,49.257639000000005,Davyde,2306011,2020-02-27 18:58:10,"Vancouver, British Columbia",city,"Vancouver, British Columbia",Canada
12740,-72.5981195,44.15253213,Drama Tha Myth ,230601276,2020-05-27 19:17:25,"Shelby, Durham, NC / TBA ",city,"Montpelier, VT",United States
16740,-80.84333333,35.22694444,Drama Tha Myth ,230601276,2020-06-07 21:37:21,"Shelby, Durham, NC / TBA ",city,"Charlotte, NC",United States
222,124.844839,1.51021,alyaa,2306013204,2020-05-02 04:14:26,Indonesia,poi,Jl. Raya Hasanuddin Kampung Islam Tuminting Manado Sulawesi Utara,Indonesia
119,-100.44059449999999,20.7152745,        ,230601390,2020-05-07 02:42:27,"Quertaro Arteaga, Mxico ",city,"Quertaro, Quertaro Arteaga",Mxico
21,-35.1,-8.11667,Robson Hp,230601511,2020-02-26 15:26:33,"Moreno, Pernambuco",city,"Moreno, Brasil",Brasil
31080,-118.4119065,34.0207895,gavin,2306015329,2020-02-15 22:24:15,@emonitela,city,"Los Angeles, CA",United States
10740,-106.632718,35.117002500000005,tania ramos,230601550,2020-02-25 02:48:49,Albuquerque,city,"Albuquerque, NM",United States
82,73.6060935,23.1270595,azhersibhai,2306015663,2020-02-23 15:48:37,"Lunavada, India",city,"Lunavada, India",India
8,-57.037395499999995,-37.33980250000001,LaMujerDelPortero,230601745,2020-02-14 00:03:30,Argentina,city,"Mar Azul, Argentina",Argentina
171,121.0627355,14.683012,cia,2306018288,2020-05-10 13:31:20,alyster ,city,"Quezon City, National Capital Region",Republic of the Philippines
200,29.133654999999997,40.109623,Ali Kse,2306019616,2020-02-15 21:36:03,,poi,Uluda,Trkiye
42660,-122.3308,47.6046,zeuqraM,230602155,2020-02-18 06:27:48,,city,"Seattle, WA",United States
186,-1.1215735,41.771173499999996,Pedro Lorente Godoy,2306022874,2020-03-11 13:53:22,Espaa,city,"Alagn, Espaa",Espaa
38900,-122.630908,45.536402,Nicholas Mallos,230602419,2020-02-21 02:08:01,"Portland, OR",city,"Portland, OR",United States
82,79.1357,12.927,Vijay Srinivasan,2306024340,2020-06-01 13:44:17,"Vellore, India",city,"Vellore, India",India
40060,-77.5223735,37.6439065,Terrence Newman,2306024957,2020-02-18 01:20:27,"Short Pump, VA",city,"Laurel, VA",United States
222,105.21735690000001,-4.95707047,ADEAPRIANSYAHPRAYUDA,230602540,2020-02-20 06:47:52,BANDAR LAMPUNG,city,"Terbanggi Besar, Indonesia",Indonesia
173,37.62212,55.7601, ,2306027284,2020-02-15 09:02:59,,city,", ",
186,2.17041,41.3907, ,2306027284,2020-04-21 16:08:03,,city,"Barcelona, Espaa",Espaa
173,37.65214,55.773030000000006, ,2306027284,2020-04-23 15:04:33,,city,", ",
205,-2.236568,53.086420499999996,Sharon Beeston,2306027302,2020-02-15 18:31:13,Close to Vale Park ,city,"Kidsgrove, England",United Kingdom
19820,-83.030573,42.581306,MagnumMI,2306027848,2020-02-26 01:22:11,,city,"Sterling Heights, MI",United States
88,140.45395200000002,36.3825735,,2306028295,2020-05-08 04:32:43,,city, ,
41980,-66.28581712,18.13041065,Del,2306030529,2020-02-27 23:34:23, Puerto Rico,city,"Llanos, USA",United States
36260,-111.94699950000002,41.028078,,2306032356,2020-02-16 01:57:15,"Kaysville, UT",city,"Kaysville, UT",United States
242,121.23213999999999,24.854815,ice512,230603255,2020-03-23 08:39:39,"Taoyuan County, Taiwan",city,", ",
222,103.83333333,-2.75,Nick Muzik,23060328,2020-02-14 06:14:01,Cape Town,city,"Sekayu, Indonesia",Indonesia
178,18.8665,-33.9314,Nick Muzik,23060328,2020-02-17 13:32:04,Cape Town,city,"Stellenbosch, South Africa",South Africa
119,-115.86509562,31.97068792,Nick Muzik,23060328,2020-05-11 09:32:48,Cape Town,city,"Ensenada, Baja California",Mexico
178,18.34103,-34.01153,Nick Muzik,23060328,2020-05-15 08:06:59,Cape Town,city,"Hout Bay, South Africa",South Africa
200,32.8183815,39.8889765,maratonbakan,2306033116,2020-03-31 14:06:50,,city,"Ankara, Trkiye",Trkiye
12060,-84.43310600000001,33.7671945,bubbles ,2306034177,2020-02-19 15:52:06,,city,"Atlanta, GA",United States
42340,-81.1096165,32.017284499999995,bubbles ,2306034177,2020-02-22 14:53:29,,city,"Savannah, GA",United States
12060,-84.43310600000001,33.7671945,bubbles ,2306034177,2020-02-23 23:34:37,,city,"Atlanta, GA",United States
42340,-81.1096165,32.017284499999995,bubbles ,2306034177,2020-03-16 14:05:51,,city,"Savannah, GA",United States
8,-58.442643,-34.604315,Naka,2306034962,2020-02-15 20:55:02,,city,"Ciudad Autnoma de Buenos Aires, Argentina",Argentina
38,-73.92732149999999,11.0734625,carlos Molinares,2306035011,2020-03-04 17:42:49,,city,"Santa Marta, Colombia",Colombia
24420,-123.32185700000001,42.429316,Xavier Savoie,2306036107,2020-02-15 00:43:52,"Grants Pass, OR (Tweaker town)",city,"Grants Pass, OR",United States
82,73.8262495,24.4594275,Ramesh Jain BSNL,2306036952,2020-04-29 03:44:29,"Udaipur, India",city,"Udaipur, India",India
169,26.0948065,44.4455455,Gabriel Linca,2306038697,2020-02-19 19:18:06,Bucharest,city,"Bucharest, Romania",Romania
24,-79.38512824,43.6408863,tiana,2306039505,2020-03-13 17:05:15,toronto,city,"Toronto, Ontario",Canada
171,123.096635,10.7023735,jayceelyn casilad,2306040186,2020-04-10 02:28:23,Bacolod City,city,"City Of Talisay, Western Visayas",Republic of the Philippines
41500,-121.63540372,36.67188329,Melissa Jackson,2306041717,2020-02-15 00:34:59,"Salinas, CA",city,"Salinas, CA",United States
41940,-122.1606504,37.4295977,Melissa Jackson,2306041717,2020-03-01 22:23:43,"Salinas, CA",city,"Stanford, CA",United States
41500,-121.65418000000001,36.675801,Melissa Jackson,2306041717,2020-03-04 02:44:32,"Salinas, CA",city,"Salinas, CA",United States
38,-73.92732149999999,11.0734625,SADITH JOSE,230604194,2020-03-18 02:51:08,"Barranquilla, Colombia",city,"Santa Marta, Colombia",Colombia
37100,-119.067407,34.3600145,cal,2306042770,2020-02-26 16:44:52,"Los Angeles, CA",city,"Santa Paula, CA",United States
82,77.66287,28.912684999999996,Shivam Tiwari,2306042849,2020-04-13 08:54:10,Home town: Faizabad (U.P.),city,"Meerut, India",India
222,106.85102450000001,-6.565969,Dinda Permatasari,230604401,2020-03-08 22:45:18,Indonesia,city,"Kedunghalang, Indonesia",Indonesia
175,46.59815947,24.63585105,Yousef,2306044049,2020-05-14 02:35:39,,city,",   ",  
27180,-88.81901500000001,35.614483,Adam Friedman,230604412,2020-05-30 18:33:32,"Jackson, TN",poi,Jackson City Hall,United States
222,107.1972395,-6.2096,chocolateee,2306044958,2020-06-05 03:37:39,Indonesia,city,"Cikarang, Indonesia",Indonesia
205,-2.0286553,50.7323628,Amazing Face Dorset,2306045163,2020-02-20 00:13:44,"South West, England",city,"Upton, England",United Kingdom
65,2.347003,48.8588335,Arthur Moatti,2306045343,2020-05-04 22:14:42,Paris.,city,"Paris, France",France
120,116.1405425,5.9882775000000015,tasha,2306046355,2020-02-14 02:35:45,"Kota Kinabalu, Sabah ",city,"Kota Kinabalu, Sabah",Malaysia
222,109.404698,-0.147723,HeyJude,2306048802,2020-02-27 13:11:21,Pontianak,poi,Supadio International Airport (PNK),Indonesia
193,100.5835805,13.752507000000001,,2306049116,2020-02-15 01:44:35,"Doha, Qatar",city,"Bang Kapi, Thailand",Thailand
191,8.573903,47.4288455,,2306049116,2020-02-20 12:05:42,"Doha, Qatar",city,"Opfikon, Schweiz",Switzerland
31080,-118.4119065,34.0207895,,2306049116,2020-02-26 22:58:49,"Doha, Qatar",city,"Los Angeles, CA",United States
85,12.5451455,41.8984165,,2306049116,2020-03-03 06:27:42,"Doha, Qatar",city,"Rome, Lazio",Italy
120,101.52940885,3.07497689,,2306049116,2020-03-07 13:15:48,"Doha, Qatar",city,"Petaling Jaya, Selangor",Malaysia
91,36.863620000000004,-1.2748635,,2306049116,2020-03-12 21:25:52,"Doha, Qatar",city,"Nairobi, Kenya",Kenya
120,101.4790765,3.1231455,,2306049116,2020-03-16 15:16:50,"Doha, Qatar",city,"Bukit Raja, Selangor",Malaysia
33100,-80.13296249999998,25.8169655,Ron ,2306050721,2020-03-13 01:59:48,Loyalty Before Royalty ,city,"Miami Beach, FL",United States
37980,-75.264843,39.8692185,Ron ,2306050721,2020-03-16 13:28:59,Loyalty Before Royalty ,city,"Lester, PA",United States
33100,-80.13296249999998,25.8169655,Ron ,2306050721,2020-03-17 18:14:44,Loyalty Before Royalty ,city,"Miami Beach, FL",United States
37980,-75.117998,40.0048655,Ron ,2306050721,2020-05-26 23:20:47,Loyalty Before Royalty ,city,"Philadelphia, PA",United States
23860,-79.259725,33.499352,FedBabyk,2306051067,2020-02-28 12:57:09,DMV,poi,taste lounge,United States
24,-77.1167,44.65,Arvind Patil,23060516,2020-02-17 21:55:48,Canada,city,"Addington Highlands, Ontario",Canada
8,-58.442643,-34.604315,Nelson L Glielmi,230605174,2020-04-06 08:34:38,Mataderos. C.A.B.A,city,"Ciudad Autnoma de Buenos Aires, Argentina",Argentina
40140,-117.719517,34.078472999999995,Noah,2306053279,2020-02-15 22:55:28,"Ontario, CA",poi,Popeyes Louisiana Kitchen,United States
31080,-117.77291699999999,34.0654505,Noah,2306053279,2020-02-16 01:35:22,"Ontario, CA",city,"Pomona, CA",United States
40140,-117.603783,34.0451585,Noah,2306053279,2020-02-17 20:15:39,"Ontario, CA",city,"Ontario, CA",United States
31080,-117.77291699999999,34.0654505,Noah,2306053279,2020-02-27 03:18:15,"Ontario, CA",city,"Pomona, CA",United States
40140,-117.603783,34.0451585,Noah,2306053279,2020-02-28 01:43:51,"Ontario, CA",city,"Ontario, CA",United States
119,-101.257,21.016359,Victor Sosa,230605340,2020-03-15 01:09:52,Mxico,neighborhood,"Centro, Guanajuato",Mxico
175,41.708946999999995,27.664687,,2306053445,2020-02-24 07:45:20,"Al Madinah Al Munawwarah, Kingdom of Saudi Arabia",poi,     ,  
21,-54.261875,-20.8753275,Alaina Medeiros.,230605347,2020-02-24 07:25:58,"Campo Grande/Bodoquena, MS",city,"Campo Grande, Brasil",Brasil
154,81.24448100000001,28.451483000000003,bikash shrestha,230605411,2020-03-26 11:25:13,pokhara,poi,Bardia National Park,Nepal
160,-77.0442615,-11.990811500000001,Luis Alvarez de Paz,230605481,2020-05-10 16:42:45,Lima-Peru,city,"Independencia, Peru",Peru
151,3.3386055,6.4931125000000005,agbalagbi,2306054872,2020-03-04 06:48:28,Nigeria,city,"Lagos, Nigeria",Nigeria
222,107.593751,-6.869277,jupanji,2306055686,2020-06-02 10:57:56,"Cimahi Selatan, Indonesia",poi,Sekolah Tinggi Pariwisata Bandung,Indonesia
33980,-77.00664499999998,34.6638645,Jordan Walsh,23060566,2020-05-25 03:57:56,"Apex, NC",city,"Emerald Isle, NC",United States
39580,-78.85507799999998,35.7232,Jordan Walsh,23060566,2020-05-27 13:14:30,"Apex, NC",city,"Apex, NC",United States
30900,-86.3521655,40.750347999999995,tengo bolas grandes y un pene pequeo,230605818,2020-02-29 15:43:35,,city,"Logansport, IN",United States
29020,-86.142212,40.472726,tengo bolas grandes y un pene pequeo,230605818,2020-03-12 21:57:00,,city,"Kokomo, IN",United States
28140,-94.55866999999999,39.138090500000004,Kaleigh (still a ghost),2306059021,2020-02-14 04:12:54,"North Kansas City, MO",city,"North Kansas City, MO",United States
82,76.865424,28.295214,nirmalsingh,2306059141,2020-04-03 18:26:07,"Haryana, India",poi,Park Inn by Radisson Bilaspur,India
160,-79.021304,-8.122555499999999,John Dvila Castillo,2306060110,2020-03-18 13:52:51,Trujillo,city,"Trujillo, Peru",Peru
205,-1.8906405,52.493966500000006,Andy Colatron,23060606,2020-02-14 07:42:25,"Digbeth, Birmingham",city,"Birmingham, England",United Kingdom
38240,-79.5839835,35.2624985,Drew,2306061523,2020-02-18 02:38:20,"Seven Lakes, NC",city,"Seven Lakes, NC",United States
91,36.863620000000004,-1.2748635,"Deputy Governor, EGH",2306061566,2020-02-17 08:59:59,"Bujumbura, KAY @silverstoneair",city,"Nairobi, Kenya",Kenya
205,-0.14893599999999999,51.500091999999995,Meghan Bobrowsky,2306063455,2020-02-16 22:34:33,CA,city,"London, England",United Kingdom
40900,-121.2506635,38.805335,Meghan Bobrowsky,2306063455,2020-03-15 03:59:02,CA,city,"Rocklin, CA",United States
13420,-94.575637,48.148990000000005,Teacher Mahdi (SCSU),2306063797,2020-02-15 02:57:05,"St Cloud, MN",poi,Upper Red Lake,United States
41060,-94.18491350000001,45.5307205,Teacher Mahdi (SCSU),2306063797,2020-02-22 21:10:58,"St Cloud, MN",city,"St Cloud, MN",United States
211,-66.84132188,10.49916988,Samuel Mogollon,230606561,2020-03-13 23:17:57,Venezuela,city,"Petare, Venezuela",Venezuela
21,-43.9333,-19.9,Fideles,2306067141,2020-06-02 23:12:22,,city,"Belo Horizonte, Brasil",Brasil
171,121.10992900000001,14.2538655,Mari,230606718,2020-02-21 14:53:21,Philippines,city,"Cabuyao, Calabarzon",Republic of the Philippines
26900,-86.010681,39.95535,Blake Oakley,230606838,2020-05-31 09:03:02,"Indiana, USA",poi,Hampton Inn by Hilton,United States
29020,-86.142212,40.472726,Blake Oakley,230606838,2020-06-01 03:38:04,"Indiana, USA",city,"Kokomo, IN",United States
23060,-85.1700515,41.086917,Blake Oakley,230606838,2020-06-01 17:48:29,"Indiana, USA",city,"Fort Wayne, IN",United States
178,28.103551,-25.988404,JeremiaH Mogapi,2306070880,2020-03-05 17:21:06,"Midrand, South Africa",city,"Midrand, South Africa",South Africa
205,-0.191723,50.839575,C Ortiz,2306071,2020-03-18 01:16:18,UK | US | The World,city,"Hove, England",United Kingdom
35620,-74.2327845,40.72569350000001,Kelvin Brown,2306071732,2020-02-15 08:04:01,,city,"Irvington, NJ",United States
47900,-77.2674,38.8997,Callie Deitrick,230607395,2020-04-11 23:45:19,"Virginia, USA",city,"Vienna, VA",United States
41540,-75.08436,38.335,Callie Deitrick,230607395,2020-05-25 20:36:19,"Virginia, USA",city,"Ocean City, MD",United States
88,138.59244750000002,35.6888995, ,2306075281,2020-04-16 17:24:33,OSAKA,city, ,
37100,-119.17884,34.199659000000004,TUTT LOC,2306075462,2020-03-13 21:01:10,WEST OXNARD,poi,Casa Lopez,
171,121.12496999999999,15.467101999999999,Anj ,2306075749,2020-05-29 09:22:24,city of angels,poi,Tanawan,Republic of the Philippines
33100,-80.14917249999999,26.150368,JeanneStundon,2306075938,2020-03-11 02:15:30,,city,"Fort Lauderdale, FL",United States
8,-65.7781865,-28.4660005,Karen Apaza Flores,230607628,2020-02-24 00:20:49,Argentina ,city,"San Fernando del Valle de Catamarca, Argentina",Argentina
31080,-118.149602,33.965633999999994,Arzate,2306077038,2020-04-13 18:32:35,,city,"Bell Gardens, CA",United States
35620,-73.985812,40.75757,69Flavaz ,230607725,2020-03-26 19:14:18,Gotham City,poi,Times Square,United States
27220,-110.77553999999999,43.474499,tonya eslami,23060775,2020-02-15 07:06:59,in between electric dreams,city,"Jackson, WY",United States
-9999,-109.5308935,38.555679999999995,tonya eslami,23060775,2020-05-25 01:30:14,in between electric dreams,city,"Moab, UT",United States
27220,-110.77553999999999,43.474499,tonya eslami,23060775,2020-06-03 05:50:09,in between electric dreams,city,"Jackson, WY",United States
9,150.931975,-33.848244,JKC,230607750,2020-03-11 06:40:36,"Sydney, New South Wales",city,"Sydney, New South Wales",Australia
37980,-75.145744,39.949721999999994,jlo stan account,230607852,2020-02-15 02:36:10,"Philadelphia, PA",poi,FARMiCiA,United States
88,136.223252,36.062194,,2306078582,2020-06-01 07:23:07,,poi, (Fukui Sta.),
151,7.520541499999999,6.4412485,Adaeze Eze,230607860,2020-03-19 10:49:05,Enugu,city,"Enugu, Nigeria",Nigeria
3,47.004940000000005,41.44355,A'nar,2306078961,2020-03-27 17:40:54,Azerbaijan,poi,"Qax, Ilisu",Azerbaijan
21340,-106.4174305,31.793368,FlyEaglesFly915,2306079036,2020-02-14 05:30:20,"El Paso, TX",city,"El Paso, TX",United States
36380,-80.816847,27.230314500000002,R. Wayne Richter Law,2306082330,2020-03-02 13:28:29,"Florida, USA",city,"Okeechobee, FL",United States
38940,-80.2918455,27.165487,R. Wayne Richter Law,2306082330,2020-03-10 18:10:08,"Florida, USA",city,"Palm City, FL",United States
36380,-80.816847,27.230314500000002,R. Wayne Richter Law,2306082330,2020-06-09 00:03:41,"Florida, USA",city,"Okeechobee, FL",United States
222,110.42638004,-6.9956513,emje,2306082817,2020-05-13 03:48:35,Di mana saja,city,"Semarang Selatan, Indonesia",Indonesia
82,86.008985,20.369460500000002,JP,2306082906,2020-04-07 04:06:14,India,city,"Cuttack, India",India
45500,-94.0972555,33.430735,KIMBERLY WAGNON,2306083765,2020-05-27 05:22:24,texarkana tx.,city,"Texarkana, TX",United States
242,121.645086,24.9863425,CC,2306084126,2020-03-05 23:44:49,"Taipei, Taiwan",city,", ",
9,144.981347,-37.8154235,David @ WordBiz ,230608463,2020-03-31 20:47:54,"Victoria, Australia",neighborhood,"East Melbourne, Melbourne",Australia
151,7.52252485,9.09166751,Emmanuel umeadi okoh,230608469,2020-04-09 09:41:29, Asaba-Delta,city,"Abuja, Nigeria",Nigeria
205,-0.1,51.6167,Vashinta Dickens,23060847,2020-04-08 08:46:25,,city,"Enfield, London",United Kingdom
85,12.48327971,41.90096544,Gretchen,2306084822,2020-04-03 05:30:18,"Houston, TX",city,"Rome, Lazio",Italy
21,-51.0588874,0.03775014,Frank Palmerim,230608571,2020-05-13 21:20:21,"Aparecida de Goinia, Brasil",city,"Macap, Brasil",Brasil
82,85.778892,25.858678,Shadman Hasan,2306085716,2020-02-17 06:57:16,", ",city,"Samastipur, India",India
171,121.033212,14.5464995,Jed Uriguel,2306086890,2020-02-15 14:33:08,"Pateros, National Capital Region",city,"Makati City, National Capital Region",Republic of the Philippines
28140,-94.5592815,39.1000485,Gerntown,23060870,2020-06-06 18:57:16,KC MO,city,"Kansas City, MO",United States
11900,-82.0964045,39.320384,Ken Collins,230608777,2020-05-03 01:33:53,O-H - I-O,city,"Athens, OH",United States
225,55.27907,25.194306,Hayles,2306087866,2020-03-09 16:18:37,,poi,The Address Downtown ( ),United Arab Emirates
222,107.185461,-6.2976855,Shining Shimmering Splendid,2306088002,2020-02-22 15:14:58,Leuwiliang,city,"Lemahabang, Indonesia",Indonesia
61,178.452201,-18.149665,Aisake Mausio,2306088103,2020-02-21 21:24:47,Fiji,poi,Pacific Centre for Environment and Sustainable Development (PaCE),Fiji
222,112.65100000000001,-7.38778," , !",230608829,2020-05-07 11:42:56,Indonesia,city,"Taman, Indonesia",Indonesia
88,135.29182600000001,34.722674,,2306089632,2020-02-24 06:34:19,OKINAWA CITY & KO-BE CITY,poi, (Fukae Sta.)(HS21),
205,-1.1868265,52.6115165,Darren Chatwin,2306094321,2020-02-27 06:19:59,leicester,city,"Braunstone, England",United Kingdom
222,106.840845,-6.404853,Ferdian Ali Rahman,230609460,2020-02-14 11:11:53,,city,"Sukmajaya, Indonesia",Indonesia
35620,-73.825859,40.743572,bundles,2306094838,2020-03-22 08:08:07,"Queens, NY",poi,,United States
13460,-121.311582,44.059938,Emily Poole,2306095303,2020-03-27 15:51:41,"Bend, Oregon",city,"Bend, OR",United States
88,139.077365,36.307318,Ayako,230609592,2020-03-22 10:25:34,,poi,,
205,-1.44108,54.989666,Kev Howell,23060972,2020-02-22 13:35:23,"South Shields, England",poi,Howell Technology Group,United Kingdom
19740,-104.856189,39.54466091,Tamara Byrd,230609815,2020-02-27 18:11:43,,city,"Meridian, CO",United States
158,170.24368800000005,-45.6405125,john wilson,2306102545,2020-02-27 05:19:48,"Dunedin City, New Zealand",city,"Dunedin City, New Zealand",New Zealand
88,136.2160935,36.046813,,2306103973,2020-02-15 10:18:38,11220,city, ,
88,131.832438,34.162008, ,2306104236,2020-02-14 04:20:21,,city, ,
222,111.9867985,-7.8115165,DongDong,2306104874,2020-02-14 08:52:39,pecado,city,"Mojoroto, Indonesia",Indonesia
88,139.931051,35.715682,@,2306106116,2020-04-11 11:19:58, ,city, ,
82,85.385683,23.3604345,Amit Kumar,2306106445,2020-05-22 09:57:52,Ghaziabad,city,"Ranchi, India",India
65,2.347003,48.8588335,Linajaber,2306107007,2020-03-31 20:37:09,,city,"Paris, France",France
205,-1.56549,53.801956,Neil Spofforth,23061081,2020-03-09 21:39:10,West Yorkshire,city,"Leeds, England",United Kingdom
23060,-85.109496,41.175176,Crystal-,2306108760,2020-02-19 12:28:33,"Fort Wayne, IN",poi,Dupont Hospital,United States
8,-58.39654,-34.643456,Franco Ragalli,2306108930,2020-02-15 19:00:02,,poi,Estadio Toms Adolfo Duc (Club Atltico Huracn),Argentina
24,-79.2996725,43.8806945,Sarah Dell,23061107,2020-02-27 20:42:26,"Markham, Ontario, Canada",city,"Markham, Ontario",Canada
88,137.624542,34.8617955,korochan,2306110771,2020-02-18 10:33:47,,city, ,
186,-1.987711,43.2778715,Maribel Lariz,2306110955,2020-04-20 10:37:05,,city,"San Sebastin, Espaa",Espaa
33,-71.574589,-33.045087,Miguel Angel,230611159,2020-04-10 19:59:35,Valparaiso,poi,Cancha Fisher,Chile
-9999,-75.74854300000001,-29.7498335,Miguel Angel,230611159,2020-04-10 21:49:03,Valparaiso,city,"Valparaso, Chile",Chile
33,-70.728172,-33.6395845,Miguel Angel,230611159,2020-04-16 16:32:20,Valparaiso,city,"San Bernardo, Chile",Chile
-9999,-75.74854300000001,-29.7498335,Miguel Angel,230611159,2020-04-17 17:48:26,Valparaiso,city,"Valparaso, Chile",Chile
33,-71.3900345,-30.220386,Miguel Angel,230611159,2020-04-24 16:59:57,Valparaiso,city,"Coquimbo, Chile",Chile
-9999,-75.74854300000001,-29.7498335,Miguel Angel,230611159,2020-04-27 22:37:40,Valparaiso,city,"Valparaso, Chile",Chile
33,-71.480435,-33.6692145,Miguel Angel,230611159,2020-05-29 18:45:10,Valparaiso,city,"San Antonio, Chile",Chile
-9999,-75.74854300000001,-29.7498335,Miguel Angel,230611159,2020-05-30 22:08:48,Valparaiso,city,"Valparaso, Chile",Chile
205,0.7138,51.5379,Sadie Hasler,23061124,2020-03-24 10:34:00,"Essex, mate",city,"Southend-on-Sea, East",United Kingdom
82,72.87424399999999,19.174139999999998,Joannes Pereira,2306112656,2020-03-02 19:10:33,"Mumbai, India",city,"Mumbai, India",India
120,101.62459254,3.13336033,A Pie Thing,2306113020,2020-03-04 06:24:40,"Damansara Uptown, Malaysia",city,"Sungai Buloh, Selangor",Malaysia
222,106.7587,-6.1683,Shofa Achmad,230611312,2020-02-25 09:03:59,"T: -6.1662222,106.7596673",city,"Kembangan, Indonesia",Indonesia
85,9.4836885,45.39303750000001,Apersonwithacoolname,2306113319,2020-02-17 10:19:39,Hogwarts,city,"Spino d'Adda, Lombardia",Italia
88,139.63876000000002,35.454028,,2306113814,2020-02-14 06:05:30,2-2-13,poi, (Yokohama World Porters),
46520,-157.7955915,21.406923000000003,Ihi Lasconia,2306114694,2020-03-18 23:47:58,"Waimanalo, HI",city,"Kaneohe, HI",United States
31080,-117.85108899999999,33.842863,Gelly,23061150,2020-02-14 07:46:05,New York - Block #0,city,"Anaheim, CA",United States
16700,-80.1831,33.0147,I _ am _ a _ grunt,230611589,2020-05-13 18:49:41,"SC, AndrewsCharleston",city,"Summerville, SC",United States
120,101.7109,3.1581,Yuslaily Yunos,2306116896,2020-02-21 02:24:39,"Selangor, Malaysia",city,"Kuala Lumpur City, Kuala Lumpur Federal Territory",Malaysia
222,101.48198794,0.43767809,Yuslaily Yunos,2306116896,2020-03-13 08:43:51,"Selangor, Malaysia",city,"Bukit Raya, Indonesia",Indonesia
120,101.7109,3.1581,Yuslaily Yunos,2306116896,2020-05-15 15:57:06,"Selangor, Malaysia",city,"Kuala Lumpur City, Kuala Lumpur Federal Territory",Malaysia
41940,-121.967821,37.370990000000006,Geovanni Usher ,2306117572,2020-02-15 23:51:35,"Santa Clara, CA",city,"Santa Clara, CA",United States
19100,-96.9827885,32.958255,Matt Walker,230611893,2020-03-04 14:00:39,,city,"Coppell, TX",United States
88,137.011202,35.277978999999995,ASAKO,230611901,2020-05-07 04:40:54,,city, ,
31080,-118.4119065,34.0207895,andrew_ beasley,2306119256,2020-02-16 00:08:06,"Los Angeles, CA",city,"Los Angeles, CA",United States
41860,-122.302208,37.91855200000001,andrew_ beasley,2306119256,2020-03-31 23:45:49,"Los Angeles, CA",city,"El Cerrito, CA",United States
31080,-118.4119065,34.0207895,andrew_ beasley,2306119256,2020-04-14 05:28:23,"Los Angeles, CA",city,"Los Angeles, CA",United States
41860,-122.2286855,37.791994,steven naccarato,2306119417,2020-02-15 01:18:36,,city,"Oakland, CA",United States
200,33.782692499999996,41.383971,Sev.,2306119422,2020-03-03 08:22:31,"Kastamonu, Trkiye",city,"Kastamonu, Trkiye",Trkiye
48540,-80.689707,40.045709499999994,Karen Wojcik,2306119523,2020-02-17 22:56:31,,city,"Bethlehem, WV",United States
12580,-76.62048200000002,39.284713,Carlton,2306120010,2020-02-26 18:46:47,"Baltimore, MD",city,"Baltimore, MD",United States
21,-51.0214005,-30.003961,Juuh ,230612033,2020-02-20 07:03:29,"Porto Alegre, Brasil",city,"Alvorada, Brasil",Brasil
88,135.272357,34.7262565,,230612209,2020-05-29 12:25:49,  ,city,  ,
120,102.2082025,2.4174395,Dhanaraj B.,23061225,2020-02-14 08:00:29,,city,"Pegoh, Melaka",Malaysia
38060,-111.928142,33.392883999999995,Katie Brown,2306122573,2020-03-15 20:47:59,"Tempe, AZ",city,"Tempe, AZ",United States
33,-70.6667,-33.45,mbar Campos,230612406,2020-02-15 14:05:24,"Santiago, Chile",city,"Santiago, Chile",Chile
82,77.713675,29.5363385,Abdul Qadir,2306124884,2020-04-20 04:13:19,", ",city,"Muzaffarnagar, India",India
186,-3.7035075,40.4777945,Anah,23061250,2020-03-18 00:39:11,Venezuela,city,"Madrid, Espaa",Espaa
151,7.510165,6.417038,Nke e mere juo oyi 1 of Nkwerre ,2306125473,2020-05-06 08:45:22,Enugu,poi,Bright Lights,Nigeria
222,105.25349589,-5.41807416,,230612599,2020-05-10 03:12:10,"Sukarame, Indonesia",city,"Tanjung Karang Timur, Indonesia",Indonesia
21,-50.4328,-21.2089,Eduardo Faria,230612682,2020-05-22 01:41:30,Araatuba,city,"Araatuba, Brasil",Brasil
82,81.84394499999999,17.0805005,Rajkumar bandi,2306127884,2020-04-12 05:24:11,Rajamandry(kingcity),city,"Rajahmundry, India",India
129,114.148532,22.336064,,2306128896,2020-04-27 11:30:00,,poi,,
45,11.604417,55.660436499999996,Jeppe Kjrsgaard,23061298,2020-04-07 06:41:13,"Kbenhavn, Danmark",city,"Holbk, Danmark",Danmark
21340,-106.4174305,31.793368,Amanda Guillen,2306130097,2020-02-14 13:37:35,"El Paso, TX",city,"El Paso, TX",United States
175,39.24073945,21.49156405,Rwan.,2306130592,2020-02-24 04:19:54,Jeddah,city,",   ",  
22660,-105.06394250000001,40.5641905,Masi,2306130619,2020-02-14 02:16:22,"Ewa Beach, HI",city,"Fort Collins, CO",United States
46520,-158.02258600000002,21.354434,Masi,2306130619,2020-03-26 08:21:59,"Ewa Beach, HI",poi,Westloch Fairways,United States
22660,-105.06394250000001,40.5641905,Masi,2306130619,2020-04-04 17:58:13,"Ewa Beach, HI",city,"Fort Collins, CO",United States
39,-83.921419,9.862273,Karina con K,2306134116,2020-05-22 04:48:40,Cartago,city,"Cartago, Costa Rica",Costa Rica
22340,-83.250197,31.715455,Lexx,230613502,2020-04-01 05:54:49,TwoTwoNine,city,"Fitzgerald, GA",United States
88,140.02550919,36.44879295, ,2306135238,2020-02-20 11:49:24,,city, ,
33,-70.6671,-33.4498,Daniel Rondon,230613593,2020-04-20 22:00:27,"Valencia, Venezuela",city,"Santiago, Chile",Chile
83,50.979676,35.81219,alireaz,2306138821,2020-04-27 17:39:15,,poi,  | Ghaem Hospital,Islamic Republic of Iran
82,77.6320342,12.92818544,Pratheek Vinod Kumar,230614020,2020-04-18 14:03:13,"Mumbai, India",city,"Bengaluru South, India",India
21,-60.0253,-3.11333,Jane Castro,230614170,2020-03-08 12:56:45,Manaus-Amazonas,city,"Manaus, Brasil",Brasil
186,-3.5530885000000003,40.428678999999995,Liz,2306141812,2020-02-18 08:34:48,"Madrid,Caracas,Panama,Italia",city,"Coslada, Espaa",Espaa
24,-124.453125,50.73645514,KM,230614244,2020-02-18 12:51:15,"Atlanta, GA",city,"Strathcona C, British Columbia",Canada
35620,-74.00231,40.72038,KM,230614244,2020-03-10 17:29:00,"Atlanta, GA",city,"Manhattan, NY",United States
31080,-118.34977099999999,34.141417,KMO SHAMAAL,230614244,2020-04-09 14:57:38,"Atlanta, GA",city,"Los Angeles, CA",United States
12060,-84.3889,33.7566,KMO SHAMAAL,230614244,2020-04-29 16:55:30,"Atlanta, GA",city,"Atlanta, GA",United States
88,139.75636450000002,35.68688450000001,,2306143344,2020-03-06 16:31:08,,city, ,
151,3.3180660000000004,6.590611,IDRIS AZEEZ,2306143856,2020-05-25 08:12:34,NIGERIA,city,"Ikeja, Nigeria",Nigeria
88,133.3334845,34.522313999999994,,2306143975,2020-03-07 19:43:52,,city, ,
35620,-73.73398449999998,40.8030665,john fu,23061446,2020-03-24 16:59:05,"New York, NY",city,"Great Neck, NY",United States
119,-99.1708603,19.345230100000002,ErnestoCheve,230614577,2020-03-01 18:28:04,,city,"Coyoacn, Distrito Federal",Mxico
35620,-73.956141,40.9542615,Jack Kaplan,2306148010,2020-02-16 04:07:52,,city,"Demarest, NJ",United States
119,-96.886083,19.542054,Jorge Rangel,230614891,2020-05-01 22:32:16,,city,"Xalapa, Veracruz de Ignacio de la Llave",Mxico
88,139.54103500000002,35.3336365,,230614899,2020-03-01 10:51:00, ,city,"Kamakura-shi, Kanagawa",Japan
205,-0.102162,51.5879015,asterix,23061495,2020-06-04 18:38:10,space,city,"Tottenham, London",United Kingdom
175,39.8016865,21.389833000000007, .,2306150399,2020-02-14 06:26:36,,city,"Makkah Al Mukarrama, Kingdom of Saudi Arabia",Kingdom of Saudi Arabia
19740,-104.9220935,39.713563,,230615047,2020-02-19 18:01:58,Neptune,city,"Denver, CO",United States
23700,-108.7462485,35.521893,,230615047,2020-02-24 01:21:59,Neptune,city,"Gallup, NM",United States
19740,-104.9220935,39.713563,,230615047,2020-02-26 14:44:19,Neptune,city,"Denver, CO",United States
17820,-104.789327,38.888518499999996,,230615047,2020-04-21 18:37:29,Neptune,city,"Colorado Springs, CO",United States
22660,-105.1805,40.532604,,230615047,2020-04-24 21:25:02,Neptune,poi,Horsetooth Falls,United States
35620,-73.983304,40.763645000000004,Verkins,2306150502,2020-03-07 19:50:03,New York,poi,Broadway Theatre,United States
222,100.362026,-0.945732,Ria Sri Wahyuni,230615161,2020-02-15 12:22:02,Bukittinggi,city,"Padang Barat, Indonesia",Indonesia
200,29.191466,40.917765,Recep Avc,2306151759,2020-04-21 10:01:31,KO,poi,Aziz Mahmut Hdayi Camii,Trkiye
160,-73.399973,-4.767203,Auramore,230615357,2020-02-16 13:02:03,D.F. (Mexico City) & NYC,city,"Saquena, Peru",Peru
119,-99.153366,19.432835999999998,Auramore,230615357,2020-02-18 23:20:04,D.F. (Mexico City) & NYC,city,"Cuauhtmoc, Distrito Federal",Mxico
31080,-117.896662,34.0471795,Trojans Hockey,230615388,2020-02-15 22:40:31,"Los Angeles/Anaheim, CA",city,"West Covina, CA",United States
158,175.273887,-37.786749,#NZIII,230615426,2020-03-14 04:58:29,Media professional,poi,Seddon Park,New Zealand
42100,-122.0311865,36.97937500000001,notjahan,2306154920,2020-03-04 08:38:24,"Santa Cruz, CA",city,"Santa Cruz, CA",United States
88,135.02448019,34.57524509,_,230615555,2020-03-03 02:31:28, ,city, ,
200,30.680889,36.89007,gcetiner,2306156686,2020-02-15 19:45:33,"Antalya, Trkiye",city,"Antalya, Trkiye",Trkiye
24,-79.27256949999999,43.629311,Scott Knox,23061570,2020-02-14 02:38:06,"Toronto, Ontario",city,"Toronto, Ontario",Canada
205,-1.382522,53.796652,Martyn,2306157375,2020-04-03 11:44:39,Yorkshire,poi,Garforth Railway Station (GRF),United Kingdom
45940,-74.817777,40.26696,WTVFC33,2306157712,2020-04-20 19:21:52,"40 W Upper Ferry Rd. Ewing, NJ",poi,West Trenton Volunteer Fire Company,United States
222,110.37198,-7.792136,Idaman Ibumu,230615807,2020-03-04 12:56:41,"Yogyakarta, Indonesia",city,"Danurejan, Indonesia",Indonesia
33100,-80.23776,25.765434,lydia,2306159363,2020-02-16 03:31:28,miami,poi,Calle Ocho,United States
82,78.036709,27.168941999999998,anuj juneja,2306160074,2020-03-30 04:35:47,,city,"Agra, India",India
151,3.3907589999999996,6.432823,Elder_Chukz,230616141,2020-02-14 05:15:03,"| lekki |Lagos|, Nigeria",poi,Victoria Island,Nigeria
82,72.87424399999999,19.174139999999998,Gul Panag,23061619,2020-06-04 18:48:53,India,city,"Mumbai, India",India
34980,-86.791549,36.200008000000004,Sherry Cancelosi,2306161907,2020-02-23 00:47:05,"Egg Harbor Township, NJ",city,"Nashville, TN",United States
85,7.6757855,45.072872499999995,Musei Reali Torino,2306163415,2020-02-26 14:13:43,"Piazzetta Reale 1, Torino",city,"Torino, Piemonte",Italia
45300,-82.44269399999997,27.9965945,Chad Lopez,230616357,2020-05-23 13:15:12,"Tampa, FL",city,"Tampa, FL",United States
65,2.347003,48.8588335,steven universe #1 stan *:,2306163921,2020-05-07 12:45:41,", ielle, feminist, slytherin.",city,"Paris, France",France
88,139.669385,35.690861, ,2306163954,2020-02-20 08:43:32, ,poi,Stanotte,
21,-43.959822499999994,-19.918692,Cludio Eduardo,2306164295,2020-02-27 10:42:44,,city,"Belo Horizonte, Brasil",Brasil
84,34.916959000000006,31.332869,chanan paldi,230616601,2020-02-17 08:57:19,"Middle East, Far West",poi,Kibutz Cramim,Israel
85,12.473688000000001,41.877545,Barbie Latza Nadeau,23061674,2020-03-11 13:02:34,"Rome, Italy",poi,Nuovo Mercato di Testaccio,Italy
21,-47.6492,-22.7253,Luki,230616856,2020-02-18 19:02:38,,city,"Piracicaba, Brasil",Brasil
39580,-78.657837,35.8439815,Heather Rand,23061710,2020-03-14 23:19:23,"Raleigh, NC",city,"Raleigh, NC",United States
49,-80.297905,-0.9989024999999999,Kevin Chalco Mndez,2306171184,2020-02-15 20:38:47,Guayaquil - Ecuador,city,"Portoviejo, Ecuador",Ecuador
91,36.793762,-1.209853,Felistar,2306171611,2020-03-10 14:13:10,"Nairobi, Kenya",poi,Two Rivers Mall,Kenya
43620,-96.7311425,43.5410145,patty meyer,230617167,2020-03-17 12:51:49,,city,"Sioux Falls, SD",United States
171,121.174816,14.067509,joji,2306171671,2020-03-03 13:49:41,agartha,city,"Santo Tomas, Calabarzon",Republic of the Philippines
200,30.654241,36.899049,EMN ama deil,2306171791,2020-02-24 09:02:41,Antalya Hatay ,poi,Akdeniz niversitesi,Trkiye
205,-0.3922755,51.6680785,GJ,23061722,2020-03-21 23:45:11,"Watford, England",city,"Watford, East",United Kingdom
51,-6.579388000000001,52.4597335,Ruth,23061723,2020-02-17 21:42:08, Ireland,city,"Wexford, Ireland",Ireland
23420,-119.617745,36.5794135, ,2306173010,2020-03-27 05:09:50,,city,"Selma, CA",United States
119,-99.16322,19.428151,od,230617340,2020-02-22 18:51:09,memxico,neighborhood,"Jurez, Cuauhtmoc",Mxico
31080,-118.181482,34.231116,Miko,2306174161,2020-03-24 04:49:24,snapchat: omgitsmiko,poi,Angeles Crest Highway,United States
191,6.6335,46.5198,Nour Mousa,230617467,2020-04-20 11:52:02,,city,"Lausanne, Switzerland",Switzerland
88,135.502204,34.7003735,,2306175685,2020-02-14 03:18:42,,city,  ,
82,73.97980749999998,18.578395999999998,Shrikant Bhosle,2306175799,2020-03-21 03:45:58,"Pune, India",neighborhood,"Wagholi, Haveli",India
178,31.006542,-29.701609,Taylor'd,2306176660,2020-02-14 05:12:49,Durban ,city,"Phoenix, South Africa",South Africa
186,-5.6919445,43.509797,Dani,2306177325,2020-04-11 19:45:43,,city,"Gijn, Espaa",Espaa
21,-35.003737,-8.1485835,Salah tiel ,230617772,2020-02-14 02:43:18,Norte da Muralha,city,"Jaboato dos Guararapes, Brasil",Brasil
205,-3.4060474999999997,51.7630465,tommy basso,2306177771,2020-02-16 00:50:37,Merthyr  beach,city,"Cefn-Coed-y-Cymmer, Wales",United Kingdom
33100,-80.24977249999999,26.270261,Gail Siminovsky,23061779,2020-03-19 20:19:17,,city,"Coral Springs, FL",United States
82,85.10203849999998,25.569474,amit kumar,2306178769,2020-02-26 06:29:57,,city,"Patna, India",India
16860,-85.14184599999999,34.91288,David Tyer,23061791,2020-02-15 21:09:08,"Ringgold, GA",city,"Ringgold, GA",United States
186,-3.68333,40.4,Luis Del Barrio,2306179533,2020-02-27 13:20:55,Madrid,city,"Madrid, Espaa",Espaa
82,74.5107235,26.4454915,deepak bamnavat,2306179718,2020-03-04 08:35:00,"Ajmer, India",city,"Ajmer, India",India
28140,-94.702325,39.202492,Greg Stewart,23061798,2020-02-14 02:33:41,"Parkville, MO",city,"Parkville, MO",United States
88,139.49468050000002,35.628459,A_Kakko_C,2306179928,2020-02-28 11:46:47,Nippon,city, ,
25540,-72.7502315,41.762317,Emma Tattenbaum-Fine,230618065,2020-02-14 15:10:34,,city,"West Hartford, CT",United States
14860,-73.396371,41.46737,Emma Tattenbaum-Fine,230618065,2020-02-22 15:42:08,,city,"Brookfield, CT",United States
25540,-72.7502315,41.762317,Emma Tattenbaum-Fine,230618065,2020-03-05 16:25:11,,city,"West Hartford, CT",United States
35620,-73.9487755,40.655138,Emma Tattenbaum-Fine,230618065,2020-03-13 04:29:10,,city,"Brooklyn, NY",United States
19100,-96.823588,33.069656,Boyd Kirk,230618198,2020-03-08 01:37:09,"Marietta, Ohio /Akron, Ohio",poi,Courtyard Dallas Plano in Legacy Park,United States
37980,-74.85533249999999,40.157637,Kate O'Brien,23061823,2020-02-15 03:37:18,"Levitttown, PA",city,"Levittown, PA",United States
159,-57.60601750000001,-25.300264000000002,Liz Fernndez,230618271,2020-02-14 17:32:47,Paraguay,city,"Asuncion, Paraguay",Paraguay
19820,-83.09027608,42.56536555,a BOX,230618519,2020-02-20 16:00:27,"Arlington Heights, IL",city,"Troy, MI",United States
16980,-87.9803,42.1125,a BOX,230618519,2020-04-28 14:43:16,"Illinois, USA",city,"Arlington Heights, IL",United States
19820,-83.47139071,42.45497781,a BOX,230618519,2020-05-24 05:07:20,"Illinois, USA",city,"Novi, MI",United States
16980,-87.9803,42.1125,a BOX,230618519,2020-06-03 01:43:48,"Illinois, USA",city,"Arlington Heights, IL",United States
222,106.81804,-6.22084,Milenia Arneta,2306186282,2020-05-07 06:51:50,Indonesia,city,"Setia Budi, Indonesia",Indonesia
85,10.121545,44.080443,Lore Betti,2306186392,2020-03-13 17:21:41,,poi,"Parco del Vignale, Bedizzano",Italia
200,29.096246,37.7721435,ahmet akman,2306188819,2020-03-25 18:29:46,,city,"Denizli, Trkiye",Trkiye
21,-47.796623,-15.776254000000002, Vini ,2306189002,2020-03-12 12:31:05,"Gama, Braslia",city,"Braslia, Brasil",Brasil
88,144.09443950000005,43.1873495,WAIWAI,2306189197,2020-03-06 06:28:48,,city, ,
205,-3.1682745,55.8584405,Abby,2306190041,2020-02-14 11:39:18,"Edinburgh, Scotland",city,"Roslin, Scotland",United Kingdom
82,73.158109,19.243831,Ashok Prajapat,2306190404,2020-03-27 17:14:34,current - mumbai belong-nagaur,poi,Shahad Railway Station,India
31080,-118.39130700000001,34.145115000000004,Lori Davisson,2306190612,2020-03-11 16:03:24,cali,poi,CBS Studio Center,United States
186,-3.7035075,40.4777945,Jos Luis Garca,230619130,2020-02-17 15:17:25,el mundo mundial,city,"Madrid, Espaa",Espaa
119,-99.208364,19.199485,Jos Luis Garca,230619130,2020-02-23 15:22:55,el mundo mundial,city,"Tlalpan, Distrito Federal",Mxico
21,-46.576471000000005,-23.512071,jennifer vitria,2306193064,2020-02-18 04:08:41,"Vila Maria, So Paulo",neighborhood,"Vila Maria, So Paulo",Brasil
85,12.4994099,41.8992999,Charlie Marban,2306193535,2020-03-02 06:53:53,Mexico,city,"Roma, Lacio",Italia
65,6.1799235,47.4119305,Leidan,2306193743,2020-04-22 07:18:52,Blarians,city,"Blarians, France",France
171,124.28305258,12.47774176,Ruffa Ann C. Lozada,2306194207,2020-02-18 03:11:29,"Bohol, Philippines",city,"Allen, Eastern Visayas",Republic of the Philippines
222,119.817227,-0.8694395,AGFINIA HARDIYANTI PUTRI DJAINI,2306195521,2020-02-15 06:34:17,sulawesi tengah (PALU) ,city,"Palu Barat, Indonesia",Indonesia
16980,-88.14251150000003,41.519556,Pizza Jabroni,230619610,2020-02-15 01:48:05,815,city,"Joliet, IL",United States
38300,-80.035332,40.3233915,Jeff Hartman,2306197289,2020-03-02 22:31:51,South Hills Pittsburgh,city,"Bethel Park, PA",United States
82,88.352242,22.6127055,kanchan kumar sharma,2306197890,2020-02-26 13:31:40,", ",city,"Kolkata, India",India
205,-0.29743,51.514752,Steve Conway,23061979,2020-03-20 19:00:00,London,city,"Ealing, London",United Kingdom
120,101.63468,3.086566,A,2306198215,2020-05-17 16:30:28,"Istanbul, Turkey",poi,Sapura,Malaysia
175,50.17973063,26.30114788,SDK | 24,2306198277,2020-02-21 17:07:09,,city,"Al Khobar, Kingdom of Saudi Arabia",Kingdom of Saudi Arabia
82,78.424141,17.454225,Vishweswara Reddy,2306198480,2020-06-11 06:40:45,"Vancouver, British Columbia",poi,Motinagar Cross Roads,India
18140,-82.985772,39.9946835,sarah jean won,23061990,2020-02-17 02:27:26,"columbus, ohio",city,"Columbus, OH",United States
21,-46.5955455,-23.682803,Cresio Adolfo Gaspar Kizua,2306200119,2020-05-07 13:41:13,"So Paulo, Brasil",city,"So Paulo, Brasil",Brasil
21,-45.886654799999995,-23.2408213,Elen Sarmento,230620012,2020-05-01 00:28:13,Brasil,city,"So Jos dos Campos, Brasil",Brasil
19820,-83.0294735,42.480204,Brandon A. Jessup,23062002,2020-02-16 03:01:37,"T: 42.420336,-83.177523",city,"Center Line, MI",United States
47900,-77.0143985,38.898603,Brandon A. Jessup,23062002,2020-03-10 18:34:47,"T: 42.420336,-83.177523",city,"Washington, DC",United States
19820,-83.099288,42.3527865,Brandon A. Jessup,23062002,2020-03-12 19:35:56,"T: 42.420336,-83.177523",city,"Detroit, MI",United States
73,25.4182165,37.061689,omar elabd,2306200943,2020-03-09 20:17:08,", ",city,", ",
88,139.4778055,35.6732445,,2306201108,2020-04-11 11:15:21,,city, ,
152,4.762123,52.30857,The Mic High Club Luchtvaart Podcast,2306201538,2020-04-11 20:21:57,"Amsterdam, The Netherlands",poi,Amsterdam Airport Schiphol (AMS),Nederland
31080,-118.34613799999998,33.914068,The Mic High Club Luchtvaart Podcast,2306201538,2020-04-30 12:37:03,"Amsterdam, The Netherlands",city,"Hawthorne, CA",Verenigde Staten
152,4.904053500000001,52.354728,The Mic High Club Luchtvaart Podcast,2306201538,2020-05-08 12:11:35,"Amsterdam, The Netherlands",city,"Amsterdam, Nederland",Nederland
222,98.8944315,2.2978120000000004,The Mic High Club Luchtvaart Podcast,2306201538,2020-05-28 13:55:55,"Amsterdam, The Netherlands",city,"Muara, Indonesia",Indonesi
152,4.762123,52.30857,The Mic High Club Luchtvaart Podcast,2306201538,2020-06-08 14:57:24,"Amsterdam, The Netherlands",poi,Amsterdam Airport Schiphol (AMS),Nederland
88,139.72786000000002,35.588413,@4/30,2306201568,2020-02-14 09:20:03,,city, ,
88,140.368221,40.224412,,2306201754,2020-02-17 05:10:33,,poi, ,
16980,-87.67399833,41.88059904,Gordy Andina,230620206,2020-02-15 01:58:00,Chicago,city,"Chicago, IL",United States
222,106.950601,-6.698946,Abyano fitra,2306202168,2020-03-14 23:40:23,,poi,Hotel Seruni Gunung Salak 3,Indonesia
205,-2.1556405,53.41460849999999,Meg,23062022,2020-02-14 06:31:09,"In a Galaxy far, far away.",city,"Stockport, England",United Kingdom
16980,-87.42334349999999,41.536554,Ashley Bryant,230620251,2020-02-14 18:42:25,"Hobart, Indiana.",city,"Griffith, IN",United States
135,6.1358045,49.607906,Ana Diaz,2306203082,2020-02-14 15:48:34,Luxembourg,city,Luxembourg,Luxembourg
128,4.375468,50.855017,Ana Diaz,2306203082,2020-02-18 12:03:57,Luxembourg,city,"Brussel, Belgi",Belgi
135,6.1358045,49.607906,Ana Diaz,2306203082,2020-02-26 14:13:20,Luxembourg,city,Luxembourg,Luxembourg
88,139.81811188,35.67584849,Fish & Bird,2306203106,2020-02-17 12:37:45,7-4-12,city, ,
21,-43.018208,-22.821465,machado,2306203138,2020-02-17 14:14:59,"Rio de Janeiro, Brasil",city,"So Gonalo, Brasil",Brasil
88,135.8920905,34.6579675,,2306203177,2020-02-14 01:39:26,,city, ,
14460,-70.866322,42.788344,Mike Doyle,2306207211,2020-04-28 21:32:17,"Newbury, Massachusetts",city,"Newbury, MA",United States
88,139.734723,35.61306000000001,,2306210360,2020-02-22 08:35:57,,city, ,
82,75.96818400000002,22.6714825,Rupesh Kumar Asati,2306211085,2020-03-12 02:00:05,Indore ,city,"Indore, India",India
21,-43.57556057,-22.92662604,Gustavo Ranhada,2306211741,2020-03-10 13:56:50,Rio de Janeiro,city,"Rio de Janeiro, Brasil",Brasil
222,106.88827808,-6.24578914,HIPMI,230621207,2020-02-19 08:20:41,Indonesia,city,"Makassar, Indonesia",Indonesia
119,-99.1158905,19.518656,   ,230621321,2020-02-15 04:25:46,"P SHERMAN C, WALLABY42, SYDNEY",city,"Gustavo A. Madero, Distrito Federal",Mxico
21,-44.9367105,-20.113882999999998,Guilherme Henrique,230621322,2020-03-23 15:14:54,,city,"Divinpolis, Brasil",Brasil
88,139.80232281,35.72578233,93,230621349,2020-02-29 08:42:08,,city,"Taito-ku, Tokyo",Japan
21,-43.180352,-22.913272,Bea,2306213771,2020-02-25 03:36:45,"Rio de Janeiro, Brazil",poi,Arcos da Lapa,Brasil
71,11.5417535,48.154879,Hans-Joachim Kleist,23062138,2020-05-15 17:43:04,Munich - Germany,city,"Munich, Germany",Germany
88,135.8920905,34.6579675,,2306214103,2020-03-28 13:11:48,,city, ,
35620,-74.67867700000001,41.0216105,Dario,2306214471,2020-05-31 22:34:35,,city,"Lake Mohawk, NJ",United States
222,110.79426940000002,-7.5649288,   ,2306215057,2020-03-07 02:25:56,"Baki, Indonesia",city,"Laweyan, Indonesia",Indonesia
193,100.5835805,13.752507000000001,Pum_Wink^^,230621550,2020-02-25 08:08:57,,city,"Bang Kapi, Thailand",Thailand
200,36.3406495,41.31315100000001,Bra Azra Aksu,2306216478,2020-03-23 12:33:16,"Samsun, Trkiye",city,"Samsun, Trkiye",Trkiye
96,48.203369,28.920671000000002,M,2306216487,2020-02-25 16:05:04,April,poi,Dubai'ya 233, 
200,29.0052225,41.0213205,Esma Karak,2306217382,2020-02-14 05:59:01,istanbul,city,"stanbul, Trkiye",Trkiye
82,88.39149300000001,23.602126000000002,Arnab,2306217938,2020-05-23 02:12:32,India,poi,Bethuadahari,India
96,48.032672,29.318847,KHALED,2306218309,2020-05-20 08:10:34, ,city,",  ", 
222,105.2981605,-5.413976,Mutia Anisya Putri,230621897,2020-02-25 08:50:19,,city,"Tanjung Karang Timur, Indonesia",Indonesia
88,137.3108565,35.140860499999995, ,2306219460,2020-02-24 09:21:48,,city, ,
82,78.5982595,17.365102999999998,Venkateswara Prasad,2306221358,2020-03-21 04:24:09,"Hyderabad, India",city,"Hayathnagar, India",India
88,139.77286683,35.68773386,,2306223708,2020-02-15 08:17:28,,city, ,
12580,-76.62048200000002,39.284713,,2306223724,2020-04-13 19:17:51,"Baltimore, MD",city,"Baltimore, MD",United States
222,116.898427,-1.2619120000000001,Yossi Ardianto,230622523,2020-02-18 08:52:41,"Malang, Jawa Timur",poi,"Sepinggan International Airport, Balikpapan, Kalimantan Timur",Indonesia
152,4.5197745000000005,51.589828999999995,alfachirurg,2306225338,2020-05-29 10:49:01,"St. Willebrord, Netherlands",city,"Halderberge, Nederland",Nederland
16740,-80.8467855,35.209059,Nannette DePraeter,23062258,2020-04-15 01:29:31,"Charlotte, NC",city,"Charlotte, NC",United States
222,98.686619,3.6302485,Dinda Natasya Harahap,2306226427,2020-03-06 13:38:36,,city,"Medan Timur, Indonesia",Indonesia
171,121.13923859,14.22804517,Hannah Cuevas,2306226541,2020-02-25 12:47:10,"cab.city,philippines",city,"Calamba City, Calabarzon",Republic of the Philippines
38,-74.24367099999999,4.2622835,barbas,230622712,2020-02-14 14:17:22,"Bogot, D.C., Colombia",city,"Bogot, D.C., Colombia",Colombia
200,36.053696,35.906081,Sena,2306227608,2020-05-28 13:38:05,Antakya / stanbul,poi,Yaylada,Trkiye
41740,-117.2879235,33.121483999999995,Robert Johnson,230622818,2020-05-12 02:39:25,"Encinitas, CA",city,"Carlsbad, CA",United States
35620,-73.9685415,40.780709,Donna Pappalardo,23062285,2020-03-28 03:28:32,New York,city,"Manhattan, NY",United States
151,3.3180660000000004,6.590611,Israel Bryan,230622998,2020-02-26 18:00:42,"T: 6.6174,3.31423",city,"Ikeja, Nigeria",Nigeria
119,-100.44059449999999,20.7152745,Adolfo Burgos,230623065,2020-02-14 14:35:59,MEXICO,city,"Quertaro, Quertaro Arteaga",Mxico
178,30.879156,-30.0474875,SANDA NGCOBO,2306231967,2020-02-15 10:09:18,"Durban, South Africa",city,"Amanzimtoti, South Africa",South Africa
88,139.71666854,35.60646847,,230623215,2020-02-14 13:55:20,,city, ,
65,2.4679775,48.208293,careco,2306232505,2020-03-14 17:31:58,puiseaux,city,"Puiseaux, France",France
17420,-84.86635000000003,35.193335999999995,Darlene Childs,2306232981,2020-03-19 15:58:50,,city,"Cleveland, TN",United States
51,-6.815333,53.15480650000001,Anna Rose,2306233305,2020-03-09 20:59:21,"Donegal, Ireland",city,"Kildare, Ireland",Ireland
193,100.930769,13.27953,,230623434,2020-02-16 06:36:21,,poi,Aholic,
48900,-77.8991,34.3564,Robert Rangel,2306234772,2020-03-18 19:49:46,North Carolina ,city,"Castle Hayne, NC",United States
34820,-78.68111111,33.82222222,Robert Rangel,2306234772,2020-05-16 16:33:52,North Carolina ,city,"North Myrtle Beach, SC",United States
205,-1.2334334999999998,51.75428599999999,Jade,23062361,2020-02-16 06:25:32,Oxford,city,"Oxford, England",United Kingdom
200,27.031678000000003,38.394966,ske,2306236778,2020-02-16 20:35:10,"zmir, Trkiye",poi,Dokuz Eyll niversitesi,Trkiye
205,-2.366933,51.3796495,jim,23062375,2020-03-13 22:57:53,,city,"Bath, England",United Kingdom
88,143.057549,44.526804999999996,,230623810,2020-03-06 00:35:35,,poi,,
205,-1.385366,54.89924250000001,junegrimes,23062386,2020-05-25 12:09:34,,city,"Sunderland, England",United Kingdom
12060,-84.394901,33.763186,Armani ,230623866,2020-02-19 00:40:12,"Atlanta, GA",poi,Georgia Aquarium,United States
19100,-97.1356375,32.70185,Gregg Teal,23062405,2020-03-10 03:24:47,"Arlington, TX",city,"Arlington, TX",United States
12580,-76.61518050000002,39.396352,APRIL12TH,2306241292,2020-03-03 20:35:58,,city,"Towson, MD",United States
47900,-76.8310745,38.7848495,APRIL12TH,2306241292,2020-03-17 09:07:40,,city,"Rosaryville, MD",United States
12580,-76.61518050000002,39.396352,APRIL12TH,2306241292,2020-03-19 19:59:58,,city,"Towson, MD",United States
47900,-76.8310745,38.7848495,APRIL12TH,2306241292,2020-03-20 04:07:45,,city,"Rosaryville, MD",United States
71,9.214592,48.6593905,rpd Bnki,2306241326,2020-05-14 18:08:30,,city,"Filderstadt, Deutschland",Deutschland
222,106.802654,-6.21858,VKTH,2306241354,2020-02-15 14:26:09,Indonesia,poi,Stadion Utama Gelora Bung Karno (GBK),Indonesia
222,101.4299,0.4916,Gunawan Setia,2306241720,2020-03-04 11:48:24,Indonesia,city,"Sukajadi, Indonesia",Indonesia
242,120.612349,22.973791000000002,ica,2306242004,2020-03-30 08:14:51,mars,city,", ",
39300,-71.43666999999998,41.698940500000006,Tom,2306242373,2020-05-20 01:20:23,RI,city,"Warwick, RI",United States
88,139.55705276,35.57774826,=,2306242603,2020-03-15 09:08:22,,city,  ,
200,29.0052225,41.0213205,HTLAL,2306242637,2020-04-05 01:36:23,"Ataehir, stanbul",city,"stanbul, Trkiye",Trkiye
152,4.643011,52.38379000000001,Danielle Lakeman,23062434,2020-02-26 20:31:46,"Haarlem, Nederland",city,"Haarlem, Nederland",Nederland
13820,-86.79951176,33.3691085,Lauren Dressback,230624522,2020-02-15 02:37:28,,city,"Hoover, AL",United States
46220,-87.53873,33.20635,Lauren Dressback,230624522,2020-02-18 14:53:53,,city,"Tuscaloosa, AL",United States
13820,-86.80603,33.38791,Lauren Dressback,230624522,2020-03-19 20:24:51,,city,"Hoover, AL",United States
11500,-85.82785707,33.60641687,Lauren Dressback,230624522,2020-04-26 21:50:34,,city,"Oxford, AL",United States
13820,-86.741158,33.4513005,Lauren Dressback,230624522,2020-05-05 13:59:09,,city,"Vestavia Hills, AL",United States
10700,-86.2113,34.2654,Lauren Dressback,230624522,2020-05-17 00:21:29,,city,"Albertville, AL",United States
13820,-86.760091,33.385555,Lauren Dressback,230624522,2020-05-20 02:32:28,,city,"Hoover, AL",United States
11700,-82.56700749999999,35.539072499999996,Donnie Pratt,230624566,2020-03-20 05:37:08,"West Asheville, NC",city,"Asheville, NC",United States
8,-65.905862,-47.754135999999995,Ulises Santana,230624679,2020-02-28 05:24:06,Puerto Deseado,poi,Puerto Deseado,Argentina
222,104.585697,-3.36499,Putri Nurroliza AR,2306247043,2020-03-29 15:19:42,Pintu Air 10,city,"Tanjung Batu, Indonesia",Indonesia
21,-51.1593095,-30.099836,desordem em progresso,2306247060,2020-05-27 18:03:04,"Porto Alegre, Brazil",city,"Porto Alegre, Brazil",Brazil
26420,-95.18276,29.665736,Sue Bingham,23062490,2020-03-01 14:45:29,,poi,Golden Corral,United States
186,-4.566669999999999,36.6,Uncooked Culture,230624959,2020-03-12 00:45:19,"Marbella, Spain",city,"Benalmdena, Spain",Spain
14460,-70.683829,41.9315925,W,2306250827,2020-02-26 23:00:38,Boston,city,"Plymouth, MA",United States
40140,-116.237907,33.7446325,ADT ,230625126,2020-04-02 07:14:56,"Coachella, CA",city,"Indio, CA",United States
88,135.18948278,34.69171988,,230625307,2020-05-25 02:34:27,,city,  ,
205,-2.25425449,53.47833458,Kate Park Events,2306253282,2020-02-26 16:34:25,Manchester,city,"Manchester, England",United Kingdom
82,76.8672545,30.2531265,abhijit,2306255622,2020-04-05 16:08:06,,city,"Ambala, India",India
171,121.0311415,14.7108935,VJ,230625643,2020-02-16 05:15:51,Somewhere in Northern Italy,city,"Caloocan City, National Capital Region",Republic of the Philippines
119,-86.8257,21.1635,Anayeli Gonzalez,230625646,2020-05-09 05:52:40,"Quintana Roo, Mxico",city,"Benito Jurez, Quintana Roo",Mxico
41860,-122.43597849999999,37.7706565,,2306257147,2020-02-15 02:58:36,The Dungeon ,city,"San Francisco, CA",United States
41940,-121.8737305,37.331159,,2306257147,2020-02-15 20:25:54,The Dungeon ,city,"San Jose, CA",United States
41500,-121.3226155,36.4280555,,2306257147,2020-03-08 00:34:16,The Dungeon ,city,"Soledad, CA",United States
152,5.905406,52.551141,Douwe van Urk,2306257234,2020-04-25 15:17:43,Kampen,city,"Kampen, Nederland",Nederland
14460,-70.973641,42.5325755,Audrey Palmer,23062575,2020-02-21 04:50:19,Peabody,city,"Peabody, MA",United States
9,152.9931965,-27.382143,Sandro Rodriguez,2306257518,2020-02-18 07:53:30,,city,"Brisbane, Queensland",Australia
222,106.9260075,-6.377322,Iwan Indriawan,230625803,2020-06-03 12:14:19,Indonesia,city,"Gunung Putri, Indonesia",Indonesia
33100,-80.14917249999999,26.150368,Peter Sangkhamanon,230625816,2020-03-09 00:16:25,Thailand,city,"Fort Lauderdale, FL",United States
186,-6.206364,36.460547999999996,Suso Fernndez,2306258595,2020-03-09 19:41:22,,poi,"Campo De Futbol ""Bazan""",Espaa
65,2.347003,48.8588335,Philippe Alezard,2306259749,2020-02-14 08:01:33,,city,"Paris, France",France
186,-1.6681225,38.030487,Falco,2306260266,2020-03-05 09:53:54,"Alicante, Espaa",city,"Bullas, Espaa",Espaa
8,-58.4397,-34.6089,Natalia Muti,230626030,2020-04-03 01:19:49,CABA,city,"Ciudad Autnoma de Buenos Aires, Argentina",Argentina
178,27.968098,-26.2761385,Mpho Sebotsa,2306260545,2020-03-03 17:06:17,"South Africa, Johannesburg",city,"Johannesburg, South Africa",South Africa
49700,-121.6289255,39.121659,Mara,230626068,2020-03-10 02:41:32,,city,"Yuba City, CA",United States
65,2.344635,48.818919,CROS le-de-France,2306262664,2020-02-21 15:44:51,"Ile-de-France, France",poi,Comit National Olympique et Sportif Franais,France
8,-64.1980255,-31.4154565,AGUSSSTINA,2306262688,2020-04-02 04:28:16,,city,"Crdoba, Argentina",Argentina
205,-1.53142,52.2932625,Sossie-Liz,23062631,2020-02-27 21:31:21,Warwickshire,city,"Leamington Spa, England",United Kingdom
88,140.084546,36.092128,,2306263273,2020-05-23 11:48:03,,city, ,
47260,-76.255686,36.895082,Zach Knight,230626422,2020-04-26 14:44:47,"Virginia Beach, VA",city,"Norfolk, VA",United States
9,144.369464,-38.132401,MK,230627039,2020-03-10 11:35:32,Tiruvallur/Chennai/Melbourne,city,"Geelong, Victoria",Australia
200,38.3631535,38.329569000000006,Z'Yusuf ZDEMR,2306270627,2020-02-15 07:07:37,"Kahramanmara, Trkiye",city,"Malatya, Trkiye",Trkiye
178,27.9574575,-26.0197195,Gerhard,230627096,2020-05-12 23:57:10,Fourways ,city,"Randburg, South Africa",South Africa
82,77.2753767,28.387478299999998,Anil Kapasia,2306272512,2020-04-05 15:52:15,Faidabad,city,"Faridabad, India",India
119,-103.4847745,20.790657000000003,Grb78,230627313,2020-02-21 15:26:08,Gdl.,city,"Zapopan, Jalisco",Mxico
205,0.10673699999999998,51.768264,James A. Bennett,2306273642,2020-05-28 18:32:16,United Kingdom,city,"Harlow, East",United Kingdom
186,-6.2715629999999996,36.492477,Ornella Sanz Moreno,2306274204,2020-06-10 06:55:56,Sevilla y Madrid,city,"Cdiz, Espaa",Espaa
200,35.458448499999996,38.7292675,Mustafa Bulut,2306276746,2020-02-21 14:20:33,,city,"Kayseri, Trkiye",Trkiye
88,139.797218,35.77808899999999,,2306276840,2020-03-06 09:59:46, ,city, ,
47580,-83.641199,32.58263,Liberty,2306278367,2020-04-17 23:55:38,"Georgia, USA",city,"Warner Robins, GA",United States
88,138.88368450000002,37.443303,koto,2306279066,2020-02-19 11:44:07,,city, ,
47900,-77.0143985,38.898603,nica louie,230628000,2020-05-13 14:01:51,Washington D.C.,city,"Washington, DC",United States
152,4.904053500000001,52.354728,Pedro Pinto,2306281370,2020-03-03 09:10:22,"Lisboa, Portugal",city,"Amsterdam, Nederland",Nederland
164,-9.159995,38.743614,Pedro Pinto,2306281370,2020-04-30 13:27:06,"Lisboa, Portugal",city,"Lisboa, Portugal",Portugal
222,95.24400004,5.45477851,Muhammad Arifin,230628190,2020-02-16 13:07:10,Kuala Lumpur Malaysia,city,"Lhonga Leupung, Indonesia",Indonesia
28260,-99.14465,40.703555,Yennykate,2306282295,2020-04-05 06:12:23,"Nebraska, USA",poi,Cottonmill Park,United States
82,74.736304,34.177133999999995,Imtyaz Ali Khan,230628300,2020-04-03 06:48:54,"Kathwar, Budgam J & K",city,"Baramula, Jammu And Kashmir",
88,139.80211050000003,35.83833950000001,yuu,2306283222,2020-02-16 00:16:57,,city, ,
205,-2.3158515,51.230733,Elliot Gallagher,2306284512,2020-05-13 16:40:58,London,city,"Frome, England",United Kingdom
222,112.671043,-7.371628,Ratih Putri,2306285209,2020-05-27 15:54:57,"Ponorogo, East Java",city,"Taman, Indonesia",Indonesia
8,-62.05573149999999,-38.8726535,Lucas fernandez,230628541,2020-02-15 02:15:04,Argentina,city,"Coronel de Marina Leonardo Rosales, Argentina",Argentina
12060,-84.43310600000001,33.7671945,ARI,230628594,2020-06-05 02:00:37,ATL,city,"Atlanta, GA",United States
41860,-122.55543899999999,38.093358,DG Hadid,230628603,2020-05-20 15:56:53,,city,"Novato, CA",United States
16980,-87.732013,41.8335845,DG Hadid,230628603,2020-05-30 19:54:11,,city,"Chicago, IL",United States
14020,-86.53379100000001,39.170146,IU GPSG,23062862,2020-03-07 23:52:36,"Bloomington, IN",poi,Switchyard Brewing Company,United States
35620,-73.7919,40.6809,slimmy.,23062880,2020-05-11 10:39:45,Htx/Louisiana ,city,"Queens, NY",United States
82,77.3508815,28.3312135,Gajesh Sharma,2306288713,2020-05-09 06:46:27,Faridabad,city,"Faridabad, India",India
171,121.0069495,14.5328815,H ,2306288737,2020-02-16 08:14:34,Ph,city,"Pasay City, National Capital Region",Republic of the Philippines
222,106.83274716,-6.17846961, ,230628933,2020-04-19 09:35:20,Indonesia,city,"Gambir, Indonesia",Indonesia
119,-99.1332,19.4326,Roberto Pichardo,230629062,2020-05-23 00:55:51,,city,"Cuauhtmoc, Distrito Federal",Mxico
222,106.772434,-6.308435,Andrias Pratama,2306291396,2020-05-02 10:45:09,,poi,"DKS Motor, Yamaha Cirendeu.",Indonesia
205,-1.8906405,52.493966500000006,Saima,2306291926,2020-03-13 19:40:36,"South East, England",city,"Birmingham, England",United Kingdom
10,50.553119,26.102014,,2306296063,2020-03-05 13:35:31, ,poi,Coffee Republic, 
38,-75.6213205,6.130617,andres sanchez,230629697,2020-02-14 17:34:09,Medellin-colombia,city,"Sabaneta, Colombia",Colombia
82,73.87925999999999,29.896116999999997,Pawan Godara,2306297930,2020-05-09 05:35:17,Sri Ganganagr Rajasthan,neighborhood,"Model Town, Ganganagar",India
24,-122.7559695,49.251452,Ofir Vaisman (No Fear Counselling),2306298066,2020-02-26 17:41:07,"Vancouver, British Columbia",city,"Port Coquitlam, British Columbia",Canada
205,-2.1556405,53.41460849999999,hope ,2306299792,2020-02-16 13:08:58,"England, United Kingdom",city,"Stockport, England",United Kingdom
188,32.5450035,15.5244125,.,2306300718,2020-02-15 23:34:15,Sudan/DXB,city,Khartoum,
20260,-92.12284,46.7583345,Daniel Morrison,23063011,2020-02-15 16:08:23,"Duluth, MN",city,"Duluth, MN",United States
51,-6.1743985000000015,53.257282999999994,Angela Tynan,23063020,2020-02-14 10:54:38,"Dun Laoghaire-Rathdown, Ireland",city,"Dun Laoghaire-Rathdown, Ireland",Ireland
24,-63.1328,46.2357,Kulwinder Pal Singh Brar,2306302290,2020-02-29 01:26:39,"Toronto, Ontario",city,"Charlottetown, Prince Edward Island",Canada
69,-1.612222,6.693627,Girls Education Init,2306302459,2020-03-27 11:00:08,Ghana,city,"Kumasi, Ghana",Ghana
186,-3.7035075,40.4777945,Soledad Garca,2306302522,2020-02-29 22:26:01,,city,"Madrid, Espaa",Espaa
24,-80.4764035,43.430240000000005,Prit Joshi,230630291,2020-03-23 06:48:51,"Kitchener, Ontario",city,"Kitchener, Ontario",Canada
222,106.820819,-6.211664,she.,2306303454,2020-02-14 15:41:29,Indonesia,poi,Bank of China Limited (Jakarta Branch),Indonesia
14460,-71.0887125,42.3136695,Jean francis,2306303673,2020-03-02 11:25:31,"West Roxbury, Boston",city,"Boston, MA",United States
41180,-90.63551,38.76328,Susan Mcgowan,230630521,2020-03-05 21:31:13,"Saint Charles, Missouri",city,"Cottleville, MO",United States
8,-57.5814305,-38.01158750000001,analia mejias,2306305294,2020-02-26 20:25:03,Mar del Plata ,city,"Mar del Plata, Argentina",Argentina
12060,-84.3889,33.7566,BIG Rolex,230630574,2020-02-25 23:15:15,"Riverdale, Ga",city,"Atlanta, GA",United States
119,-99.125114,19.414452,Javier Nicanor Len,23063069,2020-06-11 06:06:01," Mxico, Spain ",poi,CDMX,Mxico
152,4.88541842,52.35995556,Wendy Mensink,2306307853,2020-02-24 14:54:28,Earth,city,"Amsterdam, Nederland",Nederland
65,6.1960495,49.1048085,Antoine Boilley,2306308162,2020-02-21 20:25:24,,city,"Metz, France",France
9,145.0531355,-37.9725665,Gin Atkins,23063103,2020-02-22 02:42:26,Melbourne,city,"Melbourne, Victoria",Australia
171,121.1242275,14.606717499999998,,2306310390,2020-02-16 13:12:00,"Cainta, Calabarzon",city,"Cainta, Calabarzon",Republic of the Philippines
82,80.26180550000002,13.024394500000001,MK - MukeshKanna,230631043,2020-02-21 07:23:56,"Chennai, India",city,"Mylapore Tiruvallike, India",India
193,100.7498725,13.7231215,peach,230631115,2020-05-13 09:57:40,thailand,city,"Lat Krabang, Thailand",Thailand
82,77.095086,28.638489500000002,Lalit Singh,230631143,2020-02-17 08:08:17,Delhi,city,"New Delhi, India",India
26900,-85.9500505,39.96376100000001,Na'Dria Dillard,230631182,2020-02-16 22:52:17,,city,"Fishers, IN",United States
65,2.3492,48.8573,Vincent Schoener,2306312515,2020-03-29 12:19:10,Paris,city,"Paris, France",France
151,3.3386055,6.4931125000000005,Pro House Painter ,2306312539,2020-03-06 13:51:03,"Lagos,nigeria",city,"Lagos, Nigeria",Nigeria
119,-86.8257,21.1635,J. Luis Gonzalez S.,23063132,2020-03-19 00:04:28,"Cancun, Quintana Roo",city,"Benito Jurez, Quintana Roo",Mexico
222,112.604371,-7.939374000000001,Soft Boy,230631340,2020-02-19 05:14:32,,poi,Dinoyo Residence,Indonesia
186,-4.6958085,37.4330375,Sergio Martn,2306314323,2020-03-01 20:26:01,,city,"Aguilar de la Frontera, Espaa",Espaa
191,7.238397999999999,46.140295,Stphane Favre,2306315206,2020-03-17 18:25:31,,city,"Riddes, Suisse",Suisse
82,76.792254,26.970621,waseem akram,2306315920,2020-04-29 08:40:45,,poi,mehndipur balaji,India
38900,-122.630908,45.536402,Capt. Josh,2306316061,2020-02-22 06:06:53,"Vancouver, WA",city,"Portland, OR",United States
186,-0.956809,37.632515999999995,citizenofnowhere esq,2306316289,2020-02-14 10:53:39,where we park it,city,"Cartagena, Spain",Spain
36540,-96.053431,41.275721,Amanda McHendry,230631682,2020-03-17 03:04:39,Omaha | Creighton University,city,"Omaha, NE",United States
88,139.521036,35.389254,,230631790,2020-03-14 02:35:51, ,poi,,
21,-60.692096,2.841324,Yasmini Marques,2306318087,2020-02-23 04:45:55,Boa Vista RR,poi,Check-in Gol,Brasil
205,1.3792345,51.2160255,Mick Van-Flanders,230631816,2020-02-22 11:58:36,deal kent,city,"Deal, England",United Kingdom
200,34.674335,37.97754000000001,ultrAslan Nide,2306318641,2020-02-14 20:04:03,#ultrAslan,city,"Nide, Trkiye",Trkiye
205,-3.5456950000000003,50.447559000000005,Sammy Donaldson,2306318699,2020-03-05 19:07:33,Devon,city,"Torbay, England",United Kingdom
193,98.968911,18.79172,SunDay ,2306319799,2020-02-20 17:21:58,"Chiang Mai, Thailand.",city,"Chiang Mai, Thailand",Thailand
171,122.94622450000001,14.112065,zel ,2306320056,2020-04-04 11:58:48,nard's heart ,city,"Daet, Bicol Region",Republic of the Philippines
37980,-75.1651,39.9527,URB4NRS,230632006,2020-05-30 02:37:22,Georgia,city,"Philadelphia, PA",United States
17980,-84.9404,32.4896,URB4NRS,230632006,2020-06-01 15:58:46,Georgia,city,"Columbus, GA",United States
36740,-81.4129,28.304000000000002,URB4NRS,230632006,2020-06-05 20:42:34,Georgia,city,"Kissimmee, FL",United States
37980,-75.1651,39.9527,URB4NRS,230632006,2020-06-07 18:22:58,Georgia,city,"Philadelphia, PA",United States
158,172.74586649999995,-43.6457815,R SRIDHAR,230632098,2020-03-04 22:34:41,Hyderabad,city,"Christchurch City, New Zealand",New Zealand
82,78.46509449999998,17.3886495,R SRIDHAR,230632098,2020-03-15 04:04:42,Hyderabad,city,"Hyderabad, India",India
171,123.85666501,9.64314933,R E I N C I L,2306321880,2020-02-15 09:26:02,"Antequera, Bohol, Philippines",city,"Tagbilaran City, Central Visayas",Republic of the Philippines
65,-0.6809689999999999,44.786063,madiba riddim,2306322594,2020-04-19 19:31:21,,city,"Pessac, France",France
205,-1.4707785,52.91553,Mobile Solutions UK,2306323422,2020-02-21 10:28:23,DERBY DE21 6EN 01332 290555,city,"Derby, England",United Kingdom
35380,-90.145794,29.962028999999998,Esther Gonzalez,230632369,2020-06-10 14:39:52,New Orleans,poi,Cath Lab,United States
82,81.624402,26.455312,ashid $haikh,2306324312,2020-04-16 20:54:49,"Mumbai, India",city,"Jagdishpur, India",India
173,52.400746500000004,55.7125645,Alexei Ledenev,23063249,2020-02-14 16:35:52,Nigeria with snow,city," , ",
222,110.29346000000001,-7.767519999999999,Alfi istichomah,230632528,2020-03-19 12:42:22,godean city YK,city,"Godean, Indonesia",Indonesia
38940,-80.3452625,27.300765000000002,Spud_23,2306325443,2020-04-15 16:48:56,"Port St Lucie, FL",city,"Port St Lucie, FL",United States
161,73.0768205,33.712430999999995,Sonia Emaan,2306327371,2020-02-15 17:13:27,"Islamabad, Pakistan",city,"Islamabad, Pakistan",Pakistan
175,46.685077,24.7219435,.,2306328021,2020-04-03 08:00:43,"Riyadh, Kingdom of Saudi Arabia",city,"Riyadh, Kingdom of Saudi Arabia",Kingdom of Saudi Arabia
21,-46.5955455,-23.682803,BP  Boletim do Paddock,230632828,2020-02-14 10:27:00,So Paulo - So Paulo - Brasil,city,"So Paulo, Brasil",Brasil
205,-2.23333,53.0833,Chris Bevington,2306328503,2020-02-23 10:05:32,Kidsgrove Stoke-on-Trent,city,"Kidsgrove, England",United Kingdom
71,9.745796,52.39273,Dilber Artuvan,2306328701,2020-02-14 22:25:01,"List, Hannover",poi,Moltkeplatz,Deutschland
24,-79.37953104,43.64949191,Adrian Alfonso,23063299,2020-02-19 22:50:44,Toronto,city,"Toronto, Ontario",Canada
65,2.347003,48.8588335,Spicy_NP,2306330623,2020-02-15 09:33:08,Paris,city,"Paris, France",France
186,2.006363,41.582976,Pere Moreno Garcia,2306330659,2020-06-06 14:13:27,,city,"Terrassa, Espanya",Espanya
205,-3.0394275,53.36269300000001,supertoffeejohn,2306330765,2020-03-26 12:57:29,liverpool,city,"Birkenhead, England",United Kingdom
88,139.815545,35.715131,(,230633163,2020-02-24 11:25:04,,city, ,
205,-3.46622109,50.68550767,Ned Hoste,23063317,2020-02-20 17:41:36,"York, England",city,"Topsham, England",United Kingdom
82,85.10203849999998,25.569474,Vivek Rajan,2306332266,2020-06-05 07:15:35,"Patna, India",city,"Patna, India",India
16980,-87.0569,41.4762,Anna Burke,23063330,2020-03-13 15:55:20,Northern IN/Southwest MI,city,"Valparaiso, IN",United States
205,0.7093,52.24992,Nigel,23063348,2020-02-14 20:05:48,"London, England",city,"Bury Saint Edmunds, England",United Kingdom
88,133.9455545,33.5830015,ARASHIC,2306334997,2020-02-21 22:55:56,,city, ,
200,32.5001298,37.86110434,Baki arlar,2306335078,2020-04-03 17:53:59,,city,"Konya, Trkiye",Trkiye
82,72.87424399999999,19.174139999999998,gaurav bajaj,230633751,2020-03-08 16:57:36,,city,"Mumbai, India",India
151,7.181069,9.1982875,Ahmad,2306340081,2020-04-12 08:53:52,"Suleja, Nigeria",city,"Suleja, Nigeria",Nigeria
113,-6.55511956,34.24254278,_rbrhl,230634062,2020-06-03 15:44:33,,city,"Kenitra, Reino de Marruecos",Reino de Marruecos
24,-97.1397,49.8873,Cassie,23063413,2020-04-20 22:16:02,"Winnipeg, Manitoba",city,"Winnipeg, Manitoba",Canada
28700,-82.5225815,36.512493,Roy Brown,230634133,2020-04-19 23:57:41,Kingsport,city,"Kingsport, TN",United States
82,76.30890600000001,10.902714,Ananthan Thootha,2306341362,2020-02-16 19:26:23,Cherpulassery,poi,Karalmanna,India
175,46.0327485,28.350082500000003, ,2306341571,2020-04-25 19:51:51,,city," ,   ",  
65,2.2429315,48.83745500000001,frederic petit,2306342530,2020-02-28 13:56:07,France,city,"Boulogne-Billancourt, France",France
191,6.5509955,46.7226095,Johann,2306343641,2020-05-31 14:14:19,,city,"Orbe, Suisse",Suisse
119,-99.2115105,19.4299345,Alberth Stev,230634365,2020-02-25 05:22:42,,city,"Miguel Hidalgo, Distrito Federal",Mxico
205,1.14735895,52.06036501,Sarah Lilley,2306344044,2020-02-23 13:14:15,"Ipswich, Suffolk",city,"Ipswich, England",United Kingdom
47900,-76.91072550000001,38.9908985,quarantined cliff,2306344388,2020-04-08 15:39:37,"Washington, DC",city,"Berwyn Heights, MD",United States
35620,-74.5582155,40.8207125,Berto,230634466,2020-05-11 00:47:21,"New Jersey, USA",city,"Randolph, NJ",United States
47900,-77.0143985,38.898603,DEEpPM,230634651,2020-03-16 06:41:11,"Washington, DC",city,"Washington, DC",United States
178,29.909702000000003,-23.031889000000003,BOETJIE,2306346615,2020-03-27 18:05:13,polokwane,poi,139 on Munnik,South Africa
222,110.7631315,-7.5085655,Willy Wonka,2306347958,2020-04-02 14:43:42,Indonesia,city,"Ngemplak, Indonesia",Indonesia
85,11.8792899,45.41686,marcopagliai,2306350646,2020-02-16 19:59:07,"contr Santa Corona, Vicenza",city,"Padova, Veneto",Italia
71,9.766518,48.999808,Vogel,23063508,2020-03-14 21:55:09,"Gaildorf, Deutschland",city,"Gaildorf, Deutschland",Deutschland
119,-99.134141,19.407203,Tania Ulibarri,230635128,2020-04-22 17:25:57,,poi,Registro Agrario Nacional,Mxico
36740,-81.2664,28.8123,    ,230635278,2020-02-14 21:11:38,FL. ,city,"Sanford, FL",United States
82,85.797602,20.283585000000002,PRABODH Self Quarantined,230635284,2020-04-18 19:10:27,cuttack,poi,SUM Hospital,India
222,112.608575,-7.989708500000001,dony,230635291,2020-03-07 07:12:46,"Malang, Jawa Timur",city,"Sukun, Indonesia",Indonesia
200,36.096769,36.251515999999995,Doru,2306353526,2020-02-28 15:21:44,"Hatay Merkez, Hatay",poi,Kisecik,Trkiye
119,-88.40103483,18.65907576,Patrick_RapDeIdeas,230635380,2020-03-02 19:48:53,Cancun,city,"Othn P. Blanco, Quintana Roo",Mxico
173,37.42764250000001,55.7547875,natalie,2306354494,2020-02-15 17:59:45,", ",city,", ",
222,119.651932,-3.806532,Clark Joseph Kent,230635490,2020-03-30 10:02:16,"East Borneo, Indonesia",poi,The M Hotel Pinrang,Indonesia
119,-99.219767,19.314488,Switch,230635491,2020-03-08 03:16:41,Mexico,poi,Artz Pedregal,Mxico
91,39.6538235,-0.45353649999999995,Ayuka Charles,2306355180,2020-04-07 09:09:50,"Nairobi, Kenya",city,"Garissa, Kenya",Kenya
31420,-83.65407950000001,32.8488175,Patty Wilson,23063553,2020-03-12 16:19:33,"Hawkinsville, Ga.",city,"Macon, GA",United States
36740,-81.3677725,28.5016785,alma,2306356674,2020-03-03 23:15:55,,city,"Orlando, FL",United States
120,100.3957365,5.726291000000001,kazama,2306356741,2020-02-15 22:09:52,Pluto,city,"Merbok, Kedah",Malaysia
21,-48.1081725,-23.6348825,Pelife Trocas,23063572,2020-02-14 00:20:56,,city,"Itapetininga, Brasil",Brasil
9,150.520139,-23.339473,ellie.m,2306357359,2020-06-05 10:43:59,"Rockhampton, Queensland",city,"Rockhampton, Queensland",Australia
21,-34.939349,-8.043603,Natlia,2306358156,2020-05-11 16:14:54,"Recife, Brasil",city,"Recife, Brasil",Brasil
21,-48.45979749999999,-1.2729295,"Val, o Pescador",230635843,2020-02-16 03:50:21,"Belm, Brasil",city,"Belm, Brasil",Brasil
175,40.4908105,21.38543,   ..,2306360295,2020-05-15 16:43:13,,city,",   ",  
88,141.32191799999998,43.04011,susumu matsuura  ,230636105,2020-03-27 11:28:22,,poi,,
35620,-74.55480850000002,40.68479,Ralph DiMeo,23063613,2020-03-22 11:57:04,"New Jersey, USA",city,"Basking Ridge, NJ",United States
21,-46.5955455,-23.682803,Daniel Chaves,23063621,2020-03-23 22:03:55,So Paulo,city,"Sao Paulo, Brazil",Brazil
151,3.5018455000000004,6.441530500000002,Victor Obinna,2306363399,2020-02-20 08:35:44,"Lagos State, Nigeria.",city,"Victoria Island, Nigeria",Nigeria
120,101.70250849,3.16044063,Syiqa,230636400,2020-03-05 10:41:31,Malaysia,city,"Kuala Lumpur City, Kuala Lumpur Federal Territory",Malaysia
205,-0.144439,51.518732,Solihull SAB,2306364391,2020-03-16 12:18:57,"Solihull, West Midlands UK",poi,De Vere Venues West One,United Kingdom
178,25.555316,-33.907562,Zakes,2306364749,2020-02-22 19:08:35,"South Africa,Eastern cape",city,"Port Elizabeth, South Africa",South Africa
21,-43.441578,-22.911421500000003,Jeff Nego ,230636557,2020-02-21 17:36:19,"Rio Grande do Sul, Brasil",city,"Rio de Janeiro, Brasil",Brasil
24,-80.4764035,43.430240000000005,Stefan,230636782,2020-03-28 17:10:07,,city,"Kitchener, Ontario",Canada
