currentGEOID,lon,lat,name,author_Id,created_at,location,place_type,place_full_name,place_country
41860,-122.2286855,37.791994,Vassil Mladjov ,1054431,2020-04-04 13:12:39,"San Francisco, CA",city,"Oakland, CA",United States
9,150.931975,-33.848244,Elisabeth Carter,1054431127,2020-03-18 12:52:07,"Sydney, Australia",city,"Sydney, New South Wales",Australia
31140,-85.4315785,38.254822499999996,nader E,1054431575243456512,2020-02-16 00:37:50,,city,"Boston, KY",United States
21,-42.043358000000005,-22.7372245,JP ,1054431746786295813,2020-02-14 09:42:12,"Cabo Frio, Brasil",city,"Cabo Frio, Brasil",Brasil
222,117.155896,-0.469049,idafitri,1054431805162512384,2020-03-05 05:26:05,"Kalimantan Timur, Indonesia",poi,Fakultas Perikanan dan Ilmu Kelautan Universitas Mulawarman,Indonesia
21,-43.441578,-22.911421500000003,Francisco Paulo Leite,1054431859172610049,2020-03-16 18:14:55,,city,"Rio de Janeiro, Brasil",Brasil
151,3.3180660000000004,6.590611,O L A D I P U P O,1054431926,2020-02-15 10:30:44,"Ikeja, Nigeria",city,"Ikeja, Nigeria",Nigeria
200,28.968512,41.037138,Ali,1054432171929337856,2020-05-21 20:22:03,,city,"Ardahan, Trkiye",Trkiye
186,2.0790729,41.36627486,Yasir_sw9,1054432371959914496,2020-02-22 13:14:10,Miraflores de la Sierra,city,"Cornell de Llobregat, Espaa",Espaa
200,37.387009000000006,37.062044,,1054432435134492672,2020-03-16 20:02:11,,city,"Gaziantep, Trkiye",Turkey
200,32.814495,39.934505,Gkhan Altparmak,1054432710133985280,2020-03-06 12:46:47,"Ankara, Trkiye",poi,Genlerbirlii lhan Cavcav Tesisleri,Turkey
200,27.363989,37.058257,Esra,1054432923645022208,2020-03-17 12:00:35,,city,"Bodrum, Trkiye",Trkiye
21,-46.5955455,-23.682803,claudiacfs ,1054432981950103553,2020-02-14 22:39:31,"Vila Leopoldina, So Paulo",city,"Sao Paulo, Brazil",Brazil
85,18.2909225,40.2076415,Giorgio,1054433176100192256,2020-04-02 15:30:41,,city,"Martano, Puglia",Italia
205,-0.5701175,51.2364205,Emma Jones,1054433205716180992,2020-02-25 13:15:17,"New Forest, UK",city,"Guildford, England",United Kingdom
120,110.41918500000001,1.451134,caidi,1054433271767941120,2020-02-29 04:36:26,"Sarawak, Malaysia",poi,Institut Memandu NB Motor Sdn. Bhd,Malaysia
50,34.518481,28.508026,  ,1054433309479108613,2020-03-24 15:31:45,Dahab,poi,dahab,Egypt
21,-43.441578,-22.911421500000003,Barbearia do katraia,1054433463577776128,2020-04-19 01:52:32,"Rio de Janeiro, Brasil",city,"Rio de Janeiro, Brasil",Brasil
82,73.910077,18.5081615,Wang_SangYeol,1054433490094120960,2020-04-17 17:09:53,,city,"Haveli, India",India
21,-47.796623,-15.776254000000002,bibica ,1054433511044775936,2020-02-14 10:36:15,,city,"Braslia, Brasil",Brasil
88,137.73497176,34.70401156,,105443378,2020-02-15 13:02:43,,city,  ,
21,-43.376828,-22.728707999999997,RAYANE ,1054433795611521024,2020-03-09 16:10:43,021,city,"Belford Roxo, Brasil",Brasil
24,-113.49261750000001,53.5558195,MattButDigital,1054433804,2020-05-07 00:30:08,,city,"Edmonton, Alberta",Canada
200,29.0052225,41.0213205,,1054433820445999105,2020-02-17 12:18:17,Trkiye,city,"stanbul, Trkiye",Trkiye
151,9.7785345,7.8715259999999985,Shabzy Jibas,1054433867317305346,2020-02-24 22:26:24,Taraba state ,city,"Wukari, Nigeria",Nigeria
164,-8.505348,41.204895,mateus,1054434197228716034,2020-03-18 04:29:20,vlg,city,"Valongo, Portugal",Portugal
36540,-95.9304,41.2557,Team Christensen,1054434371803975680,2020-05-21 15:29:32,Minnesota,city,"Omaha, NE",United States
205,-2.5853900000000003,51.457877,safiya,1054434649097814017,2020-06-08 12:27:14,"Birmingham, England",city,"Bristol, England",United Kingdom
38060,-111.7385665,33.295215,Nicco Marchiol,1054434946750734338,2020-03-02 02:57:13,"Centennial, CO",city,"Gilbert, AZ",United States
26420,-95.4464865,29.838495,Nicco Marchiol,1054434946750734338,2020-03-06 18:48:23,"Chandler, AZ",city,"Houston, TX",United States
38060,-111.7385665,33.295215,Nicco Marchiol,1054434946750734338,2020-03-09 15:38:23,"Chandler, AZ",city,"Gilbert, AZ",United States
36540,-96.24681899999999,41.2647745,Elkhorn Girls Basketball,1054435139827261442,2020-02-14 14:49:52,"Elkhorn, NE",city,"Elkhorn, NE",United States
29820,-115.223125,36.232915000000006,Mimi  ,1054435209175752705,2020-02-21 15:55:24,,city,"Las Vegas, NV",United States
185,44.072567,9.522986,Mohammed Badri Mohammed,1054435318479364096,2020-03-01 08:07:21,Hargeisa,poi,Hargeisa | Hargeysa | ,Somalia
186,-8.748794499999999,42.9614185,zxirxwhite,1054435430286979072,2020-03-23 17:17:58,"A Baa, Espaa",city,"A Baa, Espaa",Espaa
120,103.06248199999999,5.367565,hmadzziq,105443574,2020-03-02 11:51:14,Malaysia,city,"Kuala Nerus, Terengganu",Malaysia
31080,-118.4119065,34.0207895,Matthew Winchester,1054435874,2020-02-24 15:22:35,"Los Angeles, California",city,"Los Angeles, CA",United States
88,137.0693455,35.415075,Motoo Tangiku,105443589,2020-02-15 04:43:16,,city, ,
21,-43.296872,-22.644558,cacau,1054435911260405763,2020-06-05 07:20:04,+5521,city,"Duque de Caxias, Brasil",Brasil
181,-15.875352,14.863357,Modoumustapha,1054436058052677634,2020-02-25 23:58:13,Senegal,poi,Mosque Touba,Senegal
16300,-91.6828545,41.976528,tiesha,1054436102,2020-02-29 19:53:37,,city,"Cedar Rapids, IA",United States
33460,-93.3407565,45.10809550000001,tiesha,1054436102,2020-06-10 07:04:50,,city,"Brooklyn Park, MN",United States
222,106.81774214,-6.57777604,Pramesti Octa L.D,105443632,2020-02-15 10:30:53,"Kota Malang, Jawa Timur",city,"Bogor Utara 2, Indonesia",Indonesia
200,36.3406495,41.31315100000001,MEHMET DNER,1054436343386902528,2020-04-04 21:18:48,,city,"Samsun, Trkiye",Trkiye
82,80.3460625,26.405874,PRATIK GUPTA,1054436474,2020-04-28 06:31:48,kharagpur,city,"Kanpur, India",India
14260,-116.238001,43.598033,Kris Lindsay,1054436886394036224,2020-02-14 03:02:44,"Boise, ID",city,"Boise, ID",United States
151,8.470568,11.958346,Haruna Idris (Guru),1054436971999825920,2020-02-25 23:56:57,Nigeria,city,"Rijiyar Zaki, Nigeria",Nigeria
45300,-82.44269399999997,27.9965945,quesadilla ,1054437291446411264,2020-02-16 18:36:38,"Chillicothe, OH",city,"Tampa, FL",United States
17060,-82.9939495,39.348299,quesadilla ,1054437291446411264,2020-02-25 22:45:42,"Chillicothe, OH",city,"Chillicothe, OH",United States
19660,-81.068556,29.190223,cacy,1054437291446411264,2020-03-05 21:22:44,"Chillicothe, OH",city,"Daytona Beach, FL",United States
17060,-82.9939495,39.348299,cacy,1054437291446411264,2020-03-16 05:55:47,"Chillicothe, OH",city,"Chillicothe, OH",United States
29420,-114.017707,35.2237525,cacy,1054437291446411264,2020-03-19 01:04:33,"Chillicothe, OH",city,"Kingman, AZ",United States
17060,-82.9939495,39.348299,cacy,1054437291446411264,2020-03-28 04:20:30,"Chillicothe, OH",city,"Chillicothe, OH",United States
24,-114.087851,51.027664,Canada Wallart,1054437549375074304,2020-06-07 14:34:27,"Calgary, Alberta",city,"Calgary, Alberta",Canada
21,-50.768158500000006,-27.211884,,1054437566462746625,2020-06-07 19:53:53,"Curitibanos, Brasil",city,"Frei Rogrio, Brasil",Brasil
178,22.798457,-34.016221,Nikita Joshua,1054437642102824960,2020-02-16 14:13:05,"Cape Town, South Africa",city,"Sedgefield, South Africa",South Africa
38060,-112.543989,33.43562,Brandon Berry,1054437853751476224,2020-02-14 14:11:42,"Buckeye, AZ",city,"Buckeye, AZ",United States
35620,-73.8311875,40.6708795,BASSIMB,1054438020877824000,2020-02-18 03:01:38,New York City,city,"Queens, NY",United States
41700,-98.67002600000001,29.463109999999997,emily,1054438475620147200,2020-02-20 14:43:19, talking shit to my dog,poi,Earl Warren High School,United States
19820,-83.099288,42.3527865,Karla Henderson,105443877,2020-03-26 16:42:59,Detroit,city,"Detroit, MI",United States
21,-40.37516700000001,-20.427329500000003,Baby Cat ,1054439007772385280,2020-02-14 03:13:03,Vila Velha,city,"Vila Velha, Brasil",Brasil
87,42.946142,36.848611,Ceylan,1054439013376053254,2020-04-21 19:43:56,Kurdistan,poi,Geverke,Iraq
222,110.3168365,-7.8147389999999985,hoomankyud,1054439186,2020-02-15 10:32:03,"Yogyakarta, Indonesia",city,"Kasihan, Indonesia",Indonesia
205,-1.847827,53.76438,Mckenzie Hardaker,1054439311406448641,2020-03-15 18:59:24,,city,"Queensbury, England",United Kingdom
65,4.835099,45.75782150000001,thomasssssssssssssss,1054439430151389184,2020-02-18 21:47:26,"Lyon, France",city,"Lyon, France",France
58,14.175392,50.7844785,Ji Omank,1054439458723037187,2020-02-28 16:54:38,esk republika,city,"Dn, esk republika",Czech Republic
222,106.8,-6.16666667,nurnur ,1054439521,2020-02-14 03:09:31,jakarta barat,city,"Grogol Petamburan, Indonesia",Indonesia
186,-7.9209580000000015,43.527842,jose manuel vilaboy,1054439575836344320,2020-03-24 06:50:07,A corua,city,"As Somozas, Espaa",Spain
200,29.0052225,41.0213205,gamze,1054439581410643969,2020-05-08 13:33:25,"Antalya, Trkiye",city,"stanbul, Trkiye",Turkey
17900,-81.19485,34.1090235,The Academy For Civic Engagement,1054439583755182081,2020-03-26 02:48:23,"Columbia, SC",city,"Irmo, SC",United States
65,2.347003,48.8588335,Poms le Lundi/ Hawai le Samedi,1054439613916475392,2020-02-14 15:15:19,Royaume du Maroc,city,"Paris, France",France
71,9.9443955,52.1437145,Jacob Templar,1054439668517953536,2020-04-01 19:26:39,"Hildesheim, Germany",city,"Hildesheim, Germany",Germany
173,30.328698,59.934148,,1054439788261060609,2020-05-03 20:19:07,"-, ",city,"-, ",
69,-1.5646639999999998,6.673439,Derrick Aning,1054439822230802432,2020-03-10 07:45:27,"Kumasi, Ghana",poi,Knust poolside gym and areobics centre.,Ghana
65,3.218163,50.3468475,Lou ,1054440022596874240,2020-02-14 10:53:02,"Ecaillon, France",city,"Ecaillon, France",France
200,29.042018,41.067375,A Z A K L I,1054440054322552832,2020-02-23 00:13:19,Trabzon,poi,Arnavutky Sahili,Turkey
49420,-120.53646599999999,46.674378499999996,AJ Fabian,1054440204,2020-03-19 23:32:24,"Yakima, WA",city,"Selah, WA",United States
21260,-120.539923,46.9932795,AJ Fabian,1054440204,2020-03-20 02:57:37,"Yakima, WA",city,"Ellensburg, WA",United States
159,-57.60601750000001,-25.300264000000002,Hugo Penayo,105444026,2020-03-10 13:34:22,Asuncin - Paraguay,city,"Asuncion, Paraguay",Paraguay
178,26.728865000000003,-27.9512555,North ,1054440260,2020-03-21 15:35:19,Bloemfontein,city,"Welkom, South Africa",South Africa
82,76.20768000000002,15.046989000000002,ASHOK UPPAR,1054441095332012032,2020-04-08 17:15:16,"Hagaribommanahalli, India",city,"Hagaribommanahalli, India",India
173,39.236036,51.6793275, ,1054441600028434434,2020-02-18 01:53:41,", ",city,", ",
19100,-96.8917385,33.079014,OODOYLERULES3ree2wo,1054441603325157377,2020-06-07 01:09:54,"The Colony, TX",city,"The Colony, TX",United States
91,36.863620000000004,-1.2748635,Millicent Bystander,1054441818639814656,2020-03-23 00:22:04,Spain but the 's' is silent,city,"Nairobi, Kenya",Kenya
35840,-82.46902299999998,27.3331455,ariellenicole,1054441837044400128,2020-02-14 15:24:26,"Sarasota, FL",city,"Fruitville, FL",United States
45300,-82.44269399999997,27.9965945,ariellenicole,1054441837044400128,2020-03-30 16:19:19,"Sarasota, FL",city,"Tampa, FL",United States
35840,-82.47658,27.408753000000004,ariellenicole,1054441837044400128,2020-03-30 19:04:18,"Sarasota, FL",city,"University Park, FL",United States
29380,-82.66398899999999,30.182768,ariellenicole,1054441837044400128,2020-04-12 15:28:29,"Sarasota, FL",city,"Lake City, FL",United States
35840,-82.47658,27.408753000000004,ariellenicole,1054441837044400128,2020-04-14 01:54:26,"Sarasota, FL",city,"University Park, FL",United States
15980,-81.8231765,26.622149,ariellenicole,1054441837044400128,2020-06-06 17:27:29,"Sarasota, FL",city,"Fort Myers, FL",United States
35840,-82.47658,27.408753000000004,ariellenicole,1054441837044400128,2020-06-08 02:52:28,"Sarasota, FL",city,"University Park, FL",United States
88,139.8346885,37.7169235,ino,105444199,2020-05-13 15:07:22,,city, ,
205,-1.467543,53.380309,Alice Stevens,1054442139424309253,2020-03-07 12:17:09,Sheffield/Manchester,poi,Tudor Square,United Kingdom
21,-35.6871125,-9.5333295,Marcos Antonio Lopes De Lima,1054442290926837760,2020-04-23 19:02:05,,city,"Macei, Brasil",Brasil
205,0.435882,51.711578,Tandem,1054442306919645184,2020-02-27 13:42:59,"Chelmsford, Essex",poi,Stables Courtyard,United Kingdom
47900,-76.942596,38.64322,Gabrielle DiGiovannantonio ,1054442387475439617,2020-06-05 14:02:39,"Maryland, USA",poi,North Point High School,United States
31540,-89.374364,43.080526,Shepo,1054442476466003968,2020-02-28 22:06:37,end of time,poi,The Sylvee,United States
20220,-90.7104695,42.510656,Shepo,1054442476466003968,2020-02-29 17:31:26,end of time,city,"Dubuque, IA",United States
21,-43.564089,-22.3688335,Cludio Lins,1054442978247360513,2020-02-17 12:41:21,"Rio de Janeiro, Brasil",city,"Vassouras, Brasil",Brasil
178,28.136140500000003,-25.860881,M.A.B (General Construction & Mining Group),1054443139329597441,2020-02-22 20:11:58,"Harrogate Park ,Hatfield",city,"Centurion, South Africa",South Africa
222,110.31781399999998,-7.784254000000002,lorjembatan,1054443642507616264,2020-03-09 12:29:51,,city,"Gamping, Indonesia",Indonesia
119,-99.655794,19.289341,Grupo NAPRE,1054443759440523264,2020-05-07 22:58:11,,city,"Toluca, Mxico",Mxico
21,-43.006609000000005,-22.822697,Mauricio Alves,1054443791468371968,2020-04-11 01:14:49,"Rio de Janeiro, Brasil",poi,Condomnio Residencial Parque das guas,Brazil
169,22.881145,45.562603,Petru Vasiu,1054443826390204417,2020-03-20 18:34:00,,poi,Pogany Castle,Romnia
222,109.6712885,-6.976650500000001,DANITY,1054444026,2020-04-02 17:53:32,pekalongan,city,"Kedungwuni, Indonesia",Indonesia
88,139.69262600000002,35.666851, ,105444404,2020-06-11 02:21:26,,city, ,
19740,-105.12818850000001,39.8202065,AmberStrange,1054444093982441472,2020-04-23 10:57:57,,city,"Arvada, CO",United States
171,121.03131,14.407882999999998,Krissy ,105444426,2020-02-23 07:05:49,Republic of the Philippines,city,"Muntinlupa City, National Capital Region",Republic of the Philippines
119,-111.498181,28.9698625,irlanda barragan,1054444384928886784,2020-04-30 19:13:22,,city,"Hermosillo, Sonora",Mxico
119,-96.7254,17.0606,Arturo E. Miranda ,1054444526373425152,2020-03-09 17:01:01,"Distrito Federal, Mxico",city,"Oaxaca de Jurez, Oaxaca",Mxico
47260,-76.623153,36.972914,Chesapeake Career and Technical Education,1054444530701873152,2020-04-09 20:34:23,"Chesapeake, VA",city,"Smithfield, VA",United States
8,-58.61175550000001,-34.646236,Mar de Cartas,1054444800626343948,2020-02-18 15:51:08,,city,"Morn, Argentina",Argentina
222,106.86992350000001,-6.204330000000001,Vanillite,105444481,2020-02-23 09:53:28,"DKI Jakarta, Indonesia",city,"Matraman, Indonesia",Indonesia
41700,-98.5406515,29.417501,bina,1054444820,2020-02-14 04:21:00,"Denton, TX",city,"San Antonio, TX",United States
29700,-99.454676,27.532077,bina,1054444820,2020-03-13 16:41:08,"Denton, TX",city,"Laredo, TX",United States
41700,-98.5406515,29.417501,bina,1054444820,2020-03-16 23:06:11,"Denton, TX",city,"San Antonio, TX",United States
29700,-99.454676,27.532077,bina,1054444820,2020-05-03 02:49:01,"Denton, TX",city,"Laredo, TX",United States
41700,-98.5406515,29.417501,bina,1054444820,2020-05-07 07:06:10,"Denton, TX",city,"San Antonio, TX",United States
29700,-99.454676,27.532077,bina,1054444820,2020-05-11 07:05:30,"Denton, TX",city,"Laredo, TX",United States
41700,-98.5406515,29.417501,bina,1054444820,2020-05-18 21:01:01,"Denton, TX",city,"San Antonio, TX",United States
29700,-99.454676,27.532077,bina,1054444820,2020-05-25 21:37:44,"Denton, TX",city,"Laredo, TX",United States
41700,-98.5406515,29.417501,bina,1054444820,2020-05-26 07:02:31,"Denton, TX",city,"San Antonio, TX",United States
20060,-82.85234249999998,31.507476,Unbreakable wave,1054444980633329666,2020-02-24 01:29:21,God/Money ,city,"Douglas, GA",United States
21,-44.5230265,-22.441994,Natthlia,1054445141904232448,2020-03-04 17:24:04,"Rio de Janeiro, Brasil",city,"Resende, Brasil",Brasil
88,141.36126299999998,43.1001895,,1054445195763245058,2020-02-15 07:30:57, ,city,"Sapporo-shi Kita-ku, Hokkaido",Japan
19100,-96.7617535,32.819858499999995,Benji,1054445362973495296,2020-03-06 00:54:16,"Dallas, TX",city,"Dallas, TX",United States
41180,-90.247824,38.653771,Benji,1054445362973495296,2020-05-28 16:46:31,"Dallas, TX",city,"St Louis, MO",United States
193,100.6883155,13.6807275,x,1054445475498156033,2020-05-03 09:50:33,,city,", ",
88,135.771734,34.967285,Mariko Ono,1054445556284645376,2020-02-17 03:55:46,Kyoto,poi, (Fushimi Inari Taisha),Japan
31080,-118.5032585,34.415631,Jorge,1054445605,2020-02-28 19:49:52,,city,"Santa Clarita, CA",United States
40140,-117.462698,34.1081605,Jorge,1054445605,2020-02-29 05:18:12,,city,"Fontana, CA",United States
21,-46.676183,-23.572771,no idea wht im doing,1054445629362130945,2020-03-01 18:33:31,"Teresina, Brasil",poi,Museu da Imagem e do Som (MIS),Brazil
178,27.75,-26.3,jacob,1054445938691973122,2020-04-08 18:17:40,South Africa,city,"Westonaria, South Africa",South Africa
193,100.6133535,13.768875,ZheAong,1054446018,2020-05-31 13:22:47,Bangkok Thailand,city,", ",
21,-60.644195,3.0169745,mauricio X  A-12,1054446020694810624,2020-05-07 20:13:23,"Boa Vista, Roraima, Brasil.",city,"Boa Vista, Brasil",Brasil
113,-2.5058505,34.582939,hifasa,1054446251540992001,2020-03-03 10:59:39,"El Aioun Sidi Mellouk, Royaume",city,"El Aioun Sidi Mellouk, Royaume du Maroc",Royaume du Maroc
186,3.0390870000000003,39.7783445,Carlos Martinez Monge,1054446310592602112,2020-02-18 21:05:55,"Valencia, Comunidad Valenciana",city,"Sa Pobla, Espaa",Spain
119,-100.35658836,25.69384178,Maqueda Tours,1054446762059071493,2020-02-18 16:56:53,"Monterrey, Nuevo Len",city,"Monterrey, Nuevo Len",Mexico
21,-48.3,-18.9167,Paula Patriarca ,105444681,2020-03-16 18:31:44,"Uberlndia, Brasil",city,"Uberlndia, Brasil",Brasil
200,27.006511,38.4079305,Cumhuriyet.G.S,1054446928275091458,2020-02-25 06:30:21,,city,"zmir, Trkiye",Trkiye
205,-0.216108,51.498387,,1054446941004816385,2020-05-13 21:42:06,17 yrsss bbyyy,city,"Hammersmith, London",United Kingdom
40900,-121.469664,38.561721999999996,twiggy smalls,1054446953671548930,2020-02-14 14:59:10,"Sacramento, CA",city,"Sacramento, CA",United States
41940,-121.9513725,37.23569500000001,twiggy smalls,1054446953671548930,2020-02-15 23:08:32,"Sacramento, CA",city,"Los Gatos, CA",United States
40900,-121.469664,38.561721999999996,twiggy smalls,1054446953671548930,2020-02-19 01:01:24,"Sacramento, CA",city,"Sacramento, CA",United States
42220,-122.6761085,38.452217499999996,twiggy smalls,1054446953671548930,2020-03-31 05:00:50,"Sacramento, CA",city,"Santa Rosa, CA",United States
40900,-121.469664,38.561721999999996,twiggy smalls,1054446953671548930,2020-04-03 05:36:56,"Sacramento, CA",city,"Sacramento, CA",United States
31080,-118.4119065,34.0207895,Valley Duke,1054447182017789952,2020-03-07 17:14:32,San Fernando Valley,city,"Los Angeles, CA",United States
151,7.422322500000001,10.511245,Jacques Jr,1054447736,2020-03-01 23:13:25,Nigeria,city,"Kaduna, Nigeria",Nigeria
200,29.0052225,41.0213205,Ensar Hayta,1054447806365253635,2020-02-24 15:07:04,,city,"stanbul, Trkiye",Trkiye
178,28.508038,-26.246785499999998,@VeeMosia,105444813,2020-02-17 08:58:16,"South-Africa,Tembisa/Nigel/LS ",city,"Springs, South Africa",South Africa
222,106.86992350000001,-6.204330000000001,Mif,1054448724460503040,2020-03-01 08:01:55,,city,"Matraman, Indonesia",Indonesia
8,-64.874447,-24.2373395,Leonel,1054448741774700545,2020-02-15 00:55:18,"San Pedro, Argentina",city,"San Pedro, Argentina",Argentina
171,120.9667405,14.751303,'Calitude,1054448818136113152,2020-03-28 06:05:51,,city,"Meycauayan, Central Luzon",Republic of the Philippines
205,0.044913999999999996,51.5160475,Meray ,1054448822678708227,2020-02-15 07:19:52,"England, United Kingdom",city,"East Ham, London",United Kingdom
21,-46.0573865,-23.425102499999998,,1054448857013198850,2020-05-18 02:06:39,"Jacare, Brasil",city,"Guararema, Brasil",Brazil
14460,-70.679381,42.6309555,Hack the Moon,1054448978706751490,2020-04-28 22:25:21,,city,"Gloucester, MA",United States
65,2.4660474999999997,50.009819,Amlie,1054448979113590784,2020-04-05 22:43:47,France,city,"Contay, France",France
82,72.87424399999999,19.174139999999998,Shaikh abu Sahama,1054448995555254273,2020-04-03 05:46:31,"Maharashtra, India",city,"Mumbai, India",India
8,-58.404603,-34.610293,UPCNSeccTPNyGCBA,1054449074051694592,2020-04-02 12:14:11,"Ciudad Autnoma de Buenos Aires, Argentina",poi,UPCN - Unin del Personal Civil de la Nacin,Argentina
151,3.3180660000000004,6.590611,kofoworola1759,1054449203005587457,2020-04-04 12:49:38,"Lagos, Nigeria",city,"Ikeja, Nigeria",Nigeria
205,-0.3135045,51.0707245,Bryony Smith Interiors,1054449242574647297,2020-02-14 09:30:39,"England, United Kingdom",city,"Horsham, England",United Kingdom
21,-44.1754915,-22.487255,Nego beio ,1054449557780791296,2020-02-29 19:41:06,"Rio de Janeiro, Brasil",city,"Barra Mansa, Brasil",Brasil
40900,-121.3820915,38.4215345,Ebonnny,1054449618337984512,2020-04-01 01:50:30,"Sacramento, CA",city,"Elk Grove, CA",United States
41740,-117.10498899999999,32.810012,Talo4,1054449639640961026,2020-02-16 19:07:51,"North Carolina, USA",city,"San Diego, CA",United States
175,39.2541285,21.5857105,HA,1054449667759583234,2020-02-16 19:36:22,Jeddah,city,"Jeddah, Kingdom of Saudi Arabia",Kingdom of Saudi Arabia
32580,-98.417941,26.223465,aylin,1054449927139536896,2020-02-15 00:07:34,"Mission , TX",city,"Abram, TX",United States
152,6.8458335,53.318656499999996,NightWatch Epilepsy Detection,1054450000841859072,2020-04-02 07:00:47,The Netherlands,city,"Appingedam, Nederland",The Netherlands
82,75.783332,27.736571500000004,Gaurav Goyal,1054450103778533377,2020-02-22 15:26:50,Neem Ka Thana India,city,"Neem Ka Thana, India",India
200,30.652895,36.870277,Aras Dal,1054450128717787136,2020-03-04 11:00:11,,poi,Konyaalt Sahili,Trkiye
205,-0.19154200000000002,51.480925,Benjab30,1054450143175565312,2020-02-17 19:44:31,,poi,Stamford Bridge,United Kingdom
55,-89.19162,13.64766,Celupaz Las Galeas,1054450267364704258,2020-03-01 01:06:41,"San Salvador, El Salvador",city,"San Salvador, El Salvador",El Salvador
21,-43.349647999999995,-22.775356,gabi,1054450323002216448,2020-02-26 00:19:32, ,poi,Complexo Da Vila Ruth,Brasil
25540,-72.667058,41.9268625,WLPS Office of Partnerships,1054450377926602755,2020-02-14 19:30:00,"Windsor Locks, CT",city,"Windsor Locks, CT",United States
35620,-74.0064,40.7142,Leandro Pellegrino,1054450520,2020-02-27 22:00:14,"Brooklyn, NY",city,"Manhattan, NY",United States
36740,-81.3775,28.5421,Leandro Pellegrino,1054450520,2020-02-29 02:50:50,"Brooklyn, NY",city,"Orlando, FL",United States
35620,-73.98173719,40.76818293,Leandro Pellegrino,1054450520,2020-03-01 14:20:38,"Brooklyn, NY",city,"Manhattan, NY",United States
21,-54.52704250000001,-31.019153999999997,,1054450530079117313,2020-05-04 06:30:53,"Dom Pedrito, Brasil",city,"Dom Pedrito, Brasil",Brasil
88,139.70222598,35.77290277,,105445055,2020-02-20 12:29:55,,city, ,
47900,-77.0143985,38.898603,Russell Galeti,1054450772585447424,2020-03-26 14:06:41,Northwest Territory  Federal City,city,"Washington, DC",United States
33460,-93.2620465,44.9706105,Maximilian,1054450925056786433,2020-05-29 06:22:16,,city,"Minneapolis, MN",United States
46520,-157.85613999999998,21.31454,Kay Anne Cruz,105445123,2020-02-15 09:22:41,"Hampton, VA",city,"Honolulu, HI",United States
82,72.87424399999999,19.174139999999998,Sunny Randhawa,1054451230486003712,2020-04-18 07:50:17,,city,"Mumbai, India",India
200,36.141442,36.136204,Sleyman...,1054451247191875585,2020-05-16 21:24:30,"Hatay, Trkiye",poi,Harbiye,Trkiye
119,-100.44059449999999,20.7152745,Thelma De Dios Ayala,1054451280712814594,2020-05-28 23:31:40,"Quertaro, Quertaro Arteaga",city,"Quertaro, Quertaro Arteaga",Mxico
21,-43.023188,-22.785293,russo ,1054451403144548352,2020-04-20 22:00:40,por perto,poi,"Complexo do Salgueiro, So Gonalo",Brasil
152,5.3181775,51.713073,Crypto_nit3,1054451574779641856,2020-03-15 14:47:43,Netherlands,city,"'s-Hertogenbosch, Nederland",The Netherlands
222,106.8171375,-6.2016105,Andiko Perdana,105445175,2020-03-03 06:48:49,"Jakarta Pusat, DKI Jakarta",city,"Tanah Abang, Indonesia",Indonesia
21,-43.959822499999994,-19.918692,Aisha,1054451912332984320,2020-04-18 21:50:47,"Belo Horizonte, Brasil",city,"Belo Horizonte, Brasil",Brasil
186,-15.4437905,27.983565000000002,Rebeka Diamond,1054451968985436160,2020-02-28 00:09:39,,city,"Telde, Espaa",Spain
178,26.793296,-29.1751095,Trinity,1054452017723334656,2020-03-19 15:39:42,Bloemfontein,city,"Thaba Nchu, South Africa",South Africa
200,32.991406,40.114715000000004,Doukan Estelik,1054452053047721984,2020-03-05 10:53:35,,poi, Hatlar Gidi Terminali,Trkiye
8,-58.5641745,-34.544659,,1054452146815598595,2020-02-16 23:11:41,"Buenos Aires, Argentina",city,"Ciudad del Libertador General San Martn, Argentina",Argentina
205,0.127886,51.554019,ekene_ldn,1054452511262887937,2020-05-29 23:49:31,"London, England",city,"Barking, London",United Kingdom
24860,-82.3422685,34.7959415,Grace Rogers,1054452518628089856,2020-02-28 00:11:56,,city,"Greenville, SC",United States
21,-48.82054100000001,-28.476333,Mayko ,1054452553222709254,2020-05-21 23:29:09,,city,"Laguna, Brasil",Brazil
175,46.685077,24.7219435,  ,1054452563700076544,2020-03-14 21:21:15,,city,",   ",  
200,26.572273,41.668173,DENZ KAAN,1054452703735279617,2020-02-16 14:46:06,"Edirne, Trkiye",city,"Edirne, Trkiye",Trkiye
38300,-79.7002645,39.8738725,T,1054452819082838016,2020-03-17 15:12:12,"Pennsylvania, USA",city,"Hopwood, PA",United States
46060,-110.91557350000001,32.1893905,ariana bello,1054452906,2020-02-15 15:30:47,"Casa Grande, AZ  Tucson, AZ",city,"Tucson, AZ",United States
96,48.110002,29.19527,,1054453085748248578,2020-03-07 18:18:12, ,poi,Mall30,Kuwait
33460,-93.731174,44.899826000000004,Buddy Boy Fine BBQ,1054453438266949634,2020-03-27 18:22:14,8175 HW 7 Minnetrista MN 55387,poi,Buddy Boy Fine Barbeque,United States
128,5.342569,50.933679,Fac Revalidatiewetenschappen @UHasselt,1054453508500533249,2020-02-27 19:43:43,"Diepenbeek, Belgi",poi,Aula Louis Roppe,Belgium
11460,-83.72997149999999,42.2708395,Han Zhang,1054453551810953216,2020-02-17 23:28:26,"Ann Arbor, MI",city,"Ann Arbor, MI",United States
82,78.07090699999999,29.937052,YADVENDRA GUPTA,1054453561,2020-04-24 01:44:46,Haridwar,poi,"Shivalik nagar, haridwar",India
38540,-112.4348275,42.863516,Alyssa Suggs,1054453627,2020-03-02 18:48:21,"Pocatello, ID",city,"Pocatello, ID",United States
175,42.2580355,18.7838475,S A M ,1054453678445338624,2020-06-05 15:41:23,"Abha, Kingdom of Saudi Arabia",city,"Billasmar, Kingdom of Saudi Arabia",Kingdom of Saudi Arabia
21,-46.932641499999995,-23.082992,Solitria dos vinho,1054453688067088384,2020-02-16 17:13:36,pas das maravilhas,city,"Louveira, Brasil",Brasil
85,9.8989535,45.631583,,1054453909551570946,2020-02-20 08:07:41,Sarajevo,city,"Castelli Calepio, Lombardia",Italie
82,73.910077,18.5081615,Friyey Space,1054453931043041280,2020-02-24 07:13:07,"Pune, India",city,"Haveli, India",India
8,-58.442643,-34.604315,Leiva,1054454029,2020-02-18 17:21:45,Villa del parque,city,"Ciudad Autnoma de Buenos Aires, Argentina",Argentina
21,-60.644195,3.0169745,luquinhas,1054454048659779585,2020-02-23 12:27:08,"Boa Vista, Brazil",city,"Boa Vista, Brazil",Brazil
37460,-85.67901450000001,30.180117499999998,Tylon williams,1054454224883515399,2020-03-02 16:27:42,"Jackson, LA",city,"Panama City, FL",United States
12940,-91.1505005,30.6483065,Tylon williams,1054454224883515399,2020-05-06 17:06:54,"Jackson, LA",city,"Zachary, LA",United States
14460,-71.0887125,42.3136695,Boston ADAPT,1054454235633467392,2020-03-18 19:54:03,,city,"Boston, MA",United States
21,-41.8903605,-21.216196,,1054454345880793089,2020-04-11 23:46:08,na puta que pariu,city,"Itaperuna, Brasil",Brasil
175,49.9945455,26.353591499999997,A,1054454460624330752,2020-05-28 07:41:27,,city,"Dammam, Kingdom of Saudi Arabia",Kingdom of Saudi Arabia
175,46.715986,22.2707435, ,1054454657161019398,2020-03-29 09:54:15,  ,city,"Layla, Kingdom of Saudi Arabia",Kingdom of Saudi Arabia
222,98.685188,3.541268,pani,1054454792699834368,2020-02-29 14:42:55,"Kota Medan, Sumatera Utara",poi,Perguruan Harapan Mandiri,Indonesia
211,-64.67473501,10.20129104,Fisiomarvzla ,1054454818079735808,2020-02-21 11:27:04,"Anzotegui, Venezuela",city,"Puerto La Cruz, Venezuela",Venezuela
21,-46.5955455,-23.682803,Renato Lancia,1054454972853731328,2020-04-22 11:19:57,,city,"Sao Paulo, Brazil",Brazil
205,1.120798,51.0793705,Memories Magic Mirror,1054455010795421699,2020-02-20 11:22:10,"hythe,kent",city,"Folkestone, England",United Kingdom
159,-56.953104,-25.667393,P A M E L A,1054455144992174083,2020-03-07 22:02:31,,poi,Ciudad de Sapucai,Paraguay
46700,-121.9719265,38.362844,Sean,1054455188038180864,2020-02-14 22:43:03,Jammu And Kashmir,city,"Vacaville, CA",United States
65,2.0996915,49.048643,flame,1054455212998623232,2020-04-25 04:01:57,"Ile-de-France, France",city,"Pontoise, France",France
19740,-105.15048,39.607826,starz,1054455599331590144,2020-03-06 21:23:10,The Zones,poi,Cellairis Phone Repair ( Inside Walmart),
200,27.006511,38.4079305,Metehan Atagn,1054455876877254656,2020-02-14 19:17:56,"zmir, Trkiye",city,"zmir, Trkiye",Trkiye
173,40.5566705,64.564251,,1054455940345462784,2020-02-14 14:55:27,", ",city,", ",
88,139.3689025,36.1618735, (DJ AkiBitch),105445598,2020-02-23 14:06:45, ,city, ,
178,30.396558000000002,-29.643174,uLanga,1054456105,2020-05-01 05:22:33,Durban/Pietermaritzburg,poi,Pietermaritzburg Airport (PZB),South Africa
65,4.911671,45.735454499999996,bakri marc,1054456112819458048,2020-02-22 21:49:48,France,city,"Bron, France",France
222,106.7457355,-6.1862365,Tokek Aspal,1054456225553731584,2020-03-19 11:10:00,,city,"Kembangan, Indonesia",Indonesia
151,7.423927000000001,11.556224,Halilu Umar Usman,1054456348841259011,2020-05-25 12:42:30,Nigeria,city,"Bakori, Nigeria",Nigeria
12580,-76.62048200000002,39.284713,Ashura Goines,1054456403421773826,2020-02-22 03:55:14,,city,"Baltimore, MD",United States
193,99.8365595,19.9106585,Herzog &  ,105445653,2020-02-20 15:51:50,"Bangkok, Thailand",city,"Chiang Rai, Thailand",Thailand
96,47.6563795,29.3276955,- . ,1054456833597943808,2020-03-02 08:24:00,,city,"Al Oyoun, Kuwait",Kuwait
175,39.143068,21.554955,Raghad.,1054456987608588288,2020-02-27 09:21:38,,poi,Agave Restaurant,Kingdom of Saudi Arabia
200,27.4067505,38.6239745,ag,1054457789496655873,2020-03-13 23:48:34,,city,"Manisa, Trkiye",Trkiye
47900,-77.0143985,38.898603,Fire Sports,1054457933747154944,2020-02-14 19:57:19,"VA, DC, MD",city,"Washington, DC",United States
31140,-85.4804965,38.261641999999995,Fire Sports,1054457933747154944,2020-03-23 22:21:33,"VA, DC, MD",city,"Beckley, KY",United States
10180,-98.9118235,32.7572415,Fire Sports,1054457933747154944,2020-05-11 01:48:56,"VA, DC, MD",city,"Breckenridge, TX",United States
41700,-98.5406515,29.417501,Fire Sports,1054457933747154944,2020-05-15 00:20:52,"VA, DC, MD",city,"San Antonio, TX",United States
10180,-98.9118235,32.7572415,Fire Sports,1054457933747154944,2020-05-26 16:15:34,"VA, DC, MD",city,"Breckenridge, TX",United States
71,9.006616000000001,48.71096,Fire Sports,1054457933747154944,2020-06-11 12:46:23,"VA, DC, MD",city,"Sindelfingen, Deutschland",Germany
69,-0.1842935,5.6231985,blaqjesus,1054458139016335361,2020-02-19 14:48:09,,city,"Accra, Ghana",Ghana
11460,-83.741451,42.275065999999995,rae,1054458241311301640,2020-02-29 21:54:19,hell,poi,Starbucks,United States
21,-59.9803255,-2.572425,vanessaDias,1054458530646945792,2020-03-16 17:52:00,"Manaus, Brasil",city,"Manaus, Brazil",Brazil
85,10.8969155,44.64474850000001,Alan Lipparini,1054458559575085057,2020-02-15 00:28:54,,city,"Modena, Emilia Romagna",Italy
82,77.4233395,28.773568,MahhaGuru,1054458866,2020-02-15 00:42:41,"Noida, India",city,"Ghaziabad, India",India
88,141.261321,39.746962,ILL Die,105445893,2020-03-25 09:28:01,,city, ,
21,-43.018208,-22.821465, 1997,1054459091358228482,2020-02-17 20:57:21,"So Gonalo, Brasil",city,"So Gonalo, Brasil",Brasil
21,-41.1966945,-20.7898165,RickSantos',1054459361970536449,2020-02-26 19:01:22,Caxu City - ES,city,"Cachoeiro de Itapemirim, Brasil",Brasil
88,138.88590549999998,36.3408925,Y(o00o)Y,105445939,2020-04-08 08:05:54,,city, ,
175,39.6540485,24.462089000000002,Abeer Abdullah ,1054459400038113280,2020-03-23 08:16:27,",   ",city," ,   ",  
8,-69.22503950000001,-51.625371,El Diego de la no gente,1054459511711391744,2020-03-18 13:25:37,,city,"Ro Gallegos, Argentina",Argentina
25540,-72.6809665,41.765617,,1054459667362074627,2020-05-31 21:01:02,"Bloomfield, CT",city,"Hartford, CT",United States
119,-89.62361100000003,20.941035,Juan Jose  Bismarck Luna,1054459854360887296,2020-02-21 16:59:29,"Mrida, Yucatn",city,"Mrida, Yucatn",Mxico
35620,-73.96611111,40.7825,Juan Jose  Bismarck Luna,1054459854360887296,2020-03-19 19:35:57,"Mrida, Yucatn",city,"Manhattan, NY",Estados Unidos
119,-89.62361100000003,20.941035,Juan Jose  Bismarck Luna,1054459854360887296,2020-03-22 08:55:18,"Mrida, Yucatn",city,"Mrida, Yucatn",Mxico
21,-46.5955455,-23.682803,Slvia Corra,1054460013136224261,2020-06-04 23:26:27,,city,"Sao Paulo, Brazil",Brazil
200,29.0052225,41.0213205,Meral Krkal,105446034,2020-02-24 10:58:59,,city,"stanbul, Trkiye",Turkey
33100,-80.2333285,25.7823535,Real Life,1054460454,2020-03-09 23:56:28,"Detroit, MI",city,"Miami, FL",United States
29620,-84.4816265,42.74672,Real Life,1054460454,2020-03-10 16:29:17,"Detroit, MI",city,"East Lansing, MI",United States
35620,-73.9487755,40.655138,Kitty,1054460692642840577,2020-02-19 12:38:20,Trinidad and Tobago,city,"Brooklyn, NY",United States
186,-4.019458,40.535253000000004,Francisca Cuenca Ruz,1054460725916286976,2020-02-15 09:37:52,"Madrid, Espaa",city,"Colmenarejo, Espaa",Espaa
15940,-81.532055,40.81482800000001,srozlog,1054460848389980160,2020-02-15 03:39:37,"Ohio, USA",city,"Massillon, OH",United States
22,23.323978,42.697736,Hristiyana Stoyanova,1054461416747556865,2020-02-27 10:18:43,"Sofia, Bulgaria",poi,  (Council of Ministers),Bulgaria
128,4.375468,50.855017,Hristiyana Stoyanova,1054461416747556865,2020-04-23 13:19:07,"Brussels, Belgium",city,"Brussels, Belgium",Belgium
200,29.0052225,41.0213205,zge,1054461434233585664,2020-02-14 14:35:35,,city,"stanbul, Trkiye",Trkiye
200,29.0052225,41.0213205,Bra nce,1054461778111938560,2020-03-09 23:26:19,"stanbul, Trkiye",city,"stanbul, Trkiye",Turkey
41860,-122.2286855,37.791994,Jas Sajjan,1054461906205822977,2020-02-14 02:18:08,The Bay,city,"Oakland, CA",United States
41940,-121.967821,37.370990000000006,Jas Sajjan,1054461906205822977,2020-02-18 19:49:11,The Bay,city,"Santa Clara, CA",United States
41860,-122.2286855,37.791994,Jas Sajjan,1054461906205822977,2020-02-20 02:24:19,The Bay,city,"Oakland, CA",United States
120,100.36118499999999,6.081335,syafiqah,1054462034299895808,2020-03-02 05:58:08,Malaysia,poi,Switch (Apple Premium Reseller),Malaysia
162,20.4167,51.8833,Kobieta w Sadzie,1054462040696410112,2020-03-21 14:29:48,"Grjec, Polska",city,"Kowiesy, Polska",Poland
205,-0.6188560000000001,54.481283,CCW_DTFood,1054462330052984832,2020-02-27 11:47:17,"Whitby, England",city,"Whitby, England",United Kingdom
200,38.8010215,37.146854499999996,semra zdemir,1054462495996420096,2020-04-02 20:05:25,"anlurfa Merkez, anlurfa",city,"anlurfa, Trkiye",Turkey
222,105.88213294,-6.10100555,Novan Prihasa,105446255,2020-02-17 12:11:48,"Banten, Indonesia",city,"Anyer, Indonesia",Indonesia
38240,-79.40484699999998,35.18461999999999,$arah Jean,1054463006,2020-05-09 16:04:16,"Southern Pines, NC",city,"Southern Pines, NC",United States
48900,-77.907815,33.9935075,$arah Jean,1054463006,2020-05-25 02:55:21,"Southern Pines, NC",city,"Kure Beach, NC",United States
21,-43.441578,-22.911421500000003,Larissa Laranja,1054463037858635776,2020-04-06 18:42:40,"Rio de Janeiro, Brasil",city,"Rio de Janeiro, Brasil",Brasil
88,139.45494399999998,35.47168600000001,,105446323,2020-02-22 02:45:45, ,city, ,
200,29.0052225,41.0213205,if,105446332,2020-02-15 22:54:44,"stanbul, Trkiye",city,"stanbul, Trkiye",Trkiye
222,106.75246499999999,-6.552212,aya ,1054463497,2020-05-06 13:39:43,,poi,Center for International Forestry Research (CIFOR),Indonesia
45,12.077772999999999,55.627728000000005,KING ADRIAN$,1054463942758727680,2020-02-15 15:48:41,The One,poi,Boxing Room,Denmark
88,130.555749,31.522809000000002,aran@,1054464049,2020-02-14 08:38:08,,city, ,
120,100.18492079,6.43539727,NasrulNasrodin,105446407,2020-03-14 12:33:32,"Kuala Muda, Kedah",city,"Wang Bintong, Perlis",Malaysia
45300,-82.7177,28.2489,us19Sign,1054464189627031552,2020-03-03 00:28:34,,city,"New Port Richey, FL",United States
45540,-81.9968975,28.922832,us19Sign,1054464189627031552,2020-03-17 22:38:33,,city,"The Villages, FL",United States
45300,-82.73391,28.22304,us19Sign,1054464189627031552,2020-03-22 16:35:18,,city,"New Port Richey, FL",United States
65,2.375698,48.666244000000006,juan djem 2,1054464254588395520,2020-05-02 19:04:32,"Paris, France",city,"Viry-Chtillon, France",France
24,-123.123581,49.257639000000005,Derrick Foote | Derrickf.eth,1054464791249477632,2020-03-17 02:38:57,"Vancouver, British Columbia",city,"Vancouver, British Columbia",Canada
8,-65.237957,-26.792665500000002,L A D Y ,1054464876117217281,2020-04-02 15:09:14,"Tucumn, Argentina",city,"Diagonal Norte, Argentina",Argentina
8,-67.99690047,-38.93879205,melani brck,1054465200,2020-04-03 22:21:05,,city,"Cipolletti, Argentina",Argentina
8,-58.37413299999999,-34.921782500000006,Milquella Reyes,1054465266577477632,2020-04-01 02:03:42,Ciudad Autnoma de Buenos Aire,city,"Guernica, Argentina",Argentina
39300,-71.5521885,41.8882115,Nina Jarvis,1054465538787827712,2020-02-24 21:29:53,Smithfield RI,city,"Greenville, RI",United States
21,-43.188559999999995,-22.912312,Patricia ,1054465672208678913,2020-02-15 00:44:10,Brasil,poi,Instituto Nacional de Cncer (INCA) / Hospital do Cncer I (HC I),Brasil
16980,-87.676851,41.909977000000005,TOMMIE VII,1054466160,2020-03-05 20:13:21,"Chicago, IL",poi,Myopic Books,United States
171,121.09037350000001,14.278017000000002,Ms. Chubby Cheeks ,1054466168,2020-02-15 12:49:59,,city,"Santa Rosa City, Calabarzon",Republic of the Philippines
21,-40.292823,-20.2804105,Dadinho FR HB,1054466505524592640,2020-03-24 12:31:12,"Bairro da Penha, Vitria",city,"Vitria, Brasil",Brasil
65,2.942756,49.155184999999996,RAVE,1054466576307634176,2020-06-03 09:15:08,,city,"Betz, France",France
38,-74.849933,10.958072999999999,Jose Luis,1054466693588811778,2020-02-21 04:47:12,"Barranquilla, Colombia",city,"Barranquilla, Colombia",Colombia
87,44.431583,32.508419, ,1054466770017357826,2020-03-24 16:14:05, ,poi,Hilla,Iraq
36540,-96.053431,41.275721,Nebraska Thunder Gold 15U,1054466885201420288,2020-03-31 00:48:36,"Omaha, NE",city,"Omaha, NE",United States
43060,-96.93365849999999,35.347545000000004,Nebraska Thunder Gold 15U,1054466885201420288,2020-05-26 14:47:21,"Omaha, NE",city,"Shawnee, OK",United States
17860,-92.163949,38.952286,Nebraska Thunder Gold 15U,1054466885201420288,2020-06-06 12:19:06,"Omaha, NE",poi,Twin Oaks,United States
36540,-96.053431,41.275721,Nebraska Thunder Gold 15U,1054466885201420288,2020-06-08 19:10:03,"Omaha, NE",city,"Omaha, NE",United States
28140,-94.79019749999999,39.0084315,Nebraska Thunder Gold 15U,1054466885201420288,2020-06-10 23:10:59,"Omaha, NE",city,"Shawnee, KS",United States
205,-2.2874055,51.7481265,Karen Webb,1054467101455515648,2020-02-15 08:30:07,"South East, England",city,"Stonehouse, England",United Kingdom
222,122.801083,0.8463944999999999,"Susirohowuna, S.Pd",1054467121,2020-05-29 03:27:02,Gorontalo Indonesia,city,"Kwandang, Indonesia",Indonesia
21,-46.03199,-18.37671,Cleyton Estrela,105446727,2020-04-19 23:45:48,Varjo de Minas,city,"Varjo de Minas, Brasil",Brasil
200,35.512278,38.717048999999996,Haim,1054467411896922117,2020-06-08 17:28:00,,poi,erciyes da,Turkey
65,7.00939,43.539879,Dr Smoke CBD France,1054467462320869377,2020-03-09 15:36:23,"Cannes, France",city,"Cannes, France",France
69,-0.0189785,5.703022000000002,Amewugah Ebenezer,1054467496286265345,2020-03-16 10:15:08,"Greater Accra, Ghana",city,"Tema, Ghana",Ghana
205,-1.4667,53.3833,Maths @ Astrea Academy Sheffield,1054467728516489217,2020-04-15 20:07:00,"Sheffield, England",city,"Sheffield, England",United Kingdom
31080,-118.20300800000001,33.980052,g,1054468083551756291,2020-02-17 10:15:50,w/ Sayda ,poi,Gage Bowl,United States
24340,-85.6411415,42.9564115,Honey B. ,1054468102912647169,2020-02-14 03:15:31,"Grand Rapids, MI",city,"Grand Rapids, MI",United States
22300,-83.6339035,41.0550135,PRINCESSOFDUSSE .,1054468102912647169,2020-05-29 19:18:49,"Grand Rapids, MI",city,"Findlay, OH",United States
18140,-83.00198800000003,40.103977,PRINCESSOFDUSSE .,1054468102912647169,2020-05-29 20:56:35,"Grand Rapids, MI",city,"Worthington, OH",United States
88,134.947655,34.6829365,,1054468201906458626,2020-02-19 01:44:21,,city, ,
21,-52.69915400000001,-29.5851945,Fran,1054468548939137024,2020-06-05 23:57:32,"Vale do Sol, Brasil",city,"Vale do Sol, Brasil",Brasil
8,-58.4,-34.6333,sosa,1054468676777316353,2020-03-15 00:26:01,Boke,city,"Villa Soldati, Argentina",Argentina
205,0.003182,51.502827,superm in London TODAY,1054469111705755649,2020-02-28 15:59:16,Polska,poi,The O2 Arena,United Kingdom
162,14.624604000000001,53.429852000000004,missing SuperM,1054469111705755649,2020-03-09 18:28:37,Polska,city,"Szczecin, Poland",Poland
65,3.1126915,45.786915,Kevin Musialska,1054469329922732032,2020-03-03 11:17:57,"Puy-de-Dme, Auvergne",city,"Clermont-Ferrand, France",France
82,72.87424399999999,19.174139999999998,H.E.Amb. Dr. Pandari S. Shetty,105446952,2020-03-06 15:57:22,india,city,"Mumbai, India",India
88,131.449548,33.289239499999994,,1054469775772938240,2020-03-18 22:00:54, ,city, ,
42660,-122.29628100000001,47.1192855,BdJonz,1054469813060288512,2020-03-13 21:47:14,"Washington, USA",city,"South Hill, WA",United States
186,3.068006,39.8897655,XMM,1054470139503087616,2020-03-20 19:10:05,,city,"Pollena, Spain",Spain
21,-38.5026475,-12.8753345,Rafael Cheffer,1054470425974112258,2020-02-29 21:47:49,"Salvador, Brasil",city,"Salvador, Brasil",Brasil
39,-84.08085299999998,9.9303,Nathalia Gomez,1054470450653335552,2020-03-09 22:52:57,,city,"San Jose, Costa Rica",Costa Rica
41700,-98.5406515,29.417501,Mel,1054470569545084933,2020-05-17 18:50:47,"San Antonio, TX",city,"San Antonio, TX",United States
205,-4.2417515,55.85830249999999,the charlatunes,1054470576377618432,2020-02-15 15:53:25,"Glasgow, Scotland",city,"Glasgow, Scotland",United Kingdom
160,-78.03167350000003,-7.8268580000000005,Pr. Alex Arteaga,1054470721156644868,2020-03-11 06:10:20,Peru,city,"Huamachuco, Peru",Peru
19100,-97.11477049999999,33.202495500000005,Alex 2.0,1054470852065026048,2020-02-17 08:32:08,"Denton, TX",city,"Denton, TX",United States
41740,-117.10498899999999,32.810012,Alex 2.0,1054470852065026048,2020-03-09 03:08:41,"Denton, TX",city,"San Diego, CA",United States
19100,-97.11477049999999,33.202495500000005,Alex 2.0,1054470852065026048,2020-03-17 17:48:25,"Denton, TX",city,"Denton, TX",United States
41740,-117.10498899999999,32.810012,Alex 2.0,1054470852065026048,2020-03-21 17:24:40,"Denton, TX",city,"San Diego, CA",United States
19100,-97.11477049999999,33.202495500000005,Alex 2.0,1054470852065026048,2020-03-23 00:13:47,"Denton, TX",city,"Denton, TX",United States
41740,-117.14998484,32.73005389,Alex 2.0,1054470852065026048,2020-03-26 01:24:15,"Denton, TX",city,"San Diego, CA",United States
19100,-97.11477049999999,33.202495500000005,Alex 2.0,1054470852065026048,2020-03-27 16:19:17,"Denton, TX",city,"Denton, TX",United States
38,-74.24367099999999,4.2622835,,1054470864425619456,2020-04-26 20:44:14,El lugar maravilloso. ,city,"Bogot, D.C., Colombia",Colombia
24,-79.27256949999999,43.629311,OPIO,1054470927239368706,2020-03-15 02:26:11,"Toronto, Ontario",city,"Toronto, Ontario",Canada
23540,-82.3302695,29.6731715,Lily Rucci,1054471207976886272,2020-06-04 15:50:12,"Gainesville, FL",city,"Gainesville, FL",United States
21,-43.363044,-22.945563,PRETIN ASTRO ,1054471313186873345,2020-05-01 23:06:38,Rua ,poi,OI Cidade de Deus,Brasil
175,40.426009,21.295882000000002,,1054471373589004288,2020-02-22 07:55:59,My self,poi,|coffea,  
38380,-101.70175400000001,34.1887265,baby j,1054471380551548928,2020-02-14 01:52:23,"Plainview, TX",city,"Plainview, TX",United States
11100,-101.816092,35.211115500000005,baby j,1054471380551548928,2020-02-29 22:24:49,"Plainview, TX",city,"Amarillo, TX",United States
38380,-101.70175400000001,34.1887265,baby j,1054471380551548928,2020-03-01 23:43:02,"Plainview, TX",city,"Plainview, TX",United States
11100,-101.908303,35.0562195,j a z ,1054471380551548928,2020-03-15 20:49:17,"Plainview, TX",city,"North Randall, TX",United States
38380,-101.70175400000001,34.1887265,j a z ,1054471380551548928,2020-03-16 18:10:54,"Plainview, TX",city,"Plainview, TX",United States
19100,-97.2859135,32.7799665,j a z ,1054471380551548928,2020-05-02 17:18:24,"Plv,Tx",city,"Fort Worth, TX",United States
38380,-101.70175400000001,34.1887265,j a z ,1054471380551548928,2020-05-12 19:18:47,"Plv,Tx",city,"Plainview, TX",United States
31180,-101.897173,33.5705265,j a z ,1054471380551548928,2020-05-13 03:47:25,"Plv,Tx",city,"Lubbock, TX",United States
38380,-101.70175400000001,34.1887265,j a z ,1054471380551548928,2020-05-13 06:13:29,"Plv,Tx",city,"Plainview, TX",United States
31180,-101.897173,33.5705265,j a z ,1054471380551548928,2020-05-14 00:55:58,"Plv,Tx",city,"Lubbock, TX",United States
38380,-101.70175400000001,34.1887265,j a z ,1054471380551548928,2020-05-16 16:35:34,"Plv,Tx",city,"Plainview, TX",United States
49,-80.091193,-2.512995,Aldo Alvarez,1054471506,2020-02-28 13:50:42,,city,"Guayaquil, Ecuador",Ecuador
96,48.079479,29.343309,,1054471570905858049,2020-06-08 13:13:31,,poi,sky dental,Kuwait
30700,-96.69247,40.832676,Brandon Meier,1054471586655494146,2020-02-14 22:00:59,"Lincoln, NE",poi,Conference Center At Innovation Campus,United States
38900,-122.708335,45.537287,Brandon Meier,1054471586655494146,2020-02-20 02:01:56,"Lincoln, NE",poi,Adidas,United States
30700,-96.6965625,40.803235,Brandon Meier,1054471586655494146,2020-03-07 02:32:31,"Lincoln, NE",city,"Lincoln, NE",United States
200,29.0052225,41.0213205,Hasan Saral,1054471655370698752,2020-03-01 04:06:59,"stanbul, Trkiye",city,"stanbul, Trkiye",Turkey
152,4.684829,52.3004295,The Menace,1054472019574734848,2020-02-24 12:57:11,Wonderland,city,"Haarlemmermeer, Nederland",The Netherlands
205,-0.17311500000000002,51.5248355,The Menace,1054472019574734848,2020-02-28 14:21:28,Wonderland,city,"Paddington, London",United Kingdom
47900,-77.0784075,39.0195985,The Menace,1054472019574734848,2020-03-15 12:32:20,Wonderland,city,"South Kensington, MD",United States
23180,-84.87524,38.199290000000005,Jennifer Wheeler,1054472026142982145,2020-02-19 15:22:21,,poi,Kentucky Historical Society,United States
47900,-77.0143985,38.898603,Jennifer Wheeler,1054472026142982145,2020-03-09 02:36:57,,city,"Washington, DC",United States
191,8.486419999999999,47.198631,Personaltrainingzug,1054472055557705730,2020-02-21 10:33:38,"Zug, Switzerland",city,"Steinhausen, Schweiz",Schweiz
82,72.2395255,25.83727,Rajendra Choudhary,1054472065653174272,2020-03-07 10:39:41,"Jodhpur, India",city,"Balotra, India",India
200,41.2655875,39.9100375,mer Demir,1054472438275342336,2020-02-17 16:15:42,"Erzurum, Trkiye",city,"Erzurum, Trkiye",Trkiye
85,17.888317,40.5932125,Desi ,1054472516922687488,2020-02-14 17:15:38,"Roma, Lazio",city,"Brindisi, Puglia",Italia
200,39.7140255,40.9691995,birkan elik,1054472544953270273,2020-04-12 18:57:28,,city,"Trabzon, Trkiye",Trkiye
151,3.3180660000000004,6.590611,Damjay,1054472624821157888,2020-06-04 14:21:24,,city,"Ikeja, Nigeria",Nigeria
21,-43.5243665,-22.696528,claudio teixeira,105447277,2020-04-04 12:12:15,"Nova Iguau, Brasil",city,"Nova Iguau, Brasil",Brasil
69,-0.33328800000000003,5.549599,Mr. Willson,1054472822309957632,2020-03-11 23:25:32,"Greater Accra, Ghana",city,"New Bortianor, Ghana",Ghana
205,-2.9789935,55.958047,Cece Rodgers,1054472862017507328,2020-03-11 02:20:22,,city,"Prestonpans, Scotland",United Kingdom
200,27.2664353,37.787531,tuanalmira,1054472995740237825,2020-03-15 13:22:00,,city,"Kuadas, Trkiye",Trkiye
82,75.5626,21.0077,Santosh Lulla,1054473391,2020-02-15 07:15:11,"Jalgaon, India",city,"Jalgaon, India",India
33,-70.677511,-33.388362,r.Crisgreen ,1054473498557595650,2020-05-17 01:50:43,"Santiago, Chile",poi,punta de tralca,Chile
119,-100.44059449999999,20.7152745,Moradaniel,1054473563078569984,2020-04-13 09:46:47,,city,"Quertaro, Quertaro Arteaga",Mxico
26420,-95.4464865,29.838495,@USTVeterans,1054473604904173568,2020-04-01 03:36:47,,city,"Houston, TX",United States
200,29.3083375,40.4889625,Mesut Gltekin,1054473650,2020-02-14 16:54:13,Orhangazi,city,"Orhangazi, Trkiye",Trkiye
35980,-72.07396,41.320171,Mike D.,1054473990465638400,2020-04-14 17:09:41,Coastal Connecticut ,poi,Eastern Point Beach,United States
21,-46.5955455,-23.682803,Miguel Messina Neto,1054474171495997440,2020-02-23 15:13:02,"So Paulo, Brasil",city,"Sao Paulo, Brazil",Brazil
88,139.65925049999998,35.7060655,/Bull's cafenakanoshimbashi,1054474670487945216,2020-02-26 12:49:12, ,city, ,
21,-43.441578,-22.911421500000003,Gabriel Oliveira,1054474919357112321,2020-02-14 09:52:10,"Rio de Janeiro, Brasil",city,"Rio de Janeiro, Brasil",Brasil
88,138.519343,35.616351,@,1054475035,2020-02-14 21:50:38,,city, ,
200,27.981934000000006,41.301428,Soner elik55,1054475059027435522,2020-02-16 13:59:32,"erkezky, Trkiye",city,"erkezky, Trkiye",Trkiye
65,1.090884,49.3832955,beya ,1054475146969399301,2020-02-16 15:11:21,"Rouen, France",city,"Saint-Etienne-du-Rouvray, France",France
151,3.324877,6.449517,Bako1st of Lagos,1054475274,2020-04-08 08:13:00,"Lagos, Nigeria",poi,Olodi Apapa Ajegunle,Nigeria
200,28.968794,41.037890999999995,Esma,1054475276305027072,2020-04-15 18:48:01,Dolunay,city,"Siirt, Trkiye",Trkiye
25420,-77.0055005,40.21105950000001,#MAGA Matt,1054475367661088769,2020-02-16 13:02:31,"Pennsylvania, USA",city,"Mechanicsburg, PA",United States
25180,-77.98526700000001,39.460648,#MAGA Matt,1054475367661088769,2020-06-03 17:47:55,"Pennsylvania, USA",city,"Martinsburg, WV",United States
175,46.685077,24.7219435,RIASH App  ,1054475381305233408,2020-03-22 10:27:56,Riyadh,city,",   ",  
21,-55.842543000000006,-15.455176500000002,Darksiders,1054475487874039813,2020-04-06 01:25:54,"Cuiab, Brasil",city,"Cuiab, Brasil",Brasil
65,7.262902,43.730878000000004,Zoro,1054475492777230337,2020-03-28 15:15:51,France,poi,Nice,France
41180,-90.786302,38.779639,Brysen ,1054475507906023424,2020-03-30 03:41:40,"St. Louis, Mo",city,"Lake St Louis, MO",United States
88,139.6262955,35.69816249999999,,1054475574125555712,2020-03-18 04:31:16,,city, ,
88,139.543121,35.7362125,Tknr,1054475731688861696,2020-04-19 02:33:40,,city, ,
96,47.81146097,29.3120228, ,1054475751284727808,2020-02-22 19:57:35,   ,city,"Doha Residential, Kuwait",Kuwait
21,-48.537909,-25.808507000000002,duda,1054475782997848064,2020-02-23 22:04:57,"Curitiba, Brasil",poi,Matinhos Beach,Brasil
200,34.184459000000004,39.1439695,Ilay K,1054475823472885760,2020-02-20 20:12:35,"Antalya, Trkiye",city,"Krehir, Trkiye",Trkiye
24940,-82.154157,34.192814,Lander Club Baseball,1054475938547879936,2020-02-14 02:43:40,"Greenwood, SC",city,"Greenwood, SC",United States
12060,-84.06610599999998,34.0489705,Lander Club Baseball,1054475938547879936,2020-03-01 20:18:51,"Greenwood, SC",city,"Suwanee, GA",United States
24940,-82.154157,34.192814,Lander Club Baseball,1054475938547879936,2020-03-04 20:25:38,"Greenwood, SC",city,"Greenwood, SC",United States
200,32.83659,39.926786,Melek OLAK,1054476036329664512,2020-05-18 22:27:42,,poi,Antkabir,Turkey
31080,-117.5957275,33.629414000000004,Trujillo,1054476114,2020-03-02 20:07:08,,city,"Rancho Santa Margarita, CA",United States
175,46.685077,24.7219435,..,1054476176041873414,2020-02-22 20:42:14,,city,"Riyadh, Kingdom of Saudi Arabia",Kingdom of Saudi Arabia
186,-7.9048465,42.34325,Eom Galicia-Okos Salud&Formacin,1054476481093603328,2020-02-24 15:21:14,"Vigo, Espaa",city,"Ourense, Espaa",Espaa
119,-106.568008,31.452274000000006,Veronica Martinez,1054476540317220864,2020-03-09 04:25:24,"El Paso, TX/ Ciudad Jurez",city,"Jurez, Chihuahua",Mexico
21340,-106.4174305,31.793368,Veronica Martinez,1054476540317220864,2020-03-20 00:03:56,"El Paso, TX/ Ciudad Jurez",city,"El Paso, TX",United States
222,106.82648999999999,-6.17148,griyalimagaruda,1054476584562778113,2020-02-18 16:55:08,Subang,city,"Gambir, Indonesia",Indonesia
21,-43.358887,-22.77188,Menino Talib ,1054476597376491520,2020-02-14 19:53:40,"Boa Vista, So Gonalo",poi,Aonde Os Alemo No Brota,Brasil
41700,-98.5406515,29.417501,captainkaddy,105447672,2020-03-26 07:05:18,"Texas, USA",city,"San Antonio, TX",United States
21,-46.5955455,-23.682803,DoPaMina,1054476748790865920,2020-02-16 18:14:17,"So Paulo, Brasil",city,"Sao Paulo, Brazil",Brazil
65,2.5953885,48.8843705,SAMIRSABE,1054476930379116544,2020-04-08 10:04:57,"Paris, France",city,"Chelles, France",France
88,139.810157,35.6450615,,1054477531129118720,2020-03-29 05:46:36, ,city,"Koto-ku, Tokyo",Japan
21,-48.077502,-15.864916000000001,Anderson Emanuel Balbino,1054477795353595904,2020-03-14 10:55:10,"Braslia, Brasil",poi,Residencial Rio Verde,Brasil
41860,-122.1020265,37.938028499999994,"Cataldo Tax Law, P.C.",1054477984973778945,2020-02-16 18:01:49,"California, USA",city,"Reliez Valley, CA",United States
171,125.4432615,7.317582499999999,K,1054478074421501952,2020-03-07 11:00:56,,city,"Davao City, Davao Region",Republic of the Philippines
21,-38.348953,-12.948971,UBER Puto de Salvador ,1054478160446795776,2020-02-14 10:57:45,"Salvador, Brasil",poi,Pedra do Sal,Brasil
200,37.387009000000006,37.062044,Salih zcan,1054478170215378946,2020-02-14 08:24:15,"Gaziantep, Trkiye",city,"Gaziantep, Trkiye",Trkiye
151,7.4078919999999995,6.859891999999999,Gideon Onyebuchi,1054478348527775750,2020-03-20 07:08:32,Ikeja lagos,poi,"University of Nigeria,Nsukka",Nigeria
9,150.931975,-33.848244,rhodincollection,1054478474058981376,2020-05-26 06:45:05,"Bondi Beach, Sydney",city,"Sydney, New South Wales",Australia
88,139.9712767,35.8583281,,105447893,2020-04-03 11:57:24,,city, ,
200,35.28488,37.002826500000005,sude.,1054478944773251072,2020-02-22 16:51:23,,city,"Adana, Trkiye",Turkey
85,10.0260435,45.136547500000006,Puiu Ionel,105447896,2020-02-22 19:24:34,Romania,city,"Cremona, Lombardy",Italy
82,78.46509449999998,17.3886495,Iamfaraz,1054479217751015424,2020-03-09 02:20:25,"Hyderabad, India",city,"Hyderabad, India",India
31080,-118.4119065,34.0207895,Ernesto Pea,1054479243910889472,2020-02-16 04:14:31,"Van Nuys, Los Angeles",city,"Los Angeles, CA",United States
40140,-117.386642,34.0976985,Ernesto Pea,1054479243910889472,2020-06-02 17:45:05,"Van Nuys, Los Angeles",city,"Rialto, CA",United States
178,28.060613,-26.058708,Andswa,1054479435271942144,2020-03-08 14:04:45,,city,"Sandton, South Africa",South Africa
200,43.3593375,38.5146485,Ali TEKN,1054479480629145600,2020-02-14 21:06:41,,city,"Van, Trkiye",Turkey
200,27.998517,40.322996999999994,Grkem Dnmez,1054479872867872770,2020-03-25 08:34:55,,poi,Bandrma Kk Sanayi Sitesi,Turkey
88,132.15478000000002,34.225086000000005,3,105448025,2020-02-16 01:04:22,,city, ,
200,27.006511,38.4079305,BukleliSarn,1054480443238764544,2020-02-14 10:41:52,"Bozyk, Bilecik",city,"zmir, Trkiye",Turkey
85,7.92948961,43.93784798,Az.Agr. AgriCotta,1054480766,2020-03-13 12:42:29,Vasia fr.Pantasina (IM) Italy,city,"Prel, Liguria",Italia
186,-1.7016900000000001,38.231237,Comit de Hermanamiento de Calasparra,1054480854695755776,2020-02-21 09:54:20,"Calasparra, Espaa",poi,Biblioteca Municipal de Calasparra,Espaa
71,9.814442,48.6832945,Comit de Hermanamiento de Calasparra,1054480854695755776,2020-05-03 16:10:13,"Calasparra, Espaa",city,"Donzdorf, Deutschland",Alemania
69,0.466667,6.6,EllaNaiseofficial,1054480869367472129,2020-03-04 10:29:10,Ghana,city,"Ho, Ghana",Ghana
175,39.2541285,21.5857105,Mariam almotari,1054481245617471489,2020-04-29 18:08:38,,city,"Jeddah, Kingdom of Saudi Arabia",Kingdom of Saudi Arabia
9,153.3693615,-27.954221500000003,Hirotaka Ochiai,1054481335,2020-03-22 15:57:11,"Gold Coast, Queensland",city,"Gold Coast, Queensland",Australia
19340,-90.520143,41.507745,ally,1054481350567358464,2020-02-14 07:17:01,"La Porte, IN",poi,TaxSlayer Center,United States
16580,-88.23592321,40.09630254,Mundelein HS Wrestling,1054481351523688449,2020-02-21 00:10:10,"Mundelein, IL",city,"Champaign, IL",United States
88,135.47841599999998,34.666346399999995,,105448149,2020-02-15 12:50:14,,city,  ,
151,9.788620000000002,10.268124,Trevor_stix,1054481816332197888,2020-02-19 18:27:10,"Jos, Nigeria",city,"Yelwa, Nigeria",Nigeria
9,150.931975,-33.848244,Ruby ,1054481953347428352,2020-04-05 06:49:48, uoouo,city,"Sydney, New South Wales",Australia
21,-44.1754915,-22.487255,Ana Luiza,1054481956514213888,2020-02-14 03:19:29,"Barra Mansa, Brasil",city,"Barra Mansa, Brasil",Brasil
119,-96.9220115,19.550553,Michelle Avila,1054482109,2020-04-28 15:45:00,Mxico,neighborhood,"Progreso Macuiltepetl, Xalapa",Mxico
30980,-94.75107,32.50288,QVEEN.BRE  ,1054482264472596480,2020-02-15 14:58:41,"Nacogdoches, TX",city,"Longview, TX",United States
24,-73.4497535,45.449001,Carla Perez,1054482582052712448,2020-02-14 17:43:14,,city,"Brossard, Qubec",Canada
119,-105.1485805,20.6970525,Carla Perez,1054482582052712448,2020-02-27 22:58:37,,city,"Puerto Vallarta, Jalisco",Mexico
24,-73.4497535,45.449001,Carla Perez,1054482582052712448,2020-04-01 03:27:45,,city,"Brossard, Qubec",Canada
41180,-90.247824,38.653771,Bourbon Friday,1054482585097850880,2020-03-02 02:42:37,"St Louis, MO",city,"St Louis, MO",United States
46520,-158.005818,21.428026000000006,Perie Danao,1054482595298258945,2020-03-05 03:43:47,"Hawaii, USA",city,"Waipio, HI",United States
21,-48.512289,-27.141132,natalia,1054482600310530050,2020-02-20 20:30:09,"Bombinhas, Brasil",poi,Pousada Floresta,Brazil
82,77.5564225,13.075209,Harish Hari Oam,1054482644283547648,2020-02-15 06:52:42,"Bengaluru, India",city,"Bengaluru, India",India
200,27.006511,38.4079305,Mehmet ince,1054482774902689795,2020-04-02 21:05:58,,city,"zmir, Trkiye",Trkiye
186,-2.966106,39.220328,en Tomelloso / ,105448285,2020-02-15 19:18:19,Tomelloso,city,"Tomelloso, Espaa",Espaa
175,49.6276765,25.458642,  ,1054482990296940545,2020-04-09 04:49:56,  ,city,",   ",  
191,6.2394315,46.3811705,Ignite That Spark,1054483036941754377,2020-04-02 10:22:49,,city,"Nyon, Switzerland",Switzerland
186,-3.7069099999999997,40.41458,MadVape Shop,1054483080415768576,2020-02-22 18:30:54,"Madrid, Spain",city,"Madrid, Espaa",Espaa
8,-58.785095,-34.390839,Pablo.,1054483146,2020-04-01 02:11:24,"Beln de Escobar, Argentina",city,"Beln de Escobar, Argentina",Argentina
65,2.2478525,48.950032,Amine,1054483249794297856,2020-05-25 18:27:36,,city,"Argenteuil, France",France
175,46.718182,24.8090936,,1054483306245447685,2020-03-12 20:56:26,+966,city,"Riyadh, Kingdom of Saudi Arabia",Kingdom of Saudi Arabia
16980,-87.64151650000001,41.7752935,cyd !!,1054483381650706432,2020-03-27 01:41:58,"Wisconsin, USA",neighborhood,"Englewood, Chicago",United States
8,-58.442643,-34.604315,tsunamideviaje,1054483607799115777,2020-03-10 20:25:20,,city,"Ciudad Autnoma de Buenos Aires, Argentina",Argentina
33460,-93.085509,44.90338300000001,Hope4all,1054483789542555648,2020-03-01 05:58:45,,city,"West St Paul, MN",United States
9,145.0531355,-37.9725665,maybe: leilani,1054483800762142720,2020-06-06 10:19:19,"Melbourne, Victoria",city,"Melbourne, Victoria",Australia
119,-98.1542665,19.0322295,lari anjos,1054483815396192256,2020-05-02 12:25:51,"Curitiba, Brasil",city,"Puebla, Mxico",Mexico
171,120.96950149999999,14.430456499999998,,1054484058044956672,2020-05-08 21:44:00,CVT,city,"Bacoor, Calabarzon",Republic of the Philippines
175,39.07861405,22.40321504,Asma,1054484138110185472,2020-02-14 18:58:07,"Jeddah, Kingdom of Saudi Arabia",city,"King Abdullah Economic City, Kingdom of Saudi Arabia",Kingdom of Saudi Arabia
193,98.3797955,18.6847215,Nong ple,1054484191004381184,2020-03-02 06:29:40,"., ",city,", ",
88,134.84912549999999,34.782711500000005,,105448440,2020-02-16 09:11:31, ,city, ,
29820,-115.13337299999999,36.24912449999999,name can not be blank #RaidRescueTeam,1054484459636973569,2020-04-22 22:22:55,,city,"North Las Vegas, NV",United States
24,-79.27256949999999,43.629311,Justin Fraser,1054484844619677696,2020-03-18 05:47:26,"Toronto, Ontario",city,"Toronto, Ontario",Canada
175,46.449110499999996,24.941196, ,1054484909966921728,2020-03-28 18:56:17,,city,"Al Jubayla, Kingdom of Saudi Arabia",Kingdom of Saudi Arabia
205,-4.465256,55.908064,Sam,1054485121674424320,2020-03-04 21:48:09,"Airdrie, Scotland",poi,Spar,United Kingdom
120,101.76208249999999,3.2939305,Fatin Zulaikha,1054485342,2020-03-03 06:26:34,"Gombak, Selangor",city,"Setapak, Selangor",Malaysia
119,-103.300957,20.525609,Gilberto Lemus,1054485376495013888,2020-03-23 12:25:17,"Stockton California, USA",poi,"Aeropuerto Internacional de Guadalajara ""Miguel Hidalgo y Costilla"" (GDL)",Mexico
222,106.642845,-6.30452,Dennis Gustiputra W.,105448545,2020-03-23 12:30:25,"Jakarta Capital Region, Indone",poi,AEON Supermarket,Indonesia
193,100.622366,13.6257595,nongbess,105448550,2020-03-19 17:08:17,"13.630246,100.614888",city,", ",
232,12.46666667,43.93333333,DOMANI - Motus Liberi,1054485517495160843,2020-03-21 09:46:32,San Marino,city,"Borgo Maggiore, San Marino",San Marino
88,138.922254,35.115596000000004,art musique ,105448554,2020-03-26 13:01:44,,poi,art musique ,
14860,-73.396371,41.46737,samantha gregus,1054485600777191425,2020-03-02 02:41:59,,city,"Brookfield, CT",United States
200,29.0052225,41.0213205,deniz-19,105448579,2020-05-19 15:49:24,"stanbul, Trkiye",city,"stanbul, Trkiye",Trkiye
172,-67.22585849999999,18.3161565,Alexis,1054485827638751234,2020-02-17 11:02:34,Puerto Rico ,city,"Calvache, USA",Estados Unidos
178,30.9725795,-29.900636,Tim Lewis,1054485900,2020-03-02 04:51:33,"Durban, South Africa",city,"Durban, South Africa",South Africa
200,35.28488,37.002826500000005,Sherlock Edu,1054485942956933121,2020-05-06 18:46:21,"Adana, Turkey",city,"Adana, Trkiye",Turkey
164,-9.153767,38.746271,Matilde Anti Teens we suck,1054485961181220866,2020-06-07 22:07:49,priv: @meantilde,poi,Policia Municipal de Lisboa,Portugal
222,116.118861,-8.6281435,Bulan Berbisik,1054485975416487936,2020-02-14 07:21:19,"Yogyakarta, Indonesia",city,"Labuapi, Indonesia",Indonesia
205,-4.7558760000000015,55.939201000000004,Elaine  nilsen,1054485985554239488,2020-03-25 09:11:46,United Kingdom,city,"Greenock, Scotland",United Kingdom
39300,-71.38521879,41.81649899,Zach Attack,1054486014541078529,2020-02-23 03:40:48,,city,"East Providence, RI",United States
200,29.034805,41.061646,Eda,1054486103330295808,2020-02-16 23:45:22,stanbul,poi,Kilyos Demirciky Sahil,Turkey
200,41.289418,39.88823,nsomnia,1054486417986981888,2020-03-24 17:40:10,"skdar, stanbul",poi,Erzurum Palandken,Trkiye
88,139.678834,35.786588,TOKYO,1054486560454791169,2020-03-05 08:00:44, ,poi,,Japan
200,28.329271999999996,37.9124805,batn mer yavuz,1054486993713934336,2020-02-14 18:28:09,,city,"Nazilli, Trkiye",Trkiye
200,28.998233000000003,41.089807,au_espor,1054487185712394245,2020-02-21 08:45:46,"Antalya, Trkiye",poi,Yldz Teknik niversitesi,Trkiye
21,-43.018208,-22.821465,.,1054487245363834881,2020-02-14 02:11:38,"Jardim Catarina, So Gonalo",city,"So Gonalo, Brasil",Brasil
35620,-74.15394699999997,40.57237600000001,Shann,1054487367992700934,2020-03-07 14:44:38,"New York, NY",city,"Staten Island, NY",United States
21,-48.448275,-1.405777,,1054487417892282368,2020-03-29 22:29:15, FSSF,poi,here,Brasil
21,-43.441578,-22.911421500000003,Ctia,1054487553506791426,2020-02-25 06:01:31,"Rio de Janeiro, Brasil",city,"Rio de Janeiro, Brasil",Brasil
29700,-99.454676,27.532077,Alma Leos ,1054487626823188480,2020-02-15 06:45:14,,city,"Laredo, TX",United States
15180,-97.8215865,26.135271,Alma Leos ,1054487626823188480,2020-02-20 03:15:29,,city,"Arroyo Alto, TX",United States
42340,-81.258317,31.9004695,Ashley Snider,1054487901998854146,2020-02-18 23:52:16,"Richmond Hill, GA",city,"Rabbit Hill, GA",United States
36740,-81.492959,28.357869,ACEedu,1054488012137082880,2020-02-26 21:20:52,"Orlando, FL",poi,Caribe Royale Convention Center,United States
24,-75.68973000000001,45.41668,Queer Sphere Expo,1054488256224477184,2020-03-03 15:44:25,"Ottawa, Ontario",city,"Ottawa, Ontario",Canada
95,127.03535500000001,37.263335999999995,,105448885,2020-03-04 11:11:39,?,poi,,
37980,-74.7850875,39.832731,Debbie,1054489128602079232,2020-03-23 11:58:12,,city,"Medford Lakes, NJ",United States
41860,-122.419,37.7793,NOWSELLERS,1054489271497904128,2020-02-14 12:17:09,Etats-Unis,city,"San Francisco, CA",Etats-Unis
31080,-118.243,34.0522,NOWSELLERS,1054489271497904128,2020-02-14 21:07:05,Etats-Unis,city,"Los Angeles, CA",Etats-Unis
24,-109.0,56.0,NOWSELLERS,1054489271497904128,2020-02-17 10:12:17,Etats-Unis,city,"Division No. 18, Unorganized, Saskatchewan",Canada
31080,-118.243,34.0522,NOWSELLERS,1054489271497904128,2020-02-17 13:17:04,Etats-Unis,city,"Los Angeles, CA",Etats-Unis
119,-102.5382358,22.76265065,NOWSELLERS,1054489271497904128,2020-02-18 12:23:49,Etats-Unis,city,"Zacatecas, Mxico",Mexique
31080,-118.243,34.0522,NOWSELLERS,1054489271497904128,2020-02-18 16:41:59,Etats-Unis,city,"Los Angeles, CA",Etats-Unis
16980,-87.632496,41.883221999999996,NOWSELLERS,1054489271497904128,2020-02-18 21:54:15,Etats-Unis,city,"Chicago, IL",Etats-Unis
31080,-118.243,34.0522,NOWSELLERS,1054489271497904128,2020-02-23 07:21:11,Etats-Unis,city,"Los Angeles, CA",Etats-Unis
35620,-74.0064,40.7142,NOWSELLERS,1054489271497904128,2020-02-29 18:21:24,Etats-Unis,city,"Manhattan, NY",Etats-Unis
31080,-118.243,34.0522,NOWSELLERS,1054489271497904128,2020-03-01 10:39:23,Etats-Unis,city,"Los Angeles, CA",Etats-Unis
35620,-73.98513100000001,40.758895,NOWSELLERS,1054489271497904128,2020-03-01 22:24:27,Etats-Unis,city,"Manhattan, NY",Etats-Unis
12540,-117.985,35.1258,NOWSELLERS,1054489271497904128,2020-03-02 08:04:21,Etats-Unis,city,"California City, CA",Etats-Unis
31080,-118.243,34.0522,NOWSELLERS,1054489271497904128,2020-03-02 16:04:54,Etats-Unis,city,"Los Angeles, CA",Etats-Unis
35620,-74.0064,40.7142,NOWSELLERS,1054489271497904128,2020-03-05 11:54:06,Etats-Unis,city,"Manhattan, NY",Etats-Unis
31080,-118.243,34.0522,NOWSELLERS,1054489271497904128,2020-03-07 21:28:54,Etats-Unis,city,"Los Angeles, CA",Etats-Unis
35620,-74.0064,40.7142,NOWSELLERS,1054489271497904128,2020-03-08 10:18:48,Etats-Unis,city,"Manhattan, NY",Etats-Unis
31080,-118.243,34.0522,NOWSELLERS,1054489271497904128,2020-03-29 19:30:52,Etats-Unis,city,"Los Angeles, CA",Etats-Unis
35620,-74.0064,40.7142,NOWSELLERS,1054489271497904128,2020-03-30 19:48:04,Etats-Unis,city,"Manhattan, NY",Etats-Unis
31080,-118.243,34.0522,NOWSELLERS,1054489271497904128,2020-03-31 19:33:09,Etats-Unis,city,"Los Angeles, CA",Etats-Unis
24,-109.0,56.0,NOWSELLERS,1054489271497904128,2020-04-03 14:57:38,Etats-Unis,city,"Division No. 18, Unorganized, Saskatchewan",Canada
205,-0.07939436,51.47496745,NOWSELLERS,1054489271497904128,2020-04-05 10:05:53,Etats-Unis,city,"Camberwell, London",Royaume-Uni
35620,-74.0064,40.7142,NOWSELLERS,1054489271497904128,2020-04-07 18:19:13,Etats-Unis,city,"Manhattan, NY",Etats-Unis
31080,-118.2445,34.0564,NOWSELLERS,1054489271497904128,2020-04-09 17:26:43,Etats-Unis,city,"Los Angeles, CA",Etats-Unis
35620,-74.0064,40.7142,NOWSELLERS,1054489271497904128,2020-04-17 10:02:04,Etats-Unis,city,"Manhattan, NY",Etats-Unis
14460,-71.0565,42.3577,NOWSELLERS,1054489271497904128,2020-04-25 01:10:58,Etats-Unis,city,"Boston, MA",Etats-Unis
31080,-118.2445,34.0564,NOWSELLERS,1054489271497904128,2020-05-01 21:48:37,Etats-Unis,city,"Los Angeles, CA",Etats-Unis
24,-79.3872,43.648,NOWSELLERS,1054489271497904128,2020-05-10 14:00:45,Etats-Unis,city,"Toronto, Ontario",Canada
35620,-74.0064,40.7142,NOWSELLERS,1054489271497904128,2020-06-02 13:40:13,Etats-Unis,city,"Manhattan, NY",Etats-Unis
33100,-80.192,25.7752,NOWSELLERS,1054489271497904128,2020-06-03 11:25:52,Etats-Unis,city,"Miami, FL",Etats-Unis
12540,-117.985,35.1258,NOWSELLERS,1054489271497904128,2020-06-03 22:06:48,Etats-Unis,city,"California City, CA",Etats-Unis
35620,-74.0064,40.7142,NOWSELLERS,1054489271497904128,2020-06-07 19:31:49,Etats-Unis,city,"Manhattan, NY",Etats-Unis
178,25.555316,-33.907562,Gabriel Mazvirebwe,1054489605813272577,2020-05-09 17:00:13,"Port Elizabeth, South Africa",city,"Port Elizabeth, South Africa",South Africa
186,-3.7035075,40.4777945,DeCe,1054489817512321024,2020-02-14 08:49:21,"Comunidad de Madrid, Espaa",city,"Madrid, Espaa",Espaa
82,77.4044755,23.272495000000003,dr zaheer ,1054489837,2020-04-09 11:58:07,", ",city,"Bhopal, India",India
200,28.894446000000002,41.040305,Fatih TADEMR,1054490172975448067,2020-06-05 22:21:06,,poi,Byk stanbul Otogar,Turkey
200,29.2841934,40.90561681,Ylmaz Kaya,105449056,2020-02-18 05:30:05,"stanbul, Trkiye",city,"stanbul, Trkiye",Trkiye
21,-54.86145749999999,-22.1609285,Scoca,1054491033210368005,2020-02-14 19:39:52,"Washington, DC",city,"Dourados, Brasil",Brasil
65,2.3492,48.8573,Steven Schroeder,1054491183269974022,2020-03-09 10:19:24,"Texas, USA",city,"Paris, France",France
12060,-84.4703885,33.6312775,Steven Schroeder,1054491183269974022,2020-03-10 02:57:54,"Texas, USA",city,"College Park, GA",United States
33100,-80.369153,25.8256435,The H Project,1054491243928010754,2020-04-19 15:30:57,,city,"Doral, FL",United States
45300,-82.516207,28.150132,petercannonthelibrarian,1054491409342971909,2020-04-13 23:48:54,,city,"Cheval, FL",United States
35620,-74.10636600000002,40.6707835,mandy,1054491864831811584,2020-02-14 07:27:54,BTS TWICE ATEEZ BLACKPINK,city,"Bayonne, NJ",United States
85,9.4358405,40.29292,Zacomo,1054492053713928193,2020-05-09 10:23:45,,city,"Oliena, Sardegna",Italia
88,139.77312036,35.69835715,Nakono-chan,105449207,2020-02-15 06:38:49,Tokyo Japan,city, ,
21,-49.261299,-16.642782500000003,,1054492345402621952,2020-02-18 02:31:11,"Goinia, Brasil",city,"Goinia, Brasil",Brasil
21,-34.883371000000004,-7.1494765000000005,Carlos Deeker,1054493022824681473,2020-02-18 00:40:44,"Paraba, Brazil",city,"Joo Pessoa, Brasil",Brasil
8,-65.50155000000001,-27.168736499999998,      ,1054493571913564160,2020-02-14 06:31:55,"San Miguel de Tucumn, Argenti",city,"Monteros, Argentina",Argentina
21,-43.441578,-22.911421500000003,E ai jorgin.. toma uma hoje! ,1054494230423523330,2020-02-14 21:46:17,RJ,city,"Rio de Janeiro, Brazil",Brazil
38900,-122.9622,45.543725,Rishab Jain,1054494520648314880,2020-04-11 21:18:19,"Portland, OR",poi,Intel - Jones Farm Conference Center,United States
200,29.0052225,41.0213205,sevde,1054494521604628480,2020-03-27 20:32:25,I dont know,city,"stanbul, Trkiye",Trkiye
222,103.62068199999999,-1.6497400000000002,Andry vino kino,1054494568400310273,2020-04-15 06:02:33,"Jakarta Timur, DKI Jakarta",city,"Kota Baru, Indonesia",Indonesia
200,27.744695,41.201282,AHH KB BOVERSENE,1054495227413696512,2020-06-02 10:07:31,Van / orlu,city,"orlu, Trkiye",Trkiye
21,-43.959822499999994,-19.918692,Alexandre Piroli,1054495232044216320,2020-02-23 22:40:47,"Belo Horizonte, Brasil",city,"Belo Horizonte, Brazil",Brazil
21,-43.441578,-22.911421500000003,Fbio Jr ..,1054495308682616833,2020-02-14 21:08:12,Belford roxo .,city,"Rio de Janeiro, Brasil",Brasil
47260,-76.36227600000002,37.0508965,UndeLaFlar,1054495514971070464,2020-02-21 12:34:29,"Newport News, VA",city,"Hampton, VA",United States
153,5.160933,59.2474805,Johanne Martha,1054495603047219202,2020-05-10 11:10:32,Norway,city,"Karmy, Norge",Norway
88,139.598093,35.8069855,@,1054495740934799360,2020-05-03 14:17:32,,city,"Asaka-shi, Saitama",Japan
128,4.3157935,50.8577185,  ,1054495933847744512,2020-02-17 12:57:10,"Bruxelles, Belgique",city,"Sint-Jans-Molenbeek, Belgi",Belgium
12060,-83.99673100000001,34.118083,Buford Youth Lacrosse Association,1054495984196173824,2020-02-16 17:00:53,"Buford, Ga",city,"Buford, GA",United States
85,9.1593365,45.461345,massimo,1054496070,2020-03-13 19:35:59,,city,"Milano, Lombardia",Italia
164,-7.3833115000000005,40.61223800000001,Bruno Faria,1054496241638432768,2020-03-15 01:01:46,"Viseu, Portugal",city,"Celorico da Beira, Portugal",Portugal
16980,-87.901209,41.976557,Jahlan Simon,1054496249796288512,2020-03-22 21:47:00,"Greenville, IL",poi,Chicago O'Hare International Airport,United States
65,2.2478525,48.950032,Jahlan Simon,1054496249796288512,2020-04-21 13:40:28,"Greenville, IL",city,"Argenteuil, France",France
171,121.0392605,14.5847555,Chris,1054496473,2020-03-14 01:49:16,Republic of the Philippines,city,"Mandaluyong City, National Capital Region",Republic of the Philippines
31080,-118.34615249999999,33.953633499999995,City of Inglewood Office of Emergency Services,1054496589400535040,2020-02-14 21:51:17,"Inglewood, CA",city,"Inglewood, CA",United States
40140,-117.661853,34.119646,City of Inglewood Office of Emergency Services,1054496589400535040,2020-04-22 20:00:15,"Inglewood, CA",city,"Upland, CA",United States
31080,-118.34615249999999,33.953633499999995,City of Inglewood Office of Emergency Services,1054496589400535040,2020-04-23 00:34:45,"Inglewood, CA",city,"Inglewood, CA",United States
200,29.0052225,41.0213205,,1054496597906735105,2020-04-08 12:32:22,,city,"stanbul, Trkiye",Trkiye
21,-40.4882645,-20.3923015,j,1054496678177325056,2020-04-13 20:57:23,"vi, es",city,"Viana, Brasil",Brasil
41620,-112.03525049999999,40.507872,typing...,1054497023955615745,2020-02-15 07:57:52,"Herriman, UT",city,"Herriman, UT",United States
119,-100.44059449999999,20.7152745,Rubens,1054497972984209413,2020-03-17 22:11:15,,city,"Quertaro, Quertaro Arteaga",Mxico
39420,-117.15426950000001,46.730821999999996,gisselle,1054497989270560768,2020-02-14 01:49:06,"Pasco, WA",city,"Pullman, WA",United States
28420,-119.2796615,46.2581775,gisselle,1054497989270560768,2020-02-15 05:00:40,"Pasco, WA",city,"Richland, WA",United States
16980,-87.732013,41.8335845,gisselle,1054497989270560768,2020-02-20 02:10:39,"Pasco, WA",city,"Chicago, IL",United States
39420,-117.15426950000001,46.730821999999996,gisselle,1054497989270560768,2020-02-24 19:11:30,"Pasco, WA",city,"Pullman, WA",United States
44060,-117.434547,47.667438,gisselle,1054497989270560768,2020-02-29 04:37:53,"Washington, USA",city,"Spokane, WA",United States
39420,-117.15426950000001,46.730821999999996,gisselle,1054497989270560768,2020-02-29 21:29:37,"Washington, USA",city,"Pullman, WA",United States
65,1.428193,43.692946,Freedou Dglv,105449800,2020-03-13 18:19:33,France,poi,Brennan's Bar,France
40060,-77.616979,37.68826350000001,Connor,1054498040,2020-05-02 12:22:25,,city,"Wyndham, VA",United States
8,-57.5814305,-38.01158750000001,S ,1054498088482734082,2020-02-14 05:44:44,"Mar del Plata, Argentina",city,"Mar del Plata, Argentina",Argentina
21,-43.332774,-22.76576,insta: jullyana_05 ,1054498307920326657,2020-03-18 03:36:35,So Joo de Meriti ,poi,Jardim Metropole,Brasil
205,-0.17741700000000002,51.501121999999995,Mod Kari,1054498603023122433,2020-02-22 19:52:35,"Cambridge, England",poi,Royal Albert Hall,United Kingdom
151,3.9052964999999995,7.4290745,Corker Logistics ,1054498613211095041,2020-02-14 08:00:31,OnTheRoad,city,"Ibadan, Nigeria",Nigeria
205,-0.7874559999999999,50.840918,Sophie,105449898,2020-02-14 20:18:47,"Chichester, England",city,"Chichester, England",United Kingdom
175,50.222353000000005,26.302933000000003,A6.,1054499104099852288,2020-02-20 16:11:06,,poi,Gosaibi Village |  ,  
33,-71.176175,-32.6995875,Juan Esteban,1054499756788142080,2020-03-09 00:08:56,"Nogales, Chile",city,"Nogales, Chile",Chile
186,-3.9118665,40.2805755,SolPaganoR,1054500085134839808,2020-04-01 14:32:48,"Madrid, Comunidad de Madrid",city,"Arroyomolinos, Espaa",Spain
65,7.1822420000000005,43.685837,pearl ,1054500171067940864,2020-04-16 04:29:29,French Riviera,city,"Saint-Laurent-du-Var, France",France
16980,-87.732013,41.8335845,Momo,1054500201333956608,2020-04-03 09:32:14,,city,"Chicago, IL",United States
88,139.4625355,35.803453999999995,,1054500427335532544,2020-02-21 08:08:16,,city, ,
50,31.657261,31.321396999999997,Zeyad Khalifa,1054500559334637568,2020-03-04 21:14:00,RasElbar_Damiitaa,poi,Faraskur | ,
21,-43.441578,-22.911421500000003,Jnior Flin,1054500572303372288,2020-02-15 22:11:14,"Rio de Janeiro, Brasil",city,"Rio de Janeiro, Brasil",Brasil
205,-1.760933,52.670486,Annette Leighton,1054500602464686081,2020-06-09 21:35:06,,poi,St. Giles Hospice,United Kingdom
205,-2.8824349999999996,53.395258999999996,Jay Cooper,105450097,2020-03-31 14:05:15,"Childwall, Liverpool",poi,Childwall Abbey Hotel,United Kingdom
21,-43.564089,-22.3688335,Capitu,1054501201277054976,2020-03-09 03:28:20,"Rio de Janeiro, Brasil",city,"Vassouras, Brasil",Brasil
205,-0.29743,51.514752,TrickyBiscuits,1054501399365595142,2020-03-25 19:16:43,"Da Nang, Vietnam",city,"Ealing, London",United Kingdom
41980,-66.058368,18.384165499999998,adrianaaa,1054501529431015424,2020-03-15 18:24:35,,city,"San Juan, USA",United States
21,-42.728111,-22.954128,2G,1054501799674241024,2020-02-24 11:48:56,"Alcntara, So Gonalo",poi,Ponta Negra,Brasil
88,139.742843,35.700192,FICINO-METAL,105450181,2020-03-23 04:13:17,Tokyo,poi,CANAL CAFE,
29820,-115.2344355,36.0188045,jack ,1054501963285508096,2020-02-27 22:07:15,south side,city,"Enterprise, NV",United States
88,136.84536371,35.04824691,,1054502004,2020-02-23 05:10:44,,city,  ,
82,72.87424399999999,19.174139999999998,Imtiyaz Rain,1054502089,2020-05-29 06:12:16,,city,"Mumbai, India",India
21340,-106.4174305,31.793368,maddy ,1054502298,2020-02-29 06:58:00,"Texas, USA",city,"El Paso, TX",United States
21,-45.997685,-21.810148499999997,raissafada,1054502333466451969,2020-03-29 00:56:55,casa da me joana,city,"Poo Fundo, Brasil",Brasil
8,-58.521966000000006,-34.568977000000004,LucianodeLp,1054502440861605888,2020-05-10 23:20:28,,poi,La Perla De Villa Maip,Argentina
200,29.073090000000004,40.96583,Duygu Karaka,105450276,2020-03-07 13:10:12,stanbul,poi,Tahog Street Food,Turkey
175,43.1301555,18.091283999999998,Rr,1054502797960536065,2020-05-10 13:59:00,,city," ,   ",  
175,39.153104,21.558581,BASMA ,1054502847205781504,2020-02-14 17:38:24,"Jeddah, Kingdom of Saudi Arabia",city,",   ",  
47260,-76.2958955,36.7632155,heeyitsnaiya._,1054503092476133376,2020-03-23 21:08:33,"Chesapeake, VA",city,"Chesapeake, VA",United States
71,13.4246065,52.506701,Rani,1054503155365494786,2020-03-27 05:18:04,Gdl/Encinitas,city,"Berlin, Germany",Germany
69,-0.1842935,5.6231985,adade dadzie,1054503385590837248,2020-04-04 15:53:54,"Greater Accra, Ghana",city,"Accra, Ghana",Ghana
119,-101.78656099999999,20.9208085,Amrica Rizo,1054503729989369857,2020-02-14 00:37:22,,city,"San Francisco del Rincn, Guanajuato",Mxico
21,-43.441578,-22.911421500000003,Sergio Souza,1054503746326142976,2020-02-14 20:02:22,"Barra da Tijuca, Rio de Janeiro",city,"Rio de Janeiro, Brazil",Brazil
222,110.70249471,-6.69213705,RiekaAriwibowo,1054503905562845184,2020-06-11 07:47:55,"Jepara, Jawa Tengah",city,"Pecangan, Indonesia",Indonesia
82,73.79735699999999,15.718994,GayatridasGauthankar,1054503949,2020-03-17 05:01:05,Goa,city,"Pernem, India",India
37980,-75.169317,39.904314,Rob Malfara,1054504065974132736,2020-03-07 22:45:55,"New Jersey, USA",poi,XFINITY Live! Philadelphia,United States
35620,-74.044265,40.089555499999996,Rob Malfara,1054504065974132736,2020-03-08 18:57:05,"New Jersey, USA",city,"Point Pleasant Beach, NJ",United States
82,72.87424399999999,19.174139999999998,harsh chandra,1054504104,2020-04-17 17:13:13,,city,"Mumbai, India",India
186,-0.47693500000000005,39.451784499999995,1veera2,1054504211403161600,2020-02-19 08:13:07,"Alaqus, Espaa",city,"Alaqus, Espaa",Spain
200,29.0052225,41.0213205,Esenler Travesti,1054504241564450816,2020-06-10 20:26:19,"Esenler, stanbul",city,"stanbul, Trkiye",Trkiye
21,-49.1687365,-25.3136775,Gatinha comunista,1054504297545822208,2020-02-14 23:29:10,"Curitiba, Brasil",city,"Colombo, Brasil",Brasil
175,46.651342,24.767957,,1054504448322625536,2020-03-01 11:22:02,,poi,   ,Kingdom of Saudi Arabia
200,40.184024,37.958216,mr,1054504631282360322,2020-02-14 11:41:00,,poi,Kahve Dnyas,Trkiye
29820,-115.223125,36.232915000000006,Mase ,1054504825,2020-02-14 19:39:06,,city,"Las Vegas, NV",United States
40060,-77.3971595,37.2654925,Eva Bailey-Greene,1054505058216394752,2020-05-07 20:52:02,,city,"Colonial Heights, VA",United States
8,-58.200629000000006,-34.797540500000004,Segunda Vuelta Revista,1054505098381012993,2020-04-10 17:28:20,,city,"Berazategui, Argentina",Argentina
175,39.540693,21.351114000000003,sondos,1054505172,2020-03-20 14:38:58,  ,poi,  -  ,  
19100,-96.913053,32.647124,alexandra,1054505182447448066,2020-02-19 20:17:28,"Dallas, TX",city,"Duncanville, TX",United States
41860,-121.99864450000001,37.973327000000005,Ariel barba,1054505274633928704,2020-04-19 05:26:31,"California, USA",city,"Concord, CA",United States
18140,-83.0394295,39.980012,Zachary Spitz,1054505305483157504,2020-02-26 15:53:42,"Columbus, OH",city,"Grandview Heights, OH",United States
171,123.846722,10.3748325,JMM ,1054505614343192576,2020-05-13 11:14:24,Perlas ng Silangan,city,"Cebu City, Central Visayas",Republic of the Philippines
88,135.506458,34.651587,,1054505904463171584,2020-03-15 01:16:24,,poi,,
113,-6.581910000000001,34.258580499999994,,1054506128556679179,2020-06-07 19:14:22,Morocco,city,"Kenitra, Morocco",Morocco
186,-8.422813000000001,43.345661,Irocha,1054506324019630081,2020-02-20 15:25:02,"Valdovio, Espaa",city,"A Corua, Spain",Spain
24,-83.0378,42.3145,modifiedmaiden,1054506659010277376,2020-04-02 00:56:55,"Windsor, Ontario",city,"Windsor, Ontario",Canada
21,-51.1593095,-30.099836,paim,1054506728077844480,2020-02-14 01:33:59,Jardim Leopoldina,city,"Porto Alegre, Brasil",Brasil
128,4.3581900000000005,51.2605565,Baresi1905,1054506766237683712,2020-03-29 14:45:53,"Karaman, Trkiye",city,"Antwerpen, Belgi",Belgi
21,-43.928856,-22.658068,Rapunzel ,1054507047662874624,2020-03-12 00:55:46,Brasil,city,"Pira, Brasil",Brasil
186,-3.444793,40.3001525,#talCualAytor ,105450719,2020-03-28 17:04:06,"Madrid, Comunidad de Madrid",city,"Arganda del Rey, Espaa",Espaa
51,-6.25271201,53.36072402,#talCualAytor ,105450719,2020-05-24 10:11:52,"Madrid, Comunidad de Madrid",city,"Dubln, Irlanda",Irlanda
222,106.944926,-6.1848725,incibus99,1054507249719107584,2020-03-28 14:09:52,,city,"Cakung, Indonesia",Indonesia
88,139.6345155,35.636514,s.c.,1054507316664393728,2020-02-16 00:57:52, ,city,"Setagaya-ku, Tokyo",Japan
33100,-80.193372,25.807406,michelle ,1054507807578431493,2020-02-23 15:19:10,"Miami, FL",poi,Barry's Bootcamp,United States
205,-0.12731805,51.50711486,Ella Stewart,105450787,2020-03-16 19:31:41,"London, England",city,"London, England",United Kingdom
205,-1.110279,53.923603,Square One,1054507886154563585,2020-06-03 18:19:06,Europe,poi,Earth,United Kingdom
21,-43.441578,-22.911421500000003,Cabelo De Mulher  #TropadoMessi,1054508246218739712,2020-02-14 01:23:32,"Rio de Janeiro, Brasil",city,"Rio de Janeiro, Brasil",Brasil
205,-4.2417515,55.85830249999999,Baker's Delight,1054508291303395329,2020-04-20 22:08:49,"Glasgow, Scotland",city,"Glasgow, Scotland",United Kingdom
186,-3.6075730000000004,37.168227,Elena Gonzlez,1054508380340006912,2020-03-06 03:04:47,"cija, Espaa",poi,Discoteca Mae West,Espaa
171,123.0001315,10.652827,,1054508506747887616,2020-02-27 18:16:15,NY Palace Hotel,city,"Bacolod City, Western Visayas",Republic of the Philippines
171,121.049489,15.0697835,,1054508740622266369,2020-02-17 10:30:09,"Makati City, National Capital ",city,"San Ildefonso, Central Luzon",Republic of the Philippines
152,4.525580000000001,51.8518895,Ed Mol,105450880,2020-03-01 10:20:17,"Barendrecht, Nederland",city,"Barendrecht, Nederland",The Netherlands
8,-64.1980255,-31.4154565,cata  ,1054508865251872768,2020-04-20 19:32:25,,city,"Crdoba, Argentina",Argentina
21,-43.3697645,-22.7854705,mary,1054508933581336576,2020-04-28 05:16:24,"So Joo de Meriti, RJ",city,"So Joo de Meriti, Brasil",Brasil
119,-87.346982,20.5845305,Kilsy Rodriguez,1054509183398232069,2020-02-17 01:34:52,,city,"Solidaridad, Quintana Roo",Mexico
24,-73.723025,45.5578305,,1054509190734077952,2020-04-15 00:09:46,lucas' lap,city,"Montral, Qubec",Canada
21,-43.047297,-22.877225,Lya,1054509294455001091,2020-03-16 11:41:14,,neighborhood,"Santa Brbara, Niteri",Brasil
33460,-93.22671700000001,45.16218,Aidan,1054509315090976768,2020-03-20 05:55:54,,poi,Italy 1 North,United States
21,-46.5955455,-23.682803,@bellamoreira,1054509384737402880,2020-03-14 17:57:21,London,city,"Sao Paulo, Brazil",Brazil
222,112.6107005,-7.943314999999999,AnggaSaputra,1054509616237703168,2020-02-15 03:18:36,"Malang,east java",city,"Lowokwaru, Indonesia",Indonesia
21,-51.1818955,-29.6529075,,1054509997630124033,2020-02-15 22:09:57, ,city,"Estncia Velha, Brasil",Brasil
38060,-112.42497549999999,33.4128725,brian,1054510021633929216,2020-02-14 21:26:03,"Goodyear, AZ",city,"Goodyear, AZ",United States
193,98.392531,7.880395,.,1054510025568186368,2020-02-15 00:48:01,,poi,The Metropole Hotel Phuket,
189,14.004493,55.376496499999995,Kiefer Clarn,1054510133391355905,2020-03-09 22:37:29,"Ystad, Sverige",city,"Ystad, Sverige",Sweden
171,121.01080300000001,14.483414000000002,peitho,1054510230845841408,2020-02-14 05:04:40,,city,"Paranaque City, National Capital Region",Republic of the Philippines
88,139.745379,35.652789,,1054510356,2020-02-20 00:03:07,,city, ,
120,101.680805,2.904732,Penjaga | Jodoh | Orang,105451084,2020-02-14 13:59:55,Kuala Lumpur Federal Territory,city,"Dengkil, Selangor",Malaysia
33100,-80.1783915,26.03968,Elva,1054510910516219904,2020-04-07 11:55:47,,city,"Hollywood, FL",United States
8,-59.13286650000001,-37.3186155,vic,1054510916539240448,2020-02-23 04:00:40,Donde no me rompan los huevos,city,"Tandil, Argentina",Argentina
21,-43.441578,-22.911421500000003,K ,1054510997300486146,2020-04-19 23:35:58,CPX DA E.C.M.,city,"Rio de Janeiro, Brasil",Brasil
88,139.68095,35.688488,,1054511014245359616,2020-02-20 06:41:05,,poi,,
160,-79.02865474,-8.11183076,puntofino_c,1054511328,2020-05-29 15:07:46,Trujillo  - Peru,city,"Trujillo, Peru",Peru
24,-79.3872,43.648,Kim Wood,1054511525535383552,2020-02-21 14:14:31,"New Brunswick, Canada",city,"Toronto, Ontario",Canada
21,-42.005645,-22.663438,me do lucca,1054511817274388482,2020-03-09 19:24:07,nova holanda ,poi,Unamar- Cabo Frio,Brasil
171,120.6385005,18.474141,,1054511827764166657,2020-02-14 04:32:04,"Batac City, Ilocos Region",city,"Burgos, Ilocos Region",Republic of the Philippines
173,92.80880928,55.98349873,Krivilo,105451184,2020-06-10 15:16:56,,city,", ",
12420,-97.672732,30.519340500000002,Lily Morn,1054512002746535937,2020-02-16 04:42:47,"Round Rock, TX",city,"Round Rock, TX",United States
178,27.795725,-25.634766,#Season5,1054512084208230400,2020-03-20 11:39:46,"Brits, South Africa",city,"Brits, South Africa",South Africa
21,-43.1872935,-22.387125,Kaslu,1054512116932272134,2020-02-14 04:39:23,"021, Brasil",city,"Petrpolis, Brasil",Brasil
200,29.619647999999998,40.785327,Berkay Polat ,1054512117720776711,2020-02-27 11:41:47,zmit ,poi,Kocaeli niversitesi Hereke Kamps,Trkiye
152,4.61499334,52.31928095,Tessa de Kroon,105451220,2020-05-13 15:47:34,"Zwaanshoek-Dorp, Haarlemmermee",city,"Haarlemmermeer, Nederland",Nederland
21,-49.2270065,-26.99811,Amanda Torquato,1054512383719342083,2020-02-14 09:41:08,SC,city,"Indaial, Brasil",Brasil
119,-104.837578,23.9541625,Alettho Guerrero,1054512922955661312,2020-02-20 16:04:48,,city,"Durango, Mxico",Mexico
160,-71.5369,-16.3988, Alejandra Guerrero ,1054512922955661312,2020-03-28 05:40:06,,city,"Arequipa, Peru",Peru
17980,-84.917307,32.4823035,Kelly(george)Goins,1054513186387488768,2020-03-23 01:17:55,"Columbus, GA",city,"Columbus, GA",United States
21,-40.292823,-20.2804105,ENZIN TRALHA ,1054513413823623168,2020-03-07 00:12:40,,city,"Vitria, Brasil",Brasil
21,-46.185715,-23.559382,Junior_Costa,1054513499009880066,2020-02-26 02:26:18,"Parque Santana, Mogi das Cruzes",city,"Mogi das Cruzes, Brasil",Brazil
222,106.99481200000001,-6.183539,  ,1054513573454536704,2020-02-25 14:32:21,skz-svt-nct-tsr-x1-itzy-rv,poi,Masjid Ar-Raudhah Plaza THB,Indonesia
38060,-111.52807800000001,33.4223635,Shawn,1054513579372666880,2020-02-22 17:55:40,,city,"Apache Junction, AZ",United States
65,-1.6013700000000002,46.83336,Philip Johnson,105451381,2020-03-19 11:02:35,"La Chapelle Themer, France",city,"Saint-Etienne-du-Bois, France",France
88,139.36597315,35.44226181,,1054513983187673088,2020-02-18 02:55:27,,city,"Atsugi-shi, Kanagawa",Japan
22780,-92.1381845,37.8273975,Chase,1054514099965644802,2020-03-13 20:36:52,"Fort Leonard Wood, MO",city,"St Robert, MO",United States
9,153.031738,-27.498654,Lisa Philp,1054514115975143424,2020-04-13 09:39:32,"Brisbane, Queensland",poi,Translational Research Institute,Australia
21,-42.7365505,-22.521039,Estfany,1054514658437222401,2020-02-14 03:28:27,"Cachoeiras de Macacu, Brasil",city,"Cachoeiras de Macacu, Brasil",Brasil
31080,-118.4119065,34.0207895,entertainmentheat,1054514773973336064,2020-03-30 00:25:40,"Hollywood, CA",city,"Los Angeles, CA",United States
200,29.0052225,41.0213205,Osman Kolcu,1054515535,2020-03-17 19:28:03,,city,"stanbul, Trkiye",Trkiye
8,-66.330479,-33.2978785,David Llobell,1054515866304421889,2020-05-21 18:24:48,"Juana Koslay, San Luis",city,"San Luis, Argentina",Argentina
9,148.6266865,-31.676204499999997,Andrew Pettifer,1054515943,2020-02-15 11:59:06,Sydney,neighborhood,"Gilgandra, New South Wales",Australia
119,-97.8864005,18.8538985,Jea Paul Rosales Moron,1054516225680793600,2020-02-23 09:28:04,"Puebla, Mxico",city,"Tlanepantla, Puebla",Mxico
119,-102.4188915,18.967758,Vicki Ramos,1054516575577923584,2020-02-23 20:38:53,,city,"Apatzingn, Michoacn de Ocampo",Mxico
151,3.39583,6.45306,Dahunsi,1054516746852450304,2020-03-07 18:18:33,"Lagos, Nigeria",city,"Lagos, Nigeria",Nigeria
31080,-118.1567105,33.809171500000005,Jay Carr,1054516866352201729,2020-02-19 23:33:05,"California, USA",city,"Long Beach, CA",United States
21,-34.939349,-8.043603,Geraldo Brito ,1054517006437879808,2020-02-29 13:39:23,"Recife, Brasil",city,"Recife, Brasil",Brasil
8,-65.2231375,-26.844098499999998,Luu Farias,1054517020149116929,2020-02-18 23:59:46,,city,"San Miguel de Tucumn, Argentina",Argentina
222,112.629076,-7.972494999999999,your imaginary belief,1054517056824008704,2020-03-06 11:21:41,"Malang, Jawa Timur",city,"Klojen, Indonesia",Indonesia
151,7.623355999999999,12.977045500000001,Paumerh. F,1054517087757127691,2020-05-04 15:28:18,Nigeria,city,"Katsina, Nigeria",Nigeria
120,101.0831,4.5962,salman ibrahim,1054517497,2020-05-26 06:27:41,,city,"Hulu Kinta, Perak",Malaysia
21,-43.959822499999994,-19.918692,,1054517553492623360,2020-03-16 01:43:32,"Belo Horizonte, Brasil",city,"Belo Horizonte, Brazil",Brazil
82,81.05306490000001,26.8865395,Arif husain,1054517706,2020-02-16 15:25:28,Dewa india,city,"Lucknow, India",India
21,-46.9752535,-22.9800425,,1054518002606055424,2020-02-14 02:15:40,,city,"Valinhos, Brasil",Brazil
192,-61.428822,10.316861,Publicist || Adanna Asson,1054518059250171906,2020-03-20 22:33:43,Trinidad and Tobago,poi,Gasparillo,Trinidad and Tobago
21,-43.441578,-22.911421500000003,g  ,1054518201235718147,2020-02-14 04:16:53,,city,"Rio de Janeiro, Brasil",Brasil
21,-49.3591675,-20.784981,Michael,1054518244709666818,2020-02-20 17:16:44,"Mirassol, Brasil",city,"So Jos do Rio Preto, Brasil",Brasil
39580,-78.8339105,35.833840499999994,BRINO  ,1054518283196608512,2020-02-14 01:45:18,"Durham, NC",city,"Morrisville, NC",United States
152,4.7545595,52.6373075,Juan Pablo Jimnez,105451831,2020-02-21 19:28:38,"Petten, Schagen",city,"Alkmaar, The Netherlands",The Netherlands
171,120.983154,14.651476999999998,Sandra Kate M.,1054518646058274816,2020-02-29 02:14:01,Caloocan City,poi,STI College Caloocan,Republic of the Philippines
14460,-70.8580915,42.5662945,Wandering Soul,1054519028482482176,2020-03-18 12:08:46,"Beverly, MA",city,"Beverly, MA",United States
95,127.03703300000001,37.563375,Vinicyus Guimares,105451914,2020-02-16 06:28:07, ,city, ,
38,-75.606961,6.3605795,Alexis,1054519222360068101,2020-04-10 22:47:54,"Medelln, Colombia",city,"Bello, Colombia",Colombia
186,-2.7819665,36.754351,jose moron,1054519378820165637,2020-04-07 13:51:46,,city,"El Ejido, Espaa",Espaa
160,-79.0446705,-8.1422825,BrandyShot / BrandyNews COVID19,1054519414631096321,2020-04-20 23:54:52,Peru,city,"Victor Larco Herrera, Peru",Peru
12060,-84.43310600000001,33.7671945,Joe H,1054519425150394369,2020-05-05 17:08:58,,city,"Atlanta, GA",United States
32820,-89.92202900000002,35.1335205,Kadence Washam,1054519473024233474,2020-02-15 20:55:37,Tennessee ,city,"Memphis, TN",United States
50,30.472009999999997,31.025985,( )  _ The End,1054519579249123329,2020-05-14 22:33:04,,poi,Damanhour | ,Egypt
151,6.1226095,6.736241000000001,Rainbow Hoe,1054519805099888640,2020-03-29 01:49:09,"Lagos, Nigeria",city,"Ekpoma, Nigeria",Nigeria
88,139.6735625,35.76839800000001,animal,1054520072746631169,2020-02-22 10:55:18,,city, ,
48,-70.72611809,19.48857418,malamente,1054520091826630656,2020-02-15 22:55:35,"Cantabria, Spain",city,"Santiago, Dominican Republic",Dominican Republic
186,-3.7035075,40.4777945,malamente,1054520091826630656,2020-02-29 07:32:47,"Cantabria, Spain",city,"Madrid, Spain",Spain
21,-51.1593095,-30.099836,insta:mlk_cardoso14,1054520176593514496,2020-03-31 05:54:51,No canada,city,"Porto Alegre, Brasil",Brasil
47900,-77.10199899999999,38.8808445,Ben Crafton,1054520350560657408,2020-03-19 13:14:37,,city,"Arlington, VA",United States
191,7.0761485,46.9069813,UKI QUI?,1054520888,2020-04-10 06:53:07,"Faoug, Suisse",city,"Faoug, Suisse",Suisse
242,121.561476,25.085756,KevTseng,1054520954,2020-04-17 13:25:18,Taipei,city,"Taipei City, Taiwan",Taiwan
222,107.172348,-6.267176999999999,Acan sukses STIS,1054521108186128384,2020-02-24 13:50:26,Indonesia,poi,Statiun Lemah Abang,Indonesia
31860,-94.0999975,43.6414515,omo imo state,1054521215354880001,2020-03-24 00:49:16,"Lagos, Nigeria",city,"Blue Earth, MN",United States
9,146.432287,-36.444466,jo douglas,1054521215988117504,2020-03-05 11:32:53,,city,"Milawa, Victoria",Australia
21,-48.4914895,-27.1655635,ana banana,1054521270686105605,2020-02-15 13:00:03,"Bento Gonalves, Brasil",city,"Bombinhas, Brasil",Brasil
222,107.0764409,-6.2655154,aku,1054521672802299904,2020-02-23 05:04:15,"Bekasi Timur, Indonesia",city,"Cibitung, Indonesia",Indonesia
21,-46.5955455,-23.682803,augusto,1054521725185081344,2020-02-25 04:07:14,"Ribeiro Pires, Brasil",city,"So Paulo, Brasil",Brasil
47900,-77.0143985,38.898603,SOMADINA(UWA),1054521813202583552,2020-02-14 01:39:49,"Washington, DC",city,"Washington, DC",United States
35620,-73.9685415,40.780709,SOMADINA(UWA),1054521813202583552,2020-03-12 02:52:25,"Washington, DC",city,"Manhattan, NY",United States
47900,-77.017924,38.919785,SOMADINA(UWA),1054521813202583552,2020-03-14 16:02:57,"Washington, DC",poi,College Hall at Howard University,United States
172,-66.9879145,18.1817385,Moe's_Wrld ,1054522407367655430,2020-04-18 21:38:38,"New York, USA",city,"Maricao, USA",United States
13780,-75.903592,42.1117855,Moe's_Wrld ,1054522407367655430,2020-04-19 04:48:52,"New York, USA",city,"Binghamton, NY",United States
222,107.92036,-6.855575999999999,SGasd93,105452247,2020-03-09 00:47:19,Indonesia,poi,NYUSU DOELOE - GOOD TIME GOOD MILK,Indonesia
33100,-80.20726300000003,25.9444465,NEW FREAKY SC:@ItsIrvianna ,1054522514377003008,2020-02-25 02:11:02,MIAMI,city,"Norland, FL",United States
40060,-77.49317049999998,37.529883,NEW FREAKY SC:@ItsIrvianna ,1054522514377003008,2020-03-01 05:24:51,MIAMI,city,"Richmond, VA",United States
33100,-80.20726300000003,25.9444465,NEW FREAKY SC:@ItsIrvianna ,1054522514377003008,2020-03-14 21:34:31,MIAMI,city,"Norland, FL",United States
162,16.9062755,52.3994955,WspomnieniaGeja,1054522671847878657,2020-02-14 06:51:34,,city,"Pozna, Polska",Polska
82,80.204751,13.129442,Selvaraj,1054522725287391232,2020-03-02 09:38:34,,city,"Saidapet, India",India
171,121.2449485,14.036956,hyung,1054522771726712832,2020-03-03 05:40:07,seoul,city,"Alaminos, Calabarzon",Republic of the Philippines
82,75.0684065,32.657848,V--nOd,1054522910,2020-02-14 03:05:37,"Jammu, Jammu And Kashmir",city,"Jammu, Jammu And Kashmir",Pakistan
186,-3.6894395,42.344393,Paulita,105452301,2020-05-17 16:20:16,Burgos ,city,"Burgos, Espaa",Espaa
21,-34.82303381,-7.12303881,aiobichopega,1054523185218105345,2020-03-08 09:34:11,"Paraba, Brasil",city,"Joo Pessoa, Brasil",Brasil
82,73.89046324,18.53573987,MaD.MoNk,105452353,2020-02-17 16:39:40,MuMbAi,city,"Pune, India",India
58,14.40670455,50.08631449,MaD.MoNk,105452353,2020-03-04 17:58:11,MuMbAi,city,"Prague, Czech Republic",Czech Republic
73,26.980974300000003,37.752604299999994,MaD.MoNk,105452353,2020-03-10 09:18:20,MuMbAi,city,"Vathy, Greece",Hellas
82,73.9033,18.5481,MaD.MoNk,105452353,2020-03-23 13:49:09,MuMbAi,city,"Pune, India",India
31080,-118.35483500000001,33.929068,AutonomousIntergalactic,1054523569231749120,2020-02-19 21:47:53,EARTH,poi,"Set of ""Shameless""",United States
51,-9.1100495,52.858973999999996,Roksana Komakowska,1054523670398410752,2020-02-18 14:12:06,Ireland,city,"Clare, Ireland",Ireland
152,4.954286,51.6434525,Sake Dijck,1054523756528451585,2020-03-26 15:18:07,"Nijmegen, Nederland",city,"Dongen, Nederland",The Netherlands
151,7.520541499999999,6.4412485,DJ Skillz,1054523937592430592,2020-02-14 12:00:33,"Enugu, Nigeria",city,"Enugu, Nigeria",Nigeria
21,-43.296872,-22.644558,Thaay,1054523950766657536,2020-02-14 11:53:27,"Duque de Caxias, Brasil",city,"Duque de Caxias, Brasil",Brasil
41700,-98.5406515,29.417501, ,1054523952,2020-02-15 07:29:24,"Texas, USA",city,"San Antonio, TX",United States
18580,-97.432425,27.737151, ,1054523952,2020-05-08 23:03:46,"Texas, USA",city,"Corpus Christi, TX",United States
41700,-98.5406515,29.417501, ,1054523952,2020-05-10 01:51:32,"Texas, USA",city,"San Antonio, TX",United States
18580,-97.432425,27.737151, ,1054523952,2020-05-25 22:11:50,"Texas, USA",city,"Corpus Christi, TX",United States
41700,-98.5406515,29.417501, ,1054523952,2020-05-27 00:36:50,"Texas, USA",city,"San Antonio, TX",United States
171,123.846722,10.3748325,klowe,1054524396298153984,2020-02-14 15:11:43,"Cebu City, Central Visayas",city,"Cebu City, Central Visayas",Republic of the Philippines
200,32.9054875,39.97281750000001,Seda zge,1054525010,2020-02-27 18:19:27,Ankara,city,"Altnda, Trkiye",Trkiye
21,-43.441578,-22.911421500000003,Pmela Fonseca,1054525117559115778,2020-02-16 05:20:45,,city,"Rio de Janeiro, Brasil",Brasil
222,106.83408200000001,-6.175018,abi.bisaboy,105452537,2020-05-03 23:24:43,"Jakarta Selatan, DKI Jakarta",poi,"Tanjung Aan , Lombok",Indonesia
41180,-90.786302,38.779639,Sam.Gordo,1054525386539831302,2020-02-24 02:08:18,"Missouri, USA",city,"Lake St Louis, MO",United States
222,110.4087895,-7.7676955,damean,1054525412099772417,2020-02-14 02:40:18,"Sleman, Indonesia",city,"Depok, Indonesia",Indonesia
88,139.11135976,36.39211275,,1054525505821528069,2020-03-18 01:24:41,,city, ,
21,-42.005645,-22.663438,chefinho,1054525541154463744,2020-02-24 07:10:45,Tijuca,poi,Unamar- Cabo Frio,Brasil
40060,-78.1351585,37.1798225,toriii,1054525541565505536,2020-03-31 16:39:30,,city,"Crewe, VA",United States
12060,-85.11513000000001,33.582537,toriii,1054525541565505536,2020-05-14 01:48:39,,poi,Haven West,United States
88,139.642874,35.452296000000004,,1054525946642853888,2020-02-15 17:54:37,,poi, (Yokohama Red Brick Warehouse),
9,145.0531355,-37.9725665,David Marelli,1054526227,2020-03-20 20:02:48,"Melbourne, Victoria",city,"Melbourne, Victoria",Australia
26900,-86.003929,39.957725,DJ Nonstop,1054526270548176897,2020-02-21 18:29:54,"Indianapolis, IN",poi,Topgolf,
82,78.163511,14.1133005,thousifhussainy,105452635,2020-05-09 11:45:17,HYDERABAD,city,"Kadiri, India",India
45300,-82.44269399999997,27.9965945,RP15s,1054526641,2020-02-29 19:02:33,6ixx Degrees,city,"Tampa, FL",United States
242,120.612349,22.973791000000002,Jessie/HIKARU 12/29,1054526993646133249,2020-02-28 10:29:34,Taiwan,city,", ",
158,174.26683200000005,-35.694168499999996,samuel hughes,1054527088194052096,2020-04-03 21:49:47,,city,"Whangarei District, New Zealand",New Zealand
