currentGEOID,lon,lat,name,author_Id,created_at,location,place_type,place_full_name,place_country
14540,-86.457829,37.008702,Madison Womack,1050930285024616448,2020-05-03 19:11:59,"Bowling Green, KY",poi,Riverview Golfcourse,United States
40140,-117.19573500000001,34.120005000000006,i s s i  ,1050930377018109953,2020-05-05 03:42:54,Streaming Boy With Luv,city,"Highland, CA",United States
88,132.696447,34.242774,tama,1050930441719410688,2020-04-25 11:43:03,,poi,,
8,-58.5893055,-34.772368,SEBA,1050930531104411649,2020-06-07 22:26:31,CIUDAD EVITA ARGENTINA ,city,"Gonzlez Catn, Argentina",Argentina
160,-77.11947099999999,-11.9845885,Freddy Rodrguez,1050930620589887488,2020-04-27 01:32:36,Peru,city,"Callao, Peru",Peru
65,2.697442,50.031191,Number56BandB,1050930625,2020-02-21 16:38:14,Ovillers La Boisselle,city,"Ovillers-la-Boisselle, France",France
26900,-86.15955,39.619684,Vicky Huang,1050930828719603712,2020-04-29 22:15:11,"Greenwood, IN",poi,Red Sun,United States
30,117.02259699999999,36.667574,Cain,1050930949846790145,2020-02-17 16:25:15,", ",poi,,People's Republic of China
21,-40.8767175,-19.7239125,MUITOS DEFEITOS CARA,1050930966699679744,2020-02-14 02:00:00,"Itaguau, Brasil",city,"Itaguau, Brasil",Brasil
175,36.459303000000006,26.246490500000004,JAZ.,1050931451728941062,2020-02-25 14:24:36,,city,",   ",  
35620,-73.8494415,40.8503475,Jay,105093159,2020-03-08 15:06:42,Bklyn,city,"Bronx, NY",United States
186,2.30145,42.375549299999996,Xavier Armangu Quintana,105093173,2020-02-16 21:28:11,,city,"Setcases, Espanya",Espanya
88,139.70793465,35.68803138,Tsuyoshi HIRANO.,105093206,2020-02-19 06:32:34,,city, ,
205,-4.2417515,55.85830249999999,Stuart P,1050932096,2020-03-10 11:41:38,Scotland,city,"Glasgow, Scotland",United Kingdom
26420,-95.228714,29.6606815,hailey ,1050932482487607297,2020-04-30 21:11:05,"Houston, TX",city,"South Houston, TX",United States
193,100.48376259999999,13.687336800000002,manunited90,1050932494764138496,2020-05-07 04:27:55,,city,", ",
171,122.1472415,7.175472999999999,  ,1050932582144077824,2020-05-08 16:54:39,"Zamboanga City, Zamboanga Peninsula",city,"Zamboanga City, Zamboanga Peninsula",Republic of the Philippines
222,107.59805700000001,-6.911669,Natya Gizella,105093273,2020-03-15 15:26:27,ig : natyapramudita,poi,Bakmi Rajim,Indonesia
65,0.62755,44.201056,SNEP FSU,105093278,2020-05-14 06:23:06,Paris,city,"Agen, France",France
82,77.66287,28.912684999999996,Manoj Bajpai,1050932795877408769,2020-02-19 07:38:57,Meerut,city,"Meerut, India",India
40060,-77.33236149999998,37.25175,Bri,1050932847249223681,2020-04-09 00:15:18,"California, USA",city,"Fort Lee, VA",United States
171,121.08234499999999,14.5833065,Rancel,1050932912382603264,2020-02-28 08:14:19,,city,"Pasig City, National Capital Region",Republic of the Philippines
33100,-80.192,25.7752,twitzade,105093304,2020-05-13 04:57:16,"istanbul,turkey",city,"Miami, FL",United States
200,28.978144,41.007932000000004,twitzade,105093304,2020-05-31 12:36:39,"istanbul,turkey",city,"stanbul, Trkiye",Trkiye
119,-96.7250025,17.090319,CoordPsico,1050933071627870209,2020-02-26 00:26:23,"Oaxaca, Mxico",city,"Oaxaca de Jurez, Oaxaca",Mexico
171,121.0652415,14.504111499999999,j a s m e n,1050933206675931136,2020-02-22 15:16:50,hulaan mo,city,"Taguig City, National Capital Region",Republic of the Philippines
20380,-79.0153045,35.278191,Samantha Schlater,1050933301567840258,2020-04-23 00:14:23,,city,"Spout Springs, NC",United States
12220,-85.4915405,32.597245,YTO,1050933358853836800,2020-02-14 14:05:54,"Alabama, USA",city,"Auburn, AL",United States
60,27.820989500000003,64.4372135,NOORA,1050933487,2020-02-28 15:38:39,"Kainuu, Suomi",city,"Paltamo, Suomi",Suomi
19740,-105.068348,39.8992865,Jonnie Lombardi,1050933514990891010,2020-02-21 22:53:53,,city,"Westminster, CO",United States
21,-43.441578,-22.911421500000003,absurda ,1050933586550038533,2020-03-06 22:48:40, ,city,"Rio de Janeiro, Brasil",Brasil
31080,-118.4119065,34.0207895,Martin,1050933698818859009,2020-04-01 03:06:05,"Los Angeles, CA",city,"Los Angeles, CA",United States
19100,-96.835249,33.1501395,Lamont Robinson,1050934208,2020-02-20 15:52:38,,city,"Frisco, TX",United States
24,-114.0850405,52.304246,HJ Beanies,1050934599402975232,2020-02-15 19:29:34,"Red Deer, Alberta",city,"Sylvan Lake, Alberta",Canada
88,138.83848600000002,35.079140499999994,,1050934754139197444,2020-03-07 01:36:25,,city,"Numazu-shi, Shizuoka",Japan
205,-2.7104665,53.495503,Brian Rouse,105093483,2020-02-22 18:52:30,"Billinge, WIGAN",city,"Billinge, England",United Kingdom
193,102.9270695,15.136785499999998,,1050934885882388481,2020-05-22 12:44:59,"., ",city,", ",
171,120.42801317,17.28831657,iRiN,1050935801863757829,2020-02-22 14:18:53,Republic of the Philippines,city,"Santiago, Ilocos Region",Republic of the Philippines
171,121.03131,14.407882999999998,Gee_licious,1050936009704140802,2020-04-01 23:37:53,"National Capital Region, Repub",city,"Muntinlupa City, National Capital Region",Republic of the Philippines
82,82.48658950000002,22.6025045,Priyanka Parashar,1050936246233522176,2020-05-15 10:31:39,", ",city,"Katghora, India",India
173,124.7700325,56.735591500000005,-'always with EXO's Chen'-,1050936870765547520,2020-02-20 10:09:35,,city,", ",Russia
21,-40.37516700000001,-20.427329500000003,Cludio ,105093692,2020-02-18 16:54:03,"Esprito Santo, BRASIL",city,"Vila Velha, Brasil",Brasil
222,103.5841405,-1.6462294999999998,Rido Saputra,1050937380,2020-03-29 07:52:45,Jambi-INDONESIA,city,"Jambi Luar Kota, Indonesia",Indonesia
82,77.095086,28.638489500000002,Sachin,1050938174296403968,2020-06-04 08:17:18,"New Delhi, India",city,"New Delhi, India",India
200,41.9206345,37.9295045,murat akmak,1050938527,2020-03-08 17:58:45,mugla ,city,"Siirt, Trkiye",Trkiye
200,27.006511,38.4079305,Arda Aslan,1050938797,2020-02-16 19:32:47,Trkiye/Bursa/Gemlik,city,"zmir, Trkiye",Trkiye
205,1.11029,52.37352,Frazer Scott,105093930,2020-04-09 11:41:16,"London, UK",city,"Diss, England",United Kingdom
193,101.1518475,12.703903500000001,Tum,1050939832753512449,2020-02-26 04:49:35,"., .",city,", ",
186,1.9217925,41.4785145,Fernanda,1050940596,2020-02-15 18:01:59,"Harry arms//632,4km de Cris",city,"Martorell, Espaa",Espaa
88,135.595726,35.488795,Munch,1050940754669883392,2020-03-21 05:12:33,,poi, ,
74,-90.35113,15.319367000000002,Emanuel,1050940916763111424,2020-03-08 22:37:32,valhalla,poi,Tactic,Guatemala
171,125.4432615,7.317582499999999,Mark,1050941006865084416,2020-02-16 12:51:28,Republic of the Philippines,city,"Davao City, Davao Region",Republic of the Philippines
119,-97.547392,25.558993,NoticiasR5.com,1050941018,2020-04-15 15:45:38,,city,"Matamoros, Tamaulipas",Mxico
24,-123.5213815,48.45597,Bill Sheridan,1050941173680861184,2020-03-19 15:34:31,"Victoria, British Columbia",city,"Langford, British Columbia",Canada
88,139.6735625,35.76839800000001,,1050941244665344000,2020-02-21 09:23:43, ,city, ,
12940,-91.0907995,30.4591,itskate19,1050941311103193088,2020-03-09 01:26:21,"Many, LA",city,"Baton Rouge, LA",United States
35060,-93.086288,31.7622415,itskate19,1050941311103193088,2020-03-16 20:40:23,"Many, LA",city,"Natchitoches, LA",United States
35980,-71.95685449999998,41.362588,raym,1050941470029611008,2020-06-04 18:11:50,Not Oakland,city,"Mystic, CT",United States
78,-87.18712,14.102075,Melkin J Castego,1050941557,2020-04-18 09:01:36,Honduras,poi,Hyatt Place Tegucigalpa,Honduras
21,-50.9007225,-29.391982000000002,Aline Detoni swaizer,1050941608726814721,2020-03-06 18:05:51,"Rio Grande do Sul, Brasil",city,"Gramado, Brasil",Brazil
35620,-74.005256,40.278876000000004,Joey McCracken,1050941694475194368,2020-03-01 19:58:01,"Lititz, PA",poi,Monmouth University,United States
30260,-76.9145525,41.1215265,Joey McCracken,1050941694475194368,2020-03-07 21:24:59,"Lititz, PA",city,"Allenwood, PA",United States
29540,-76.30373800000002,40.15251,Joey McCracken,1050941694475194368,2020-04-23 00:41:13,"Lititz, PA",city,"Lititz, PA",United States
82,72.866176,19.027201,Mira Gupta,1050942231694196737,2020-03-20 04:19:53,", ",poi,Antophill,India
38060,-111.7375655,33.4057545,isabelle,1050942334207057921,2020-02-17 21:03:58,,city,"Mesa, AZ",United States
175,41.687540000000006,27.508333500000003,n o t h i n g ,1050942384,2020-02-15 16:15:54,"Riyadh,Hail ",city,",   ",  
21,-63.020375,-9.9786905,,1050942657948786689,2020-03-22 22:22:11,"Ariquemes, Brasil",city,"Ariquemes, Brasil",Brasil
88,139.734723,35.61306000000001,Miwa Birch (),105094268,2020-02-14 03:11:40,,city, ,
222,107.185461,-6.2976855,Mukhdori,1050943066771607552,2020-05-14 21:52:27,,city,"Lemahabang, Indonesia",Indonesia
82,73.246024,19.1601335,SilverFOX,1050943211030634496,2020-05-01 14:41:42,Ambernath,city,"Ulhasnagar, India",India
38,-74.24367099999999,4.2622835,martha ardila,1050943259936215040,2020-02-25 13:35:06,"Bogot, D.C., Colombia",city,"Bogot, D.C., Colombia",Colombia
119,-96.937002,18.9252895,Ariel (3 das),1050943532561764352,2020-03-27 00:55:23,Bajo tu cama ,city,"Crdoba, Veracruz de Ignacio de la Llave",Mxico
24,-97.3272,49.7788,"Cody Malcolm, CAIB",1050944347972259845,2020-04-30 00:09:26,"Winnipeg, Manitoba",city,"Macdonald, Manitoba",Canada
21,-63.41808149999999,-9.697751,o joo,1050944539215781890,2020-02-21 00:53:04,"Rondnia, Brasil",city,"Alto Paraso, Brasil",Brasil
82,79.261438,19.0205385,Bablu_Jadhav,1050944642139574272,2020-03-21 12:55:22,Adilabad Utnoor Nrp,city,"Mancherial-Naspur, India",India
35620,-72.9460365,40.8791555,Jason Klees,1050944734347313152,2020-03-14 00:07:28,"Middle Island, NY",city,"Middle Island, NY",United States
9,153.609395,-28.6795255,shanghaishawty,1050944795588214784,2020-04-07 00:45:18,"Byron Bay, New South Wales",city,"Suffolk Park, New South Wales",Australia
88,139.75636450000002,35.68688450000001,Hitoshi Watanabe(),1050944923459973122,2020-02-16 03:37:06, ,city, ,
21,-43.0570065,-22.956648,Mg,1050945122328829953,2020-02-26 17:18:31,"Maric, Sg",neighborhood,"Camboinhas, Niteri",Brasil
175,50.1213985,26.288762,amar,1050945289,2020-04-23 18:18:57,,city,",   ",  
222,106.85687450000002,-6.1823334999999995,Khairul Aslam,105094578,2020-03-29 08:55:27,"T: -1.606967,103.600634",city,"Senen, Indonesia",Indonesia
40060,-77.37253749999998,37.5300055,Chinese Nea,1050945801827028992,2020-03-22 18:56:50,,city,"Montrose, VA",United States
21,-45.490088,-23.6210005,,1050946175979974657,2020-02-14 00:58:32,"Caraguatatuba, Brasil",city,"Caraguatatuba, Brasil",Brasil
171,125.4432615,7.317582499999999,nikoll,1050946349099757568,2020-05-23 07:08:32,,city,"Davao City, Davao Region",Republic of the Philippines
119,-101.623285,21.105767999999998,TravestiLeon,1050946427826958336,2020-02-14 00:25:45,"Azul Maguey, Len",poi,Sensual Play / Real Hacienda,Mxico
21,-43.704006,-22.9216785, J H O N A T A N,1050946849627082752,2020-02-25 06:43:15,Estados Unidos,neighborhood,"Santa Cruz, Rio de Janeiro",Brazil
88,136.70659799999999,35.441961,,1050946951091376128,2020-05-08 12:53:06,,poi,,Japan
36540,-96.24681899999999,41.2647745,megan garcia,1050947043336761345,2020-03-25 04:24:29,Elkhorn nebraska,city,"Elkhorn, NE",United States
23420,-119.87493899999998,36.773078000000005,,1050947437412548608,2020-03-25 06:21:13,,poi,Showit Support Headquarters (My House),United States
41700,-98.5406515,29.417501,val,1050947479,2020-02-14 04:51:41,"Austin, TX",city,"San Antonio, TX",United States
12420,-97.754724,30.3233455,val,1050947479,2020-02-19 07:00:53,"Austin, TX",city,"Austin, TX",United States
41700,-98.5406515,29.417501,val ,1050947479,2020-05-24 07:54:07,"Austin, TX",city,"San Antonio, TX",United States
12420,-97.754724,30.3233455,val ,1050947479,2020-05-26 04:56:13,"Austin, TX",city,"Austin, TX",United States
21,-50.8682765,-30.203618,MIGUEL ,1050947582502064128,2020-06-09 03:04:21,in goma,city,"Viamo, Brasil",Brasil
26420,-95.4464865,29.838495,Rocio,1050947632787546112,2020-02-25 04:29:45,"Houston, TX",city,"Houston, TX",United States
36100,-82.0554015,29.0597265,#sophiastrong,1050947670309785600,2020-05-14 01:11:53,"Florida, USA",city,"Belleview, FL",United States
119,-97.8225365,22.283026,edwin,1050947964506648576,2020-03-23 21:04:21,,city,"Ciudad Madero, Tamaulipas",Mxico
88,140.6166665,36.597301,,1050947994042884098,2020-05-23 00:10:35,,city, ,
18140,-82.985772,39.9946835,Jenna BETLEY,1050948038,2020-02-14 01:24:22,,city,"Columbus, OH",United States
17460,-81.453461,41.516981,Jenna BETLEY,1050948038,2020-03-23 03:16:45,,city,"Mayfield Heights, OH",United States
33540,-114.03115,46.8791,TheWhittleGuy,1050948203422478336,2020-02-20 00:28:07,"Missoula, MT",city,"Missoula, MT",United States
171,121.11279850000001,15.15978,cars,1050948365033254915,2020-02-18 14:25:00,,city,"San Miguel, Central Luzon",Republic of the Philippines
160,-77.10368000000001,-12.005986,Josue Izaguirre,1050948466120282113,2020-03-27 20:10:33,"Lima, Peru",poi,Ciudad Satlite - Santa Rosa,Peru
88,140.63464299999998,36.7839795,,1050948658168922113,2020-03-14 15:04:33,,city, ,
8,-57.5814305,-38.01158750000001,Maii,1050948756,2020-05-24 22:45:16, u  ac iz s Rivr ,city,"Mar del Plata, Argentina",Argentina
222,106.846645,-6.190237000000001,asepwahyudin,105094894,2020-03-06 00:19:21,"DKI Jakarta, Indonesia",city,"Menteng, Indonesia",Indonesia
161,73.06521592,33.69386247,Aphiwe Gree,1050948969990418432,2020-05-09 10:14:31,"Durban, South Africa",city,"Islamabad, Pakistan",Pakistan
178,30.8833,-29.9667,Aphiwe Gree,1050948969990418432,2020-05-22 10:09:19,"Durban, South Africa",city,"Umlazi, South Africa",South Africa
119,-101.170172,20.651612,alfonso Javier Mende,1050949141151412225,2020-03-17 20:31:12,"Salamanca, Guanajuato",city,"Salamanca, Guanajuato",Mxico
200,27.12181673,38.45602278, ,1050949297,2020-02-25 19:44:34,,city,"zmir, Trkiye",Trkiye
82,91.77,26.14,Raktim Dutta,1050949368,2020-05-14 17:42:06,pune,city,"Guwahati, India",India
26380,-90.332674,29.5127555, ,1050949628319989760,2020-05-04 01:27:38,sleeping,city,"Cut Off, LA",United States
38,-75.5496355,10.3904485,. . ,1050950211705671680,2020-02-18 13:58:04,"Armenia, Colombia",city,"Cartagena, Colombia",Colombia
120,101.65386,3.1604099999999997,shaajune ,1050950940285493248,2020-05-15 21:32:06,Malaysia,poi,Sri Hartamas,Malaysia
171,121.1242275,14.606717499999998,V A N E T mermaidinseo,1050951239465226240,2020-02-14 11:37:51,Winner City,city,"Cainta, Calabarzon",Republic of the Philippines
21,-43.441578,-22.911421500000003,Victoria ,1050951254279684096,2020-02-16 15:02:48,"Rio de Janeiro, Brasil",city,"Rio de Janeiro, Brasil",Brasil
82,88.406932,23.528332000000002,Sohel Mondal,1050951302211981313,2020-05-25 01:39:44,"Kolkata,West Bengal,India",neighborhood,"Muragachha, West Bengal",India
88,140.704308,38.273814,,1050951446894530561,2020-02-14 11:07:12,,city,"Sendai-shi Taihaku-ku, Miyagi",Japan
24,-123.123581,49.257639000000005,Reyn,1050951477319979008,2020-04-25 04:26:53,"Vancouver, Canada ",city,"Vancouver, British Columbia",Canada
21,-51.1593095,-30.099836,Ricardo,1050951514418802690,2020-02-15 12:04:49,"Porto Alegre, Brasil",city,"Porto Alegre, Brasil",Brasil
65,2.571084,49.004132,Benot Aublet ,105095156,2020-02-18 14:07:23,"Pau, France",poi,Gare SNCF Aroport Charles de Gaulle TGV,France
222,106.796449,-6.242481,ro'i,1050951853062512641,2020-03-07 14:15:40,Birmingham,poi,GOR Bulungan,Indonesia
119,-103.2131755,20.6215735,,1050951862298570753,2020-04-05 00:28:36,,city,"Tonal, Jalisco",Mxico
88,139.69262600000002,35.666851,acumiho ,1050951868044595201,2020-02-25 01:21:46,,city, ,
175,43.765349,26.348609999999997,,1050952032952209408,2020-02-16 12:06:42,,poi,College of Business and Economics (CBE),Kingdom of Saudi Arabia
120,103.74748192,1.54692319,Mir,1050952285,2020-02-15 13:15:11,,city,"Tebrau, Johor",Malaysia
119,-116.929102,32.332876500000005,angel3xyz,1050952295276396544,2020-05-24 01:06:10,,city,"Tijuana, Baja California",Mexico
44220,-84.03712349999999,39.891771000000006,UntamedUnity,1050952336661762048,2020-04-03 19:49:52,"Park Layne, OH",city,"Park Layne, OH",United States
36420,-97.552161,35.4828435,n.,1050952626,2020-02-23 16:57:56,"Edmond, OK",city,"Oklahoma City, OK",United States
24660,-79.54223400000002,36.099449,Angdalton,1050952732536971264,2020-06-05 22:05:26,,city,"Gibsonville, NC",United States
26420,-95.642741,29.704603000000002,TheGhosted,1050952772,2020-03-11 03:32:07,"Houston, TX",poi,Little Caesars Pizza,United States
171,125.4432615,7.317582499999999,,1050952835737706496,2020-02-19 12:09:47,12.19.05,city,"Davao City, Davao Region",Republic of the Philippines
175,46.685077,24.7219435,     ,1050952904809635840,2020-03-12 11:54:00,",   ",city,",   ",  
22420,-83.74241599999998,43.1702,The Opinionated Archivist,1050953186071273473,2020-02-18 13:18:38,,city,"Clio, MI",United States
88,139.65925049999998,35.7060655,,1050953428258586625,2020-05-13 08:01:12, 1-39-3,city, ,
175,39.2541285,21.5857105,aria,1050953455,2020-03-23 07:57:36,,city,"Jeddah, Kingdom of Saudi Arabia",Kingdom of Saudi Arabia
21,-43.5243665,-22.696528,Garcia!,1050953651718639622,2020-04-13 02:31:50,"Rio de Janeiro, Brasil",city,"Nova Iguau, Brasil",Brasil
99,35.472108,33.890378000000005,Nagi El Saghir MD,1050954079,2020-04-18 11:12:15,American University of Beirut,poi,Raouch,Lebanon
9,145.0531355,-37.9725665,Blazestarninja,1050954430437240832,2020-02-14 22:48:32,,city,"Melbourne, Victoria",Australia
41740,-117.07773300000001,32.77199,Seth Henigan,1050954543603875840,2020-03-09 21:53:17,"Texas, USA",poi,Aztec Football Practice Field,United States
46060,-111.135516,32.3880115,Seth Henigan,1050954543603875840,2020-03-12 06:35:25,"Texas, USA",city,"Marana, AZ",United States
19100,-97.11477049999999,33.202495500000005,Seth Henigan,1050954543603875840,2020-03-25 20:36:07,"Texas, USA",city,"Denton, TX",United States
200,34.580785999999996,36.7911585,baran,1050954903949062144,2020-04-06 22:29:59,Boluk,city,"Yeniehir, Trkiye",Trkiye
96,47.98195850000001,29.325878499999998,eim,1050954929341370373,2020-02-15 08:02:48,,city,"Al Adailiya, Kuwait",Kuwait
120,101.519374,3.072641,Nellya Takde Cancer,1050955311287128064,2020-02-14 00:12:07,"Selangor, Malaysia",city,"Petaling Jaya, Selangor",Malaysia
222,106.788068,-6.2498520000000015,Nellya Takde Cancer,1050955311287128064,2020-03-07 05:00:10,"Selangor, Malaysia",city,"Kebayoran Lama, Indonesia",Indonesia
120,101.552669,3.0512200000000003,Nellya Takde Cancer,1050955311287128064,2020-03-10 01:23:23,"Selangor, Malaysia",city,"Damansara, Selangor",Malaysia
82,77.88198,26.704926,SNEH Special School Agra(NGO),1050955441461751809,2020-02-28 14:48:50,"Agra, India",city,"Dhaulpur, India",India
82,83.2677215,17.725196,Ramya pakki,1050955491826757632,2020-02-14 04:38:50,Visakhapatnam,city,"Vishakhapatnam, India",India
21,-43.441578,-22.911421500000003,Victor Hugo,1050955637356724224,2020-05-29 04:27:33,"Rio de Janeiro, Brasil",city,"Rio de Janeiro, Brasil",Brasil
49,-78.647795,-1.7072189999999998, ,1050955642243026944,2020-04-08 16:35:59,"Riobamba, Ecuador",city,"Riobamba, Ecuador",Ecuador
95,129.361407,35.359586,,1050955746228109312,2020-03-20 10:42:43,    231,poi,,
119,-115.57987849999999,30.156488500000002,Hugo Gomez,1050955830655299584,2020-03-01 04:13:13,"Ensenada, Baja California",city,"Ensenada, Baja California",Mxico
242,121.631754,25.221394,Eric Liao,1050956043935657986,2020-03-19 01:27:39,,poi,,
47900,-76.955799,38.9608415,#dmvfreak,1050956287616389124,2020-05-24 23:30:14,D(M)V,city,"Hyattsville, MD",United States
193,103.493273,14.879316000000001, ;;,1050956540864167938,2020-03-10 04:37:56,,city,"Surin, Thailand",Thailand
24,-78.94820849999998,43.7481015,Lightning Dust,1050956892040617984,2020-02-15 04:04:29,,city,"Ajax, Ontario",Canada
222,100.819336,0.47751800000000005,Tw0 0ne Muda Ibenk,1050957260149547009,2020-04-03 07:44:25,"Kota Yogyakarta, Yogyakarta",city,"Tapung Kiri, Indonesia",Indonesia
162,17.087508,51.141546999999996,ania,1050957355096186880,2020-03-14 16:48:59,"Wrocaw, Polska",poi,Korona,Poland
222,110.41678700000001,-7.621937,Opg,1050957485345890304,2020-05-28 17:07:48,"Sleman, Yogyakarta",city,"Pakem, Indonesia",Indonesia
11460,-83.72997149999999,42.2708395,kurt burke,1050957517382139905,2020-03-03 00:29:42,"Ann Arbor, MI",city,"Ann Arbor, MI",United States
186,-7.9048465,42.34325,Too Yaez,105095766,2020-02-16 18:47:52,Ourense,city,"Ourense, Espaa",Espaa
193,102.12361,14.993681,Axx_Md,1050957794751344641,2020-04-29 10:00:35,"., ",poi,,Thailand
82,75.89291300000001,30.794095000000002,Tushar Knit( jennisterr),1050957868168597505,2020-03-28 02:19:27,,city,"Ludhiana, India",India
95,127.42816268,36.32888313,LEESIYEON,1050957936049020929,2020-03-31 11:26:56, ,city, ,
119,-106.2717475,23.46814,Mercedes,1050957943259058176,2020-02-14 01:43:21,Lesbos  ,city,"Mazatln, Sinaloa",Mexico
21,-42.66040200000001,-21.545102,Pretinha ,1050958326228496384,2020-03-16 05:26:06,"Leopoldina, Brasil",city,"Leopoldina, Brasil",Brasil
71,6.7280155,51.446493,gilbert bougainvillea,1050958468851621888,2020-04-12 08:07:33,Renania Settentrionale-Vestfal,city,"Duisburg, Deutschland",Germania
9,115.9283185,-32.1501005,Bhagya Dissanayake,1050958542683820033,2020-05-24 23:48:00,"Perth, Western Australia",city,"Perth, Western Australia",Australia
120,103.618818,1.482285,k,1050958635956822016,2020-02-23 04:29:09,,poi,Sultan brahim Stadium,Malaysia
171,120.581795,16.422738,RAM,1050958723655458816,2020-04-01 04:29:30,Baguio City,poi,"Pinsao, Baguio City",Republic of the Philippines
30300,-116.979419,46.399266,Cheryl Parham,105095895,2020-02-24 23:42:54,North Idaho,city,"Lewiston, ID",United States
46300,-114.46515500000001,42.561254999999996,Cheryl Parham,105095895,2020-04-17 04:08:20,North Idaho,city,"Twin Falls, ID",United States
30300,-116.979419,46.399266,Cheryl Parham,105095895,2020-04-20 21:59:19,North Idaho,city,"Lewiston, ID",United States
82,80.88440750000002,26.8251695,_,1050959012282347521,2020-04-07 11:43:24,"Lucknow, India",city,"Lucknow, India",India
28140,-94.7658,39.0128,Kelsey,1050959071,2020-04-24 20:34:02,Kansas,city,"Shawnee, KS",United States
24,-123.123581,49.257639000000005,Terita,1050959615070896130,2020-02-18 16:12:37,Coast Salish Territories/Van,city,"Vancouver, British Columbia",Canada
19100,-97.1356375,32.70185,wol5 Kashh,1050960053543624704,2020-04-04 13:45:39,"New York, USA",city,"Arlington, TX",United States
43300,-96.5622275,33.740883000000004,  ,1050960142391566336,2020-02-29 22:43:41,Your mommas crib ;),city,"Denison, TX",United States
35620,-73.81147222,40.58671111,yasta la vista,1050960307,2020-05-09 10:33:18,Sauerland/Ruhrpott,city,"Queens, NY",United States
21,-48.3585835,-19.0043915,Compricada e perfeitinhaah,1050960521061703681,2020-02-14 00:12:07,"Uberlndia, Brasil",city,"Uberlndia, Brasil",Brasil
171,121.20684550000001,14.41719,Ares,1050960759872737280,2020-02-19 13:36:42,,city,"Binangonan, Calabarzon",Republic of the Philippines
24,-79.394813,43.668366999999996,Dena Coffman,1050960912352518144,2020-02-17 22:18:53,Tkaronto,poi,Royal Ontario Museum,Canada
21,-41.7803,-22.3804,nami ,1050961370840223744,2020-04-12 17:23:16,mke,city,"Maca, Brasil",Brasil
88,139.6565525,35.4267515,,1050961721450360833,2020-03-21 03:25:37,,city,  ,
38,-74.0794,4.5997, VCF TV,1050961795,2020-03-16 18:16:38,Latinoamerica,city,"Bogot, D.C., Colombia",Colombia
37980,-75.117998,40.0048655,Shaketia Irby,105096211,2020-02-22 21:09:32,"Philadelphia, PA",city,"Philadelphia, PA",United States
200,29.0052225,41.0213205,Tc apulcu ece izmir,105096216,2020-02-29 12:09:51,Turkiye,city,"stanbul, Trkiye",Trkiye
31080,-117.77291699999999,34.0654505,Covina HS Softball,1050962259587911680,2020-02-14 22:46:30,"Covina, CA",city,"Pomona, CA",United States
19100,-96.6067255,32.719393,OREO,1050962491,2020-03-17 02:02:34,"Dallas, TX",city,"Balch Springs, TX",United States
21,-42.8294125,-22.932913,Bia,1050962797205614597,2020-05-08 22:01:38,,city,"Maric, Brasil",Brasil
219,44.163902,13.972477,HALAH  .,1050962888,2020-06-04 13:25:28,,poi,HOTEL IBB GARDEN,Yemen
222,111.440091,-7.415795,laaa.,1050963078630629376,2020-05-07 05:35:28,"aq exo-l, myday, nctzen",city,"Ngawi, Indonesia",Indonesia
186,-5.6919445,43.509797,Alekys,1050963184188907520,2020-02-14 01:57:55,"Gijn, Espaa",city,"Gijn, Espaa",Espaa
30940,-84.22474799999999,36.941196999999995,mckenzie,1050963263117246464,2020-06-03 21:59:22,"Kentucky, USA",poi,Laurel Lake Corbin KY,United States
31140,-85.582746,38.107638,mckenzie,1050963263117246464,2020-06-10 19:43:51,"Kentucky, USA",city,"Heritage Creek, KY",United States
203,39.188837,-6.887885000000001,carterprince,1050963343949881344,2020-03-12 13:30:17,"Dar es Salaam, Tanzania",poi,Ulongoni,
222,121.823319,-8.708506,inung,1050963846695858176,2020-03-03 05:40:55,"Yogyakarta, Indonesia",poi,"Kampung Tradisional Wologai, Ende",Indonesia
82,82.93295549999998,25.3733755,Yash tripathi,1050963885451137025,2020-03-10 04:28:20,"Varanasi, India",city,"Varanasi, India",India
21,-51.1593095,-30.099836,Princesa da favela,1050963928593895424,2020-02-17 02:20:33,"Porto Alegre, Brasil",city,"Porto Alegre, Brasil",Brasil
21,-38.3284335,-12.8563165,detetive particular,1050964385664049153,2020-03-06 18:16:39,"Salvador, Brasil",city,"Lauro de Freitas, Brasil",Brasil
30,113.949073,22.583266000000002,Mark Long,1050964676148752384,2020-02-25 00:06:14,People's Republic of China,poi, Xili Metro Sta.,
175,46.685077,24.7219435,,1050964889219620864,2020-02-24 09:06:37,",   ",city,"Riyadh, Kingdom of Saudi Arabia",Kingdom of Saudi Arabia
205,-2.79221,53.428729000000004,Prescot Primary School ,105096490,2020-03-04 14:57:11,"Prescot, Merseyside",poi,Prescot Primary School,United Kingdom
240,-2.106246,49.180721999999996,Gracie Barra CI,105096516,2020-03-22 20:10:51,"Jersey & Guernsey , UK",poi,Fort Regent Leisure Centre,United Kingdom
120,101.770181,2.9490515,MR MAN,1050965191410647040,2020-03-23 06:23:36,"Kajang, Selangor",city,"Kajang, Selangor",Malaysia
175,49.9945455,26.353591499999997,Toofy,1050965218396921856,2020-02-28 20:15:30,,city,",   ",  
49,-80.091193,-2.512995,Jeyco Sanchez,1050965912147378176,2020-05-30 19:27:02,,city,"Guayaquil, Ecuador",Ecuador
88,134.51514650000001,34.04320850000001,he-kaityo,1050965913015443456,2020-05-31 23:13:54, ,city,"Tokushima-shi, Tokushima",Japan
205,-1.76682,53.81593349999999,jason-GUnit-Garbutt,1050966147850473473,2020-02-15 18:44:25,"Bradford, England",city,"Bradford, England",United Kingdom
8,-64.1980255,-31.4154565,Jos Arrieta,1050966164027990016,2020-04-06 00:04:28,"Crdoba, Argentina",city,"Crdoba, Argentina",Argentina
37100,-118.731399,34.2673105,Heather Ross,1050966229,2020-05-28 04:13:35,"Simi Valley, CA",city,"Simi Valley, CA",United States
120,101.690659,3.0642635,ameerul rais,105096650,2020-02-14 02:48:48,bukit jalil,city,"Petaling, Wilayah Persekutuan Kuala Lumpur",Malaysia
51,-7.556151,52.150999,Anna Jordan,105096672,2020-02-14 09:16:27,"Waterford, Ireland",city,"Waterford, Ireland",Ireland
85,7.641227000000001,45.109658,Leo Sigma,1050966754032119808,2020-02-16 13:34:35,RT,poi,Allianz Stadium (Juventus Stadium),Italia
88,139.695946,35.650498,MOMO,105096698,2020-03-21 08:59:22,Tokyo / JAPAN,city, ,
24,-79.616073,43.555244,Lori Lynn Maszkowski,1050967082,2020-04-02 11:48:48,"Mississauga, Ontario",city,"Mississauga, Ontario",Canada
16980,-87.732013,41.8335845, **.,1050967177338208256,2020-03-11 03:03:23,she/her,city,"Chicago, IL",United States
41980,-66.29892,18.328898000000002,drg ,1050967226000596992,2020-02-27 00:45:23,Puerto Rico ,poi,En el Carajo,Estados Unidos
82,73.1231,19.2441,Jai Sonar,1050967933927784448,2020-03-10 15:59:17,,city,"Kalyan Dombivali, India",India
82,75.3761955,23.046679,Arvind Vyas,1050968631398387713,2020-03-23 06:29:23,", ",city,"Barnagar, India",India
82,77.689249,8.8160485,   ,1050968805319487488,2020-04-10 09:56:33,"Tirunelveli, India",city,"Tirunelveli, India",India
21,-43.441578,-22.911421500000003,Lara,1050969027139592192,2020-02-14 05:36:19,,city,"Rio de Janeiro, Brasil",Brasil
91,36.863620000000004,-1.2748635,A stable genius,105097023,2020-03-14 07:30:16,,city,"Nairobi, Kenya",Kenya
82,77.58681800000001,14.697060500000001,Smile Plz,1050970508668203008,2020-04-09 04:57:47,,city,"Anantapur, India",India
171,121.3977115,15.8128825,,1050970793784438784,2020-03-13 13:25:01,Makati City,city,"Maria Aurora, Central Luzon",Republic of the Philippines
222,98.6556815,3.5821650000000003,umar ar rasyidin lubis,105097104,2020-03-27 08:25:22,,city,"Medan Baru, Indonesia",Indonesia
95,126.844895,37.1549895,777777777777777777777777777777,1050971222031265792,2020-02-14 00:12:50,,city,"Hwaseongsi, Republic of Korea",Republic of Korea
14,90.38265899999999,23.770536,Mahadi hs1,1050971916779941888,2020-03-08 07:38:24,"Barisal, Bangladesh",poi,"pink city, gulshan 2",Bangladesh
88,137.398415,35.26461,ToKoX,1050971994,2020-03-14 08:47:40, ,poi,,
69,-1.612222,6.693627,Hayford Adusei,1050972319580114944,2020-06-05 20:42:28,"Kumasi, Ghana",city,"Kumasi, Ghana",Ghana
171,120.9873905,14.8512035,desiree na lang,1050972370716909568,2020-03-11 16:04:26,,city,"Santa Maria, Central Luzon",Republic of the Philippines
175,46.685077,24.7219435,Nahla aljammaz,1050972714,2020-05-08 17:34:00,,city,",   ",  
21,-48.45979749999999,-1.2729295,Luciana Brando,105097291,2020-04-07 19:00:55,Paraense ,city,"Belm, Brsil",Brsil
186,1.61676,41.579570000000004,Antoni Font,1050973008,2020-04-19 13:42:16,,city,"Igualada, Espanya",Espanya
88,140.300207,37.4459445, ,1050973112529874944,2020-02-28 05:01:13, ,city,"Koriyama-shi, Fukushima",Japan
85,9.1897,45.4643,Carlo Costantino,1050973543,2020-05-10 12:47:36,"Torino, Piemonte",city,"Milano, Lombardia",Italia
16980,-88.0751745,41.919511,Ryan Krist,1050973566,2020-05-02 04:13:20,"Carol Stream, IL",city,"Glendale Heights, IL",United States
71,6.6170480000000005,51.0860275,Soggi,105097358,2020-02-18 05:55:38,Mnchengladbach,city,"Grevenbroich, Deutschland",Deutschland
30,116.379506,39.905968,Sean,1050974149990961152,2020-03-22 12:42:37,BEIJING,poi, Xinhua Gate,People's Republic of China
117,53.24120550000001,16.7113205,,1050974449258962945,2020-06-06 22:03:36,,city,"Rakhyut, Oman",Oman
88,139.6345155,35.636514,@,1050974763210788865,2020-04-26 23:36:21, ,city,"Setagaya-ku, Tokyo",Japan
82,81.3587455,21.158141,Ashok Sahu,1050974931318648833,2020-04-24 04:54:45,"Bhilai, India",city,"Bhilai, India",India
36740,-81.3677725,28.5016785,LEIGH10 ,1050975160306610176,2020-02-15 00:02:24,"Las Vegas, NV",city,"Orlando, FL",United States
39300,-71.43666999999998,41.698940500000006,LEIGH10 ,1050975160306610176,2020-02-15 19:07:01,"Las Vegas, NV",city,"Warwick, RI",United States
45300,-82.16178199999999,28.012167,LEIGH10 ,1050975160306610176,2020-02-16 04:17:46,"Las Vegas, NV",city,"Plant City, FL",United States
29820,-115.223125,36.232915000000006,LEIGH10 ,1050975160306610176,2020-02-19 18:30:15,"Las Vegas, NV",city,"Las Vegas, NV",United States
36740,-81.3677725,28.5016785,L3IGH10 ,1050975160306610176,2020-02-29 22:31:49,"Las Vegas, NV",city,"Orlando, FL",United States
29820,-115.223125,36.232915000000006,L3IGH10 ,1050975160306610176,2020-03-04 07:03:37,"Las Vegas, NV",city,"Las Vegas, NV",United States
35620,-74.19652450000002,40.662479,L3IGH10 ,1050975160306610176,2020-03-10 06:07:20,"Las Vegas, NV",city,"Elizabeth, NJ",United States
29820,-115.223125,36.232915000000006,L3IGH10 ,1050975160306610176,2020-03-13 19:16:55,"Las Vegas, NV",city,"Las Vegas, NV",United States
36740,-81.3677725,28.5016785,L3IGH10 ,1050975160306610176,2020-03-28 21:40:06,"Las Vegas, NV",city,"Orlando, FL",United States
29820,-115.13516499999999,36.060964500000004,L3IGH10 ,1050975160306610176,2020-04-05 20:01:56,"Las Vegas, NV",city,"Paradise, NV",United States
41940,-121.8737305,37.331159,L3IGH10 ,1050975160306610176,2020-04-10 22:50:29,"Las Vegas, NV",city,"San Jose, CA",United States
29820,-115.2344355,36.0188045,L3IGH10 ,1050975160306610176,2020-04-21 01:12:54,"Las Vegas, NV",city,"Enterprise, NV",United States
31080,-118.4119065,34.0207895,L3IGH10 ,1050975160306610176,2020-05-20 08:13:54,"Las Vegas, NV",city,"Los Angeles, CA",United States
29820,-115.2344355,36.0188045,L3IGH10 ,1050975160306610176,2020-05-21 22:30:18,"Las Vegas, NV",city,"Enterprise, NV",United States
21,-59.9803255,-2.572425,Eu_gabriel,1050975264195432448,2020-03-26 00:38:26,"Manaus, Brasil",city,"Manaus, Brasil",Brasil
178,18.5956525,-34.067997999999996,carlos,1050975314585812992,2020-03-17 06:58:32,"Cape Town, South Africa",city,"Mitchell's Plain, South Africa",South Africa
51,-6.92611,52.8408,Jahk,1050975643,2020-04-29 20:14:41,"Carlow, Ireland",city,"Laois, Ireland",Ireland
21,-51.0952005,-29.918787,Matheus Nunes,1050975643939287040,2020-03-04 03:58:13,,city,"Cachoeirinha, Brasil",Brasil
175,43.9595905,26.345051,,1050975674,2020-02-14 12:04:06,Saudi Arabia Hail,city,",   ",  
35620,-73.8311875,40.6708795,Lucciano Reberte,1050975704282787840,2020-03-17 19:30:57,"New York, NY",city,"Queens, NY",United States
82,78.6435015,27.80579, ,1050976112589729792,2020-02-15 16:45:52,"New Delhi, India",city,"Kasganj, India",India
22220,-94.265999,36.4575605,Trav,1050976628271181824,2020-02-20 01:59:50,"Bella Vista, AR",city,"Bella Vista, AR",United States
99,35.495802000000005,33.871202000000004,lanah,1050976647694962688,2020-05-13 07:09:58,Ras Beirut ,poi,Beirut Arab University (BAU),Lebanon
21,-49.11254200000001,-22.2387405,Carolzinhaa,1050976675398410240,2020-02-14 02:57:47,"Ibitinga, Brasil",city,"Bauru, Brasil",Brasil
41,-79.037704,22.656235000000002,Ani,1050977166,2020-03-16 02:36:00,,poi,Cayo Santa Maria,Cuba
33100,-80.1698025,25.9356415,Ani,1050977166,2020-03-28 03:25:26,,city,"North Miami Beach, FL",United States
82,78.46509449999998,17.3886495,Abid Hussain,105097755,2020-04-21 15:36:57,"Hyderabad, India",city,"Hyderabad, India",India
19100,-97.079654,32.931834,Lisa Hunt Hammer,1050977689,2020-03-05 18:08:52,,city,"Grapevine, TX",United States
28940,-84.180557,35.8619035,Lisa Hunt Hammer,1050977689,2020-03-20 00:14:11,,city,"Farragut, TN",United States
171,125.4432615,7.317582499999999,nie,1050977763576827905,2020-02-18 04:32:28,ila pidot,city,"Davao City, Davao Region",Republic of the Philippines
171,120.6619125,15.0677605,K H I M,1050977916727644160,2020-03-31 07:01:56,,city,"San Fernando City, Central Luzon",Republic of the Philippines
42660,-122.337433,47.612049,PhoenixRising,1050977920125042688,2020-05-31 03:14:26,"Edmonds, WA",poi,Westlake Center,United States
152,4.6941499,52.57175,Melanie Lamers,105097811,2020-02-27 09:17:13,Limmen,city,"Castricum, Nederland",Nederland
31080,-118.1567105,33.809171500000005,Ferdinand,1050978117202763777,2020-04-01 16:23:26,"Long Beach, CA",city,"Long Beach, CA",United States
16940,-104.787092,41.1352835,Cyberstronaut,1050978755030573056,2020-04-16 01:19:44,"East Pleasant View, CO",city,"Cheyenne, WY",United States
151,3.1689785,6.4837940000000005,Adedokun Olumide Daniel,1050979132975316992,2020-04-20 16:32:57,,city,"Ojo, Nigeria",Nigeria
88,139.8491898,35.807555799999996,Emma Morales,1050979472,2020-04-26 02:30:07,,city,"Yashio-shi, Saitama",Japan
193,101.244291,16.790670000000002,C.WIN,105097965,2020-02-14 01:57:24,", ",city,", ",
31080,-118.24469979999999,34.00055069,Evan Jo,1050979827614928902,2020-02-18 16:50:06,"Plano, TX",city,"Los Angeles, CA",United States
19100,-96.7977,32.7774,Evan Jo,1050979827614928902,2020-03-05 01:46:19,"Plano, TX",city,"Dallas, TX",United States
31080,-118.13083333,33.93805556,Evan Jo,1050979827614928902,2020-03-20 21:03:13,"Plano, TX",city,"Downey, CA",United States
205,-0.681978,52.495752,ewxn,1050980017,2020-05-23 11:33:53,,poi,M&S Simply Food,United Kingdom
82,77.4233395,28.773568,DAUD HASAN,1050980869719056384,2020-05-05 19:51:59,,city,"Ghaziabad, India",India
205,-3.1798,51.4970015,Jane beddall,1050981332,2020-03-16 15:13:03,,city,"Cardiff, Wales",United Kingdom
30,121.501888,31.311315000000004,,1050981368610471936,2020-04-21 06:04:06,", ",poi,Bilibili HQ,
40140,-114.299444,34.146477000000004,nn llo. ,1050981712086294528,2020-02-27 18:00:22,United States,city,"Parker, AZ",United States
171,121.0444275,14.349252499999999,ja9,1050981903929466880,2020-04-08 02:32:45,,city,"San Pedro, Calabarzon",Republic of the Philippines
171,125.632166,7.086989,R J B G,1050981948020015104,2020-03-04 10:00:38,"Gen. Santos City, Soccsksargen",poi,Mindanao Medical Foundation College,Republic of the Philippines
222,110.45487,-7.806732000000001,Yusufyuwantoro,1050982130870697984,2020-03-30 08:31:35,"Yogyakarta, Indonesia",city,"Berbah, Indonesia",Indonesia
82,74.736304,34.177133999999995,Bhat Wahid,1050982253034000386,2020-03-14 17:32:25,"Baramula, Jammu And Kashmir",city,"Baramula, Jammu And Kashmir",
21,-43.360371,-22.813941,Faabi ,1050982510526717953,2020-03-26 23:00:22,"Belford Roxo, Brasil",neighborhood,"Pavuna, Rio de Janeiro",Brasil
200,28.985889,41.037772,Kutay Karademir,1050982550917787648,2020-04-15 18:51:52,,city,"Samsun, Trkiye",Trkiye
193,100.6309065,13.901032, Wa,1050982603,2020-06-10 15:23:14,,city,", ",
193,100.520553,13.715653,kamonwan,1050982732845596672,2020-02-15 08:16:14,", ",city,"Yannawa, Thailand",Thailand
171,121.0311415,14.7108935,ako lang to si stela,1050982785601556481,2020-02-16 15:53:02,samo,city,"Caloocan City, National Capital Region",Republic of the Philippines
82,86.13242650000001,25.417144,MD kashif nazar,1050982797010030592,2020-03-18 11:46:01,"Begusarai , ",city,"Begusarai, India",India
38,-72.47709300000001,8.075582,AlejandraA,1050982913997762561,2020-02-21 21:30:18,,city,"Ccuta, Colombia",Colombia
38,-76.684292,5.9797065,Junior Saga,1050983134718771200,2020-02-14 19:26:48,"Quibd, Colombia",city,"Quibd, Colombia",Colombia
19100,-97.040048,32.899190999999995,Yung Hank Trilliams,1050983286837633024,2020-03-14 10:38:17,Rippin Lip & Spittin Dip,poi,Dallas Fort Worth International Airport (DFW),United States
18580,-97.7973005,27.5856875,Yung Hank Trilliams,1050983286837633024,2020-03-15 07:59:08,Rippin Lip & Spittin Dip,city,"Bishop, TX",United States
38900,-122.630908,45.536402,Yung Hank Trilliams,1050983286837633024,2020-04-01 16:02:26,Rippin Lip & Spittin Dip,city,"Portland, OR",United States
171,120.5287295,15.2125625,tey,1050983303979753473,2020-05-26 05:04:42,"Mabalacat, Central Luzon",city,"Mabalacat, Central Luzon",Republic of the Philippines
88,139.69262600000002,35.666851,,1050983764677951488,2020-03-15 06:13:29, ,city,"Shibuya-ku, Tokyo",Japan
222,110.984799,-6.903800500000001,Choirul Afdhol,1050984043536211968,2020-02-19 12:43:26,"Pati,Jawa Tengah",city,"Kayen, Indonesia",Indonesia
151,8.136623499999999,7.1942710000000005,Obonyilo Samuel,1050984389692284928,2020-06-01 11:22:13,,city,"Otukpo, Nigeria",Nigeria
33100,-80.14917249999999,26.150368,Patrick Stepelton,1050984470252331008,2020-04-20 07:24:59,Broward County,city,"Fort Lauderdale, FL",United States
85,13.745307,43.262816,Holiday Family Village,105098544,2020-02-19 08:49:31,"Porto Sant'Elpidio, Marche",city,"Porto Sant'Elpidio, Marche",Italia
91,36.81466384,-1.27391042,Mosoti Gathogo,1050985524,2020-03-10 06:04:58,,city,"Nairobi, Kenya",Kenya
82,77.095086,28.638489500000002,khan,1050985866,2020-04-12 08:04:18,"Badarpur, New Delhi",city," , ",
161,71.4577635,30.191459,Malik UbaidPTI,1050986269386465280,2020-04-01 22:56:03,,city,"Multan, Pakistan",Pakistan
200,29.414521500000003,40.806087,AZAD,1050986530255396864,2020-02-15 20:11:42,Kocaeli ,city,"Gebze, Trkiye",Trkiye
35620,-73.99470699999999,40.733228000000004,SOFIA,1050986629534556160,2020-03-25 23:20:51,NEW YORK CITY,poi,NYU Bronfman Center,United States
171,121.06314099999999,14.330304,Blinding Lights,1050986662669344769,2020-06-04 09:29:14,"Pasay City, National Capital R",poi,Bian,Republic of the Philippines
65,2.1184065,50.5144785,Oc ,1050986870430142465,2020-03-28 10:36:21,"Fruges, France",city,"Fruges, France",France
96,47.673682,29.347893,no.la,1050986935,2020-02-14 17:04:21,   ,city,",  ", 
120,103.838094,1.5254035,Dhenesh,1050987109329190912,2020-03-09 03:51:15,"Selangor, Malaysia",city,"Plentong, Johor",Malaysia
88,139.104051,34.887788,29RR,1050987319182782464,2020-06-06 12:16:54,,city, ,
171,121.0627355,14.683012,Wellie Rebilyame,1050987610875682816,2020-06-05 17:49:21,National Capital Region,city,"Quezon City, National Capital Region",Republic of the Philippines
31460,-120.063829,36.9637405,Kayleigh,1050988124925394944,2020-02-14 21:22:47,,city,"Madera, CA",United States
119,-98.57360200000001,19.777762,Antonio Villalva,1050988697334816768,2020-05-08 20:24:45,"Pachuca de Soto, Hidalgo",poi,"Cd Sahagn, Hgo.",Mxico
88,134.947655,34.6829365,,1050988886745264128,2020-04-25 08:01:55,,city, ,
19100,-96.7349005,33.06124250000001,NDfan13Goirish,1050988890608283655,2020-02-15 03:19:44,,city,"Plano, TX",United States
19100,-96.69960400000001,33.1946515,Martyn Lucas,105098899,2020-03-02 07:26:20,"T: 53.409519,-1.409879",city,"McKinney, TX",United States
21,-45.6207325,-23.752367,Janette Flausino,105098907,2020-02-28 19:03:27,,city,"So Sebastio, Brasil",Brazil
200,37.387009000000006,37.062044,Bood Health,1050989322936168448,2020-04-04 12:04:18,"stanbul, Trkiye",city,"Gaziantep, Trkiye",Trkiye
171,123.761067,10.208683,carlos,1050989415634358272,2020-03-12 20:09:10,Switzerland,poi,Naga Boardwalk,Republic of the Philippines
222,119.8887962,-0.8490635,ArhamKaramy,1050989763354800133,2020-03-06 02:44:41,"Polewali, Indonesia",city,"Palu Timur, Indonesia",Indonesia
31080,-117.7823605,33.689732,Sis,1050990218008977408,2020-05-14 06:30:40,VOSB,city,"Irvine, CA",United States
40140,-117.294096,34.134925,Sis,1050990218008977408,2020-06-01 04:10:33,VOSB,city,"San Bernardino, CA",United States
119,-103.4847745,20.790657000000003,Ian Alejandro Orozco,1050990636810129409,2020-02-14 12:10:32,"Vancouver, British Columbia",city,"Zapopan, Jalisco",Mexico
30,101.71844399999999,36.642362,,1050991083075719168,2020-03-26 07:14:02,,poi,637,People's Republic of China
158,174.75433850000005,-41.2529975,triana_adek,1050991121017450496,2020-03-31 05:21:59,New Zealand,city,"Wellington City, New Zealand",New Zealand
85,8.455633500000001,45.2304015,Bettyqueen58,1050991365742583808,2020-02-15 18:53:32,"Casale Monferrato, Piemonte",city,"Stroppiana, Piemonte",Italia
173,133.7204185,45.9081965,SeanD,1050991392783126528,2020-05-08 04:51:16,Heilongjiang,city,", ",
222,105.2853115,-5.3778475,tanzie,1050991449330741248,2020-02-14 13:46:02,,city,"Sukarame, Indonesia",Indonesia
88,139.6565525,35.4267515,/,105099190,2020-03-06 12:38:14,  ,city,  ,
65,2.5441675000000004,48.795065,Maciej,1050992006141542400,2020-02-23 22:10:20,"Warsaw, Poland",city,"Chennevires-sur-Marne, France",France
71,8.6833745,49.406116,Maciej,1050992006141542400,2020-05-04 14:27:31,"Warsaw, Poland",city,"Heidelberg, Germany",Germany
65,7.762207999999998,48.5693065,Maciej,1050992006141542400,2020-05-31 14:18:35,"Warsaw, Poland",city,"Strasbourg, France",France
222,115.2261395,-8.705967999999999,Ketut Yudana,1050992713854668800,2020-02-14 14:10:04,Sanur Area,city,"Denpasar Selatan, Indonesia",Indonesia
47900,-77.0143985,38.898603,dimitri,1050993325891874816,2020-02-18 02:06:28,,city,"Washington, DC",United States
12580,-76.69140250000002,39.240504,dimitri,1050993325891874816,2020-02-22 17:52:33,,city,"Arbutus, MD",United States
47900,-77.0143985,38.898603,dimitri,1050993325891874816,2020-02-22 19:46:13,,city,"Washington, DC",United States
12580,-76.62048200000002,39.284713,dimitri,1050993325891874816,2020-02-24 16:26:24,,city,"Baltimore, MD",United States
47900,-77.0143985,38.898603,dimitri,1050993325891874816,2020-02-28 00:42:28,,city,"Washington, DC",United States
35620,-73.9487755,40.655138,dimitri,1050993325891874816,2020-03-01 00:11:01,,city,"Brooklyn, NY",United States
47900,-77.0143985,38.898603,dimitri,1050993325891874816,2020-03-04 05:33:04,,city,"Washington, DC",United States
12580,-76.62048200000002,39.284713,dimitri,1050993325891874816,2020-03-09 16:58:44,South FL ,city,"Baltimore, MD",United States
47900,-77.0143985,38.898603,dimitri,1050993325891874816,2020-03-09 23:21:25,South FL ,city,"Washington, DC",United States
33100,-80.08421200000002,26.617028499999996,dimitri,1050993325891874816,2020-03-21 18:36:38,South FL ,city,"Lake Worth, FL",United States
21,-43.441578,-22.911421500000003,Menorzinho Da Lapa,1050993491394875392,2020-02-14 18:15:16,"Rio de Janeiro, Brasil Cosmos ",city,"Rio de Janeiro, Brasil",Brasil
82,77.28614350000002,28.59746,Aditya Paul,1050993895922954240,2020-03-14 09:54:11,"New Delhi, India",neighborhood,"Mayur Vihar, New Delhi",India
88,141.36126299999998,43.1001895,,105099434,2020-03-03 03:31:30, ,city,  ,
88,139.699016,35.661864,,1050994373423378432,2020-02-24 04:59:33,,poi,GALLERY X,Japan
55,-89.2045445,13.746191,Abby,1050994586590609408,2020-02-14 15:08:28,El Salvador,city,"Cuscatancingo, El Salvador",El Salvador
160,-76.9814185,-12.1265765,Abby,1050994586590609408,2020-02-28 17:25:17,El Salvador,city,"Santiago de Surco, Peru",Peru
171,121.0393165,14.2994805,MONTEFALCO'S ARE COMING/ GET READY!,1050994599001391104,2020-03-21 14:19:08,sa bahay ng jonaxx boys,city,"Carmona, Calabarzon",Republic of the Philippines
171,121.03131,14.407882999999998,nicole.,1050994644761239552,2020-03-03 12:57:29,,city,"Muntinlupa City, National Capital Region",Republic of the Philippines
88,139.57913,35.703908,HIRO@,1050994675669032960,2020-03-07 07:18:07, ,poi, ,
71,12.585634,53.775838,julia.k.g.,1050995047955607554,2020-02-15 10:51:41,Deutschland,city,"Teterow, Deutschland",Germany
65,2.347003,48.8588335,Ppite Valle de Seine,1050995576966406144,2020-02-18 19:36:07,France,city,"Paris, France",France
222,106.79460300000001,-6.536677, ,1050995717383192576,2020-05-05 07:53:00, ,city,"Tanah Sareal, Indonesia",Indonesia
171,125.18753600000001,6.116669,,1050995931057860608,2020-05-16 09:17:41,"Norala, Soccsksargen",poi,Aleia,Republic of the Philippines
18580,-97.056372,28.044102,JenNic333,1050995960615239680,2020-05-23 13:39:19,"San Antonio, TX",city,"Rockport, TX",United States
41700,-98.5406515,29.417501,JenNic333,1050995960615239680,2020-05-28 01:31:35,"San Antonio, TX",city,"San Antonio, TX",United States
82,72.87424399999999,19.174139999999998,Amruta Dabholkar,1050996595909582849,2020-03-03 10:04:21,Andheri West Mumbai,city,"Mumbai, India",India
152,6.2416625,52.2694005,AmranAlsultan,1050996902001557504,2020-02-16 00:59:25,"Deventer, Nederland",city,"Deventer, Nederland",The Netherlands
41700,-98.613924,29.592978999999996,siwar ,1050997050534432768,2020-03-12 01:17:12,,poi,Chick-fil-A,United States
12420,-97.754724,30.3233455,siwar ,1050997050534432768,2020-04-26 00:17:53,"San Antonio, TX",city,"Austin, TX",United States
41700,-98.1232495,29.705614,siwar ,1050997050534432768,2020-04-26 01:02:31,"San Antonio, TX",city,"New Braunfels, TX",United States
193,100.5445395,13.78024,PIEKPUNN888,1050997675917639681,2020-02-24 00:53:16,", ",city,", ",
205,-1.396467,50.9213275,Michael,1050998066747252736,2020-02-14 23:05:51,"Fort William, Scotland",city,"Southampton, England",United Kingdom
175,42.533355,18.303816," |jamila""",1050998228320219137,2020-03-23 07:07:38, ,city,",   ",  
82,74.48087100000002,15.882988500000002,Akash,1050998290177806336,2020-03-17 03:03:45,,city,"Belgaum, India",India
186,-3.7035075,40.4777945,Sara Rodrguez Marn,105099851,2020-03-08 20:13:54,Madrid - Barcelona - Cdiz,city,"Madrid, Spain",Spain
222,101.326073,-2.0249545,H A M B A,1050998533149487104,2020-02-14 17:21:31,Indonesia,city,"Hamparan Rawang, Indonesia",Indonesia
205,-1.8906405,52.493966500000006,Dr Manu Sasidharan,105099866,2020-02-20 17:17:03,United Kingdom,city,"Birmingham, England",United Kingdom
30780,-92.342322,34.721886,Stacey James McAdoo,1050999152820310021,2020-02-14 01:57:08,,city,"Little Rock, AR",United States
45500,-94.03656,33.473106,Stacey James McAdoo,1050999152820310021,2020-03-08 13:12:58,,poi,Holiday Inn Texarkana Arkansas Convention Center,United States
40780,-92.944609,35.138407,Stacey James McAdoo,1050999152820310021,2020-03-10 16:24:29,,poi,Winthrop Rockefeller Institute,United States
30780,-92.342322,34.721886,Stacey James McAdoo,1050999152820310021,2020-03-12 00:37:37,,city,"Little Rock, AR",United States
96,47.900332,29.253242999999998,neama,1050999157,2020-02-17 08:40:37,Kuwait,poi,Kuwait University - Shedadeyah,Kuwait
19780,-93.774755,41.564257500000004,Darren Liu,1050999649383927808,2020-03-29 20:19:06,"West Des Moines, IA",city,"West Des Moines, IA",United States
88,141.303543,43.0140685,,105099983,2020-02-17 23:33:11, ,city,  ,
82,77.10562200000003,20.7051955,Pushkar Deo,1050999973691588608,2020-03-22 12:09:10,"Pune, India",city,"Akola, India",India
200,28.056431,37.616816,ala lgn,1051000075235876864,2020-03-04 05:12:44,"zmir, Trkiye",city,"ine, Trkiye",Turkey
88,139.523573,37.454799,WATARU,105100024,2020-02-15 09:20:26,  ,poi, (Aizu Kawaguchi Sta.),
205,-1.4568135,52.644747,kittybridge72,1051000322078982144,2020-02-15 14:41:12,,city,"Congerstone, England",United Kingdom
82,77.3508815,28.3312135,Pinky,1051000853929320448,2020-03-23 11:07:54,"New Delhi, India",city,"Faridabad, India",India
26420,-95.057125,29.6658065,isaias,1051000866,2020-02-24 23:58:21,Whole lotta ,city,"La Porte, TX",United States
50,32.311993,31.255734999999998,Ahmed Ali,1051000941133074432,2020-05-21 17:39:31,,poi,Port Fouad Ferry |  ,
46700,-122.236539,38.132236999999996,manny rose blanchard,1051001334978101248,2020-04-22 22:58:32,"San Francisco, CA",poi,Dan Foley Sport Park,United States
88,129.900196,33.132914,Yuuhi,1051001423406616576,2020-04-14 16:04:35,  ,city, ,
88,130.910358,33.483540999999995,yumigong,105100162,2020-03-14 05:05:54,,poi,,
193,100.90929100000001,12.940204,   ,1051002567595966464,2020-06-01 12:16:55, ,poi, (Pattaya) SRT3041,
42200,-119.8550785,34.421639,greg peppers,1051003041070034944,2020-04-23 21:08:14,"Torrance, CA",city,"Isla Vista, CA",United States
88,142.44495700000002,43.750103,,1051003109990789120,2020-02-14 23:18:19, 123122-59,city, ,
21,-46.428146000000005,-23.616979500000003,$$$$. !,1051003342124650497,2020-03-24 04:52:39,"So Paulo, Brasil",neighborhood,"Iguatemi, So Paulo",Brasil
186,-2.881943,43.302056500000006,World Rural Forum,105100338,2020-03-05 10:45:39,,city,"Derio, Espaa",Espaa
82,81.71142449999998,19.1230615,Sanjay GoldtaxX,1051003724569563136,2020-03-30 09:26:03,,city,"Jagdalpur, India",India
82,72.87424399999999,19.174139999999998,Rolland Richard Mathews,1051003805121355777,2020-04-09 03:47:47,,city,"Mumbai, India",India
82,77.766724,15.684185999999999,Thillairajan,1051003972322881536,2020-04-27 15:55:02,koodan kulam,poi,APSRTC Kodumuru Bus Station,India
88,132.684349,35.400997,Misa,105100407,2020-06-10 02:48:47, ,poi,,
82,78.036709,27.168941999999998,ER. Vishnu kumar Berojgar,1051004083476164608,2020-03-16 12:11:21,"Agra, India",city,"Agra, India",India
205,-2.23348,53.4569525,Eilish Lynch,1051004096,2020-03-08 11:53:01,"Manchester, England",city,"Manchester, England",United Kingdom
191,8.5367615,47.37746900000001,S.A,1051004115671748608,2020-04-08 15:42:32,,city,"Zurich, Switzerland",Switzerland
117,58.4641695,23.549159000000003,S.A,1051004115671748608,2020-04-09 13:51:16,,city,"Muscat, Oman",Oman
31080,-118.4119065,34.0207895,Mario Carabez lll,1051004204431462401,2020-03-23 20:54:16,"Los Angeles, CA",city,"Los Angeles, CA",United States
41740,-117.10498899999999,32.810012,Mario Carabez lll,1051004204431462401,2020-04-09 02:41:05,"Los Angeles, CA",city,"San Diego, CA",United States
119,-116.929102,32.332876500000005,Mario Carabez lll,1051004204431462401,2020-04-09 03:02:39,"Los Angeles, CA",city,"Tijuana, Baja California",Mexico
31080,-118.4119065,34.0207895,Mario Carabez lll,1051004204431462401,2020-04-10 20:02:59,"Los Angeles, CA",city,"Los Angeles, CA",United States
175,39.6540485,24.462089000000002,ABDULLAH AL SAYED.,1051004233980493826,2020-04-09 10:42:38,Dammam,city,"Al Madinah Al Munawwarah, Kingdom of Saudi Arabia",Kingdom of Saudi Arabia
35620,-74.066663,40.7180015,Hitaxi Intwala,1051004396773900289,2020-02-18 15:29:36,"Jersey City, NJ",city,"Jersey City, NJ",United States
200,32.8183815,39.8889765,pilot_serkan,1051004425421185025,2020-02-28 18:12:58,,city,"Ankara, Trkiye",Trkiye
21,-51.090623,-26.120767,Be Baniski,105100454,2020-03-03 00:11:28,,city,"Unio da Vitria, Brasil",Brazil
158,174.8562435,-36.595729,Beacon_Ropes,1051004579305779201,2020-04-11 02:24:56,"Auckland, New Zealand",city,"Auckland, New Zealand",New Zealand
205,0.281605,52.0980845,Simon Walker,1051004742,2020-03-18 22:34:47,"Linton, England",city,"Linton, England",United Kingdom
191,6.62783843,46.50088924, BabyC ,105100478,2020-04-21 09:13:34,where i am meant to be,city,"Lausanne, Switzerland",Switzerland
85,10.0,45.0, BabyC ,105100478,2020-05-29 10:20:37,where i am meant to be,city,"Besenzone, Emilia Romagna",Italy
41860,-122.0772753,37.9828063, BabyC ,105100478,2020-06-02 12:27:57,where i am meant to be,city,"Pacheco, CA",United States
171,121.7674675,17.599867500000006,      ,1051004831073062912,2020-02-15 01:42:41,"Conner, Cordillera Admin Regio",city,"Tuguegarao City, Cagayan Valley",Republic of the Philippines
41180,-90.4276455,38.7595095,nevermore,1051005242161139712,2020-02-18 08:00:18,Norway,city,"Bridgeton, MO",United States
30060,-92.6605085,37.6756455,nevermore,1051005242161139712,2020-02-18 23:57:09,Norway,city,"Lebanon, MO",United States
44180,-93.22153399999999,37.036603,nevermore,1051005242161139712,2020-03-11 07:54:41,Norway,city,"Ozark, MO",United States
41180,-90.247824,38.653771,ra,1051005242161139712,2020-05-30 03:34:50,Norway,city,"St Louis, MO",United States
205,-0.44236099999999995,51.537061,Stuart,1051005727618289664,2020-05-23 12:13:16,,city,"Hillingdon, London",United Kingdom
222,119.4223375,-5.1886470000000005,NURUL ISTIQAMAH,105100604,2020-02-18 13:25:55,,city,"Tamalate, Indonesia",Indonesia
175,46.685077,24.7219435,Ikramkhan4046@gmil.com@gmil.comIkramkhan4046@gmil.,1051006383263571968,2020-03-27 09:39:58," ,   ",city,"Riyadh, Kingdom of Saudi Arabia",Kingdom of Saudi Arabia
222,106.8,-6.16666667,Christ Saja,105100648,2020-05-10 18:43:20,Indonesia,city,"Grogol Petamburan, Indonesia",Indonesia
205,-0.115406,51.4603395,Baron Von Haughty,1051006879525232640,2020-02-14 03:11:51,,city,"Lambeth, London",United Kingdom
117,59.5317045,21.814355,,1051006980100431872,2020-06-03 12:33:36,  ,city,"Al Ashkharah, Oman",Oman
8,-57.84025,-38.27083,Alan Challier,1051007100,2020-03-24 14:25:54,,city,"Miramar, Argentina",Argentina
16980,-88.37506450000002,42.2266935,Kelley,1051007130,2020-05-31 04:12:48,,city,"Lakewood, IL",United States
12420,-97.72802800000001,30.372659000000002,Aaron Hagel,1051007170723106816,2020-04-12 01:45:54,"Austin, TX",poi,Chili's Grill & Bar,United States
171,123.8397925,10.69522,pOpOo,1051007502937022464,2020-03-24 12:11:01,"Cebu City, Central Visayas",city,"Tuburan, Central Visayas",Republic of the Philippines
200,35.524409999999996,38.701086,Rosa Esra,1051007922535317504,2020-02-14 17:50:48,"Kayseri, Trkiye",poi,Erciyes niversitesi Sabanc Kltr Merkezi,Trkiye
225,55.57154,25.390280999999998,Neelam khatri,1051007991439400961,2020-04-05 15:41:46,United Arab Emirates,poi,Lavender Tower,United Arab Emirates
82,72.78910450000002,21.171369,Amit Kumaryadav,1051008233391804417,2020-03-15 15:27:38,Baliaa.Up,city,"Surat, India",India
200,34.9517415,40.552259,Mustafa Tal,1051008328896266240,2020-02-20 20:10:12,,city,"orum, Trkiye",Trkiye
65,2.347003,48.8588335,cansu,1051008332994146304,2020-04-07 17:48:16,,city,"Paris, France",France
193,100.502445,13.723465,,1051008576754409473,2020-02-16 01:03:54,Bangkok Thailand,city,", ",
205,-2.915427,53.4198785,James,1051008882435387394,2020-04-04 15:38:14,"Liverpool, England",city,"Liverpool, England",United Kingdom
200,29.0052225,41.0213205,Mehmet Birlik,1051008981299290113,2020-02-24 07:20:06,,city,"stanbul, Trkiye",Trkiye
200,29.11215768,40.94467878,re_cep,105100912,2020-03-12 20:18:03,istanbul,city,"stanbul, Trkiye",Trkiye
65,5.9097745,45.694245,Laurent Nunez,1051009358627307520,2020-02-14 07:11:38,"Paris, France",city,"Aix-les-Bains, France",France
161,72.31560350000002,32.295889,Muhammad Iftikhar Ahmed,1051009395897892865,2020-03-21 15:55:24,,city,"Khushab, Pakistan",Pakistan
222,110.46520749999999,-7.7443824999999995,siswa akhir tahun,1051009470069846016,2020-02-24 11:22:04,"Yogyakarta, Indonesia",city,"Kalasan, Indonesia",Indonesia
222,106.833312,-6.216786,hey.boo_,1051009857954803712,2020-02-17 03:54:36,,poi,Lembaga Kebijakan Pengadaan Barang/Jasa Pemerintah (LKPP),Indonesia
88,139.7926315,35.90661400000001,,105101004,2020-02-15 23:01:06,,city, ,
200,39.318857,37.754151,Musa Bikec,1051010098120802305,2020-02-18 17:56:08,,poi,Siverek ar,Trkiye
85,11.64950877,45.34100947,Diego Zanetti,1051010165540044800,2020-03-27 08:17:54,"Vo', Veneto",city,"Vo', Veneto",Italia
82,77.403878,32.0685025,alsi bhondor,1051010207986401280,2020-03-08 19:49:52,,city,"Kullu and Manali, India",India
171,122.1472415,7.175472999999999,HmnhMrFlrsSlvdr,1051010328954265601,2020-03-07 15:32:48,,city,"Zamboanga City, Zamboanga Peninsula",Republic of the Philippines
82,84.8066635,25.9224675,Gaurav Kumar,1051010609087578113,2020-03-15 08:47:53," , ",city,"Chhapra, India",India
82,72.8899,19.0658,Chinmay Karnik,1051010958,2020-02-23 06:22:48,India,city,"Mumbai, India",India
171,123.846722,10.3748325,geraldberodivilas,1051011109115686913,2020-02-18 12:42:53,"Guiuan, Eastern Samar",city,"Cebu City, Central Visayas",Republic of the Philippines
88,138.5892569,36.3494924,,1051011412808544256,2020-02-26 07:49:40,"Mataram, Indonesia",city,"Karuizawa-machi, Nagano",Japan
222,116.106867,-8.581813,,1051011412808544256,2020-03-28 04:48:49,"Karuizawa-machi, Nagano",city,"Mataram, Indonesia",Indonesia
88,139.62616896,35.90650724,(),1051011447474417664,2020-02-14 12:53:45,,city,"Saitama-shi Omiya-ku, Saitama",Japan
222,106.9363825,-6.2931675,Kr,1051011972911661057,2020-03-23 14:36:46,"Kota Batam, Kepulauan Riau",city,"Pondokgede, Indonesia",Indonesia
120,101.6536755,3.0329245,#KitaJagaKita,1051012442107523078,2020-02-16 06:03:31,Malaysia,city,"Petaling, Selangor",Malaysia
21,-43.441578,-22.911421500000003,Ediinho /+/,1051012632549974016,2020-02-16 12:11:01,"Rio de Janeiro, Brasil",city,"Rio de Janeiro, Brasil",Brasil
21,-48.904825,-27.121082,l a i s a,1051012676,2020-04-28 14:44:42,"Santa Catarina, Brasil",city,"Brusque, Brasil",Brasil
205,0.4571355,51.570425,WLTDO?_KBC,1051012781728776192,2020-02-29 13:05:18,"Kingswood, Basildon",city,"Basildon, East",United Kingdom
171,120.968701,14.3135285,Anj,1051013074294005765,2020-03-10 14:59:24,,city,"Dasmarinas, Calabarzon",Republic of the Philippines
31080,-118.4119065,34.0207895,J. Meta,1051013151758536705,2020-03-12 08:58:25,"Los Angeles, CA",city,"Los Angeles, CA",United States
33100,-80.2917,26.01,Mercedes Sam-Hogu,105101349,2020-03-17 18:09:20,"Hollywood, FL",city,"Pembroke Pines, FL",United States
36100,-82.1608655,29.120222499999997,Deucemonkey23 Herb Castro,1051013601115480064,2020-03-06 21:27:23,"Ocala Florida, USA",city,"Ocala, FL",United States
175,49.643777,25.390486,,1051013726579683328,2020-04-03 15:04:32,,poi,Farm ,Kingdom of Saudi Arabia
60,25.018623,60.159471,MOHSEN MOHKU ATAYI,1051014665025802242,2020-03-18 19:28:01,"Helsinki, Suomi",city,"Helsinki, Finland",Finland
205,-2.2752645,55.547819499999996,JPS,1051014776623718400,2020-02-14 18:45:45,"North East, England",city,"Kirk Yetholm, Scotland",United Kingdom
82,77.49295,13.082980000000001,Darshan ,1051014886560419841,2020-05-21 11:55:09,Bengaluru,city,", ",
171,121.0652415,14.504111499999999,reyang,1051015094371405824,2020-05-31 13:27:12,sa green na gate,city,"Taguig City, National Capital Region",Republic of the Philippines
178,27.968098,-26.2761385,brown like Foxy .,1051015182170894336,2020-02-14 08:41:18,United States of Eldorado Park,city,"Johannesburg, South Africa",South Africa
16980,-87.6138941,41.8624822,T rav,1051015195,2020-03-02 17:03:22,TN-TX,city,"Chicago, IL",United States
45500,-94.0972555,33.430735,T rav,1051015195,2020-03-12 16:29:19,TN-TX,city,"Texarkana, TX",United States
17300,-87.3221685,36.5509835,T rav,1051015195,2020-03-13 18:37:24,TN-TX,city,"Clarksville, TN",United States
34980,-86.791549,36.200008000000004,T rav,1051015195,2020-05-31 01:11:27,TX - TN,city,"Nashville, TN",United States
17300,-87.3221685,36.5509835,T rav,1051015195,2020-05-31 01:56:33,TX - TN,city,"Clarksville, TN",United States
162,17.93056,50.6561655,Kamila Andruszkw,1051015243260932096,2020-02-16 10:21:44,"Opole, Polska",city,"Opole, Polska",Polska
200,43.3593375,38.5146485,Yunus Eli,1051015274793750529,2020-05-19 02:31:06,"Van Merkez, Van",city,"Van, Trkiye",Turkey
175,39.6540485,24.462089000000002,Moahmmed Alami,1051015662385147904,2020-02-15 18:21:38," ,   ",city,"Al Madinah Al Munawwarah, Kingdom of Saudi Arabia",Kingdom of Saudi Arabia
19780,-93.6063695,41.5764375,Brent Woods,1051015771,2020-02-16 16:33:33,,city,"Des Moines, IA",United States
28140,-94.5592815,39.1000485,Brent Woods,1051015771,2020-05-24 02:18:46,"Kansas City, MO",city,"Kansas City, MO",United States
35620,-73.9487755,40.655138,Lord Nobleheart,1051015784636526593,2020-02-15 18:24:56,"Brooklyn, NY",city,"Brooklyn, NY",United States
222,106.594932,-6.187284,Sintorohadi,1051017065572663297,2020-05-18 08:16:15,"Tangerang, Indonesia",city,"Jati Uwung, Indonesia",Indonesia
15940,-81.46817349,40.84303666,Andi Brown,1051017090,2020-03-05 15:13:42,"Canton, OH",city,"Massillon, OH",United States
200,37.387009000000006,37.062044,Buse Sepin,1051017120954355712,2020-05-30 22:36:54,"stanbul, Trkiye",city,"Gaziantep, Trkiye",Trkiye
82,78.185064,26.216292,Ajay Radharam,1051017354866388993,2020-03-08 07:20:32,"Hyderabad, India",poi,Inox,India
171,121.0393165,14.2994805,,1051017439025094656,2020-05-11 12:44:35,dreamville & m.A.A.d city,city,"Carmona, Calabarzon",Republic of the Philippines
222,98.687852,3.6789885,"Hortina Bayanihan,SH MKn",1051018184965275649,2020-03-03 06:24:03,,city,"Medan Deli, Indonesia",Indonesia
71,9.24637299,48.43039411,chiara bocktnet,1051018202,2020-05-26 18:42:58,,city,"Lichtenstein, Deutschland",Deutschland
88,135.2059645,34.680986499999996,MEI,1051018222332346369,2020-02-15 01:56:59,,city,"Kobe-shi Chuo-ku, Hyogo",Japan
171,123.37135,7.6129935,Awiesaaaaa,1051018358332641282,2020-04-11 10:03:50,"Pagadian City, Zamboanga Penin",city,"Dinas, Zamboanga Peninsula",Republic of the Philippines
186,-0.7017791,38.2597718,Hermandad Santo Sepulcro Elche,1051018408165343233,2020-02-16 10:26:09,,city,"Elche, Espaa",Espaa
42660,-122.29376200000002,47.572159,your gf's bf,1051018764345470976,2020-03-14 05:04:03,The Burn ,poi,Heaven Sent,United States
35840,-82.57367500000002,27.4739745,Austin Terry,1051018855,2020-02-23 01:01:35,,city,"Bradenton, FL",United States
25940,-80.748747,32.1898025,Austin Terry,1051018855,2020-03-17 14:23:31,,city,"Hilton Head Island, SC",United States
31140,-85.587937,38.043688,Austin Terry,1051018855,2020-03-25 03:01:38,,city,"Mount Washington, KY",United States
34980,-86.70600999999998,36.3334125,Austin Terry,1051018855,2020-06-02 00:06:59,,city,"Goodlettsville, TN",United States
151,5.50662376,7.79688387,Martin Ayodele-Bada,1051018898,2020-02-26 19:14:19,NIGERIA,city,"Odo-Oro, Nigeria",Nigeria
222,104.89202135,-3.85344837,Aaron C.H. (Doxuz),105101897,2020-06-10 11:12:57,,city,"Lempuing, Indonesia",Indonesia
175,45.2969455,25.240059, ,1051019343084101632,2020-03-03 11:51:44,,city,",   ",  
30700,-96.6965625,40.803235,Uriel,1051019442052849665,2020-02-21 06:46:26,,city,"Lincoln, NE",United States
12260,-81.980067,33.528946999999995,S1F3,1051019532,2020-04-10 10:52:10,"North Augusta, SC",poi,TrueNorth Church,United States
31140,-85.72234549999999,38.195555,Sydney Bowers,1051019538,2020-02-26 04:04:11,,city,"Louisville, KY",United States
193,99.936475,12.432455,Winova Pure Collagen 100%,1051020247099035649,2020-03-14 10:52:53,", ",city,", ",
69,-0.1842935,5.6231985,Z.J,1051020424497238016,2020-04-04 20:22:08,TNE,city,"Accra, Ghana",Ghana
88,135.51886299999998,34.692910999999995,Shisha&Cafe Souq(),1051020630244569088,2020-02-14 04:08:01,1-3-14 R stay BLD1F,poi,Shisha Cafe&Gallary Souq,Japan
30,113.27404399999999,23.085304999999998,Gary Rubber,1051020739443191808,2020-05-12 00:03:38,,poi,,People's Republic of China
82,86.008985,20.369460500000002,Dipti Ranjan Sahoo,1051020974949195776,2020-02-14 03:26:51,"Cuttack, India",city,"Cuttack, India",India
158,174.75433850000005,-41.2529975,Kakapo Sensei,1051021043454763008,2020-02-15 22:29:38,"Wellington, Nueva Zelanda",city,"Wellington City, New Zealand",New Zealand
186,-3.7035075,40.4777945,Unai Labirua,105102175,2020-04-03 09:58:32,,city,"Madrid, Espaa",Espaa
175,39.2541285,21.5857105,M,1051021793224523776,2020-05-24 18:31:05,"Jeddah, of Saudi Arabia",city,"Jeddah, Kingdom of Saudi Arabia",Kingdom of Saudi Arabia
151,8.340073,4.976338,Tokyo,1051021940914380800,2020-05-07 10:16:28,Cross River,city,"Calabar, Nigeria",Nigeria
171,120.35375049999999,16.608753,thirdyyy,1051021992,2020-02-14 10:18:41,north,city,"San Fernando City, Ilocos Region",Republic of the Philippines
235,20.188518,44.980641,xepoj,1051022036292784128,2020-02-14 07:16:25,All Europe..,city,"Stara Pazova, Srbija",Republic of Serbia
58,16.577969500000002,49.2020625,xepoj,1051022036292784128,2020-02-23 19:29:43,All Europe..,city,"Brno, Czech Republic",Czech Republic
65,3.0720994999999998,48.970698,xepoj,1051022036292784128,2020-02-27 04:42:10,All Europe..,city,"Ussy-sur-Marne, France",France
128,3.2539205,50.7378865,xepoj,1051022036292784128,2020-02-28 06:04:29,All Europe..,city,"Mouscron, Belgique",Belgium
58,14.217519500000002,50.033955,xepoj,1051022036292784128,2020-02-29 11:02:12,All Europe..,city,"Rudn, esk republika",Czech Republic
80,20.004173,46.196676000000004,xepoj,1051022036292784128,2020-03-01 10:09:33,All Europe..,city,"Rszke, Magyarorszg",Hungary
235,19.830623000000003,45.29018,xepoj,1051022036292784128,2020-03-02 07:02:30,All Europe..,city,"Novi Sad, Republic of Serbia",Republic of Serbia
80,19.981282,46.4171265,xepoj,1051022036292784128,2020-03-07 10:56:37,All Europe..,city,"Balstya, Magyarorszg",Hungary
71,6.148231,50.829240500000004,xepoj,1051022036292784128,2020-03-10 19:04:46,All Europe..,city,"Wrselen, Deutschland",Germany
152,5.5822284999999985,51.9213735,xepoj,1051022036292784128,2020-03-11 14:41:05,All Europe..,city,"Neder-Betuwe, Nederland",The Netherlands
71,11.3863115,49.393186,xepoj,1051022036292784128,2020-03-13 05:16:51,All Europe..,city,"Altdorf bei Nrnberg, Deutschland",Germany
58,12.790944,49.73915700000001,xepoj,1051022036292784128,2020-03-13 06:48:29,All Europe..,city,"Bor, esk republika",Czech Republic
80,19.8687475,46.7186485,xepoj,1051022036292784128,2020-03-14 04:24:30,All Europe..,city,"Kiskunflegyhza, Magyarorszg",Hungary
235,20.6989595,44.447578,xepoj,1051022036292784128,2020-03-15 09:06:26,All Europe..,city,"Mladenovac, Srbija",Republic of Serbia
80,17.499588,47.6915975,xepoj,1051022036292784128,2020-03-17 14:38:49,All Europe..,city,"Brcs, Magyarorszg",Hungary
71,13.406831500000001,48.452972499999994,xepoj,1051022036292784128,2020-03-18 08:03:33,All Europe..,city,"Neuhaus am Inn, Deutschland",Germany
58,16.088426499999994,49.3230385,xepoj,1051022036292784128,2020-03-20 08:47:16,All Europe..,city,"Jabloov, esk republika",Czech Republic
80,20.004173,46.196676000000004,xepoj,1051022036292784128,2020-03-21 06:11:37,All Europe..,city,"Rszke, Magyarorszg",Hungary
235,19.949704999999998,46.05180950000001,xepoj,1051022036292784128,2020-03-21 10:27:34,All Europe..,city,"Kanjia, Srbija",Republic of Serbia
80,20.004173,46.196676000000004,xepoj,1051022036292784128,2020-03-25 09:37:25,All Europe..,city,"Rszke, Magyarorszg",Hungary
57,14.278661999999999,48.201303499999995,xepoj,1051022036292784128,2020-03-26 18:09:33,All Europe..,city,"Ansfelden, sterreich",Austria
235,19.675637,45.69066,xepoj,1051022036292784128,2020-03-28 16:48:33,All Europe..,city,"Mali Io, Srbija",Republic of Serbia
162,22.56348,51.218026,xepoj,1051022036292784128,2020-04-02 09:34:34,All Europe..,city,"Lublin, Poland",Poland
235,19.591639,46.0215475,xepoj,1051022036292784128,2020-04-09 05:25:19,All Europe..,city,"Subotica, Srbija",Republic of Serbia
71,13.772457999999999,51.076827,xepoj,1051022036292784128,2020-04-13 11:56:09,All Europe..,city,"Dresden, Germany",Germany
235,20.6989595,44.447578,xepoj,1051022036292784128,2020-04-18 09:33:39,All Europe..,city,"Mladenovac, Srbija",Republic of Serbia
58,12.5584455,49.660488,xepoj,1051022036292784128,2020-04-24 17:16:24,All Europe..,city,"Rozvadov, esk republika",Czech Republic
71,8.5690375,49.297670000000004,xepoj,1051022036292784128,2020-04-25 06:33:59,All Europe..,city,"Reilingen, Deutschland",Germany
65,3.915579,49.238614500000004,xepoj,1051022036292784128,2020-04-26 06:07:38,All Europe..,city,"Vrigny, France",France
152,4.8521975,52.286241499999996,xepoj,1051022036292784128,2020-04-29 12:31:20,All Europe..,city,"Amstelveen, Nederland",The Netherlands
65,2.5706535,49.0599885,xepoj,1051022036292784128,2020-04-29 13:05:37,All Europe..,city,"Vmars, France",France
71,6.9827785,49.2435635,xepoj,1051022036292784128,2020-05-01 11:06:32,All Europe..,city,"Saarbrcken, Germany",Germany
152,5.5054630000000015,51.8521495,xepoj,1051022036292784128,2020-05-11 10:59:32,All Europe..,city,"West Maas en Waal, Nederland",The Netherlands
58,16.767292,48.871028499999994,xepoj,1051022036292784128,2020-05-15 13:59:50,All Europe..,city,"Zaje, esk republika",Czech Republic
80,20.004173,46.196676000000004,xepoj,1051022036292784128,2020-05-15 21:48:06,All Europe..,city,"Rszke, Magyarorszg",Hungary
235,20.6989595,44.447578,xepoj,1051022036292784128,2020-05-18 19:33:17,All Europe..,city,"Mladenovac, Srbija",Republic of Serbia
58,13.372521,49.7416535,xepoj,1051022036292784128,2020-05-24 21:07:14,All Europe..,city,"Pilsen, Czech Republic",Czech Republic
71,10.984494000000002,49.589094,xepoj,1051022036292784128,2020-05-25 06:22:44,All Europe..,city,"Erlangen, Germany",Germany
152,5.226814,51.8913745,xepoj,1051022036292784128,2020-05-26 14:30:16,All Europe..,city,"Geldermalsen, Nederland",The Netherlands
58,16.429343499999998,49.2040605,xepoj,1051022036292784128,2020-05-30 03:03:17,All Europe..,city,"Ostrovaice, esk republika",Czech Republic
235,19.949704999999998,46.05180950000001,xepoj,1051022036292784128,2020-05-30 14:15:00,All Europe..,city,"Kanjia, Srbija",Republic of Serbia
58,13.198522500000001,49.728048,xepoj,1051022036292784128,2020-06-06 05:05:23,All Europe..,city,"Nany, esk republika",Czech Republic
71,11.8799995,49.417633,xepoj,1051022036292784128,2020-06-06 06:29:06,All Europe..,city,"Kmmersbruck, Deutschland",Germany
80,20.004173,46.196676000000004,xepoj,1051022036292784128,2020-06-10 10:44:04,All Europe..,city,"Rszke, Magyarorszg",Hungary
235,19.696103,46.094214,xepoj,1051022036292784128,2020-06-10 20:11:54,All Europe..,poi,Carinska Ispostava Javna Skladista,Republic of Serbia
171,121.10293850000001,13.6820315,pasia,1051022097982484480,2020-05-11 12:20:52,"Batangas City, Calabarzon",city,"Batangas City, Calabarzon",Republic of the Philippines
88,139.87610800000002,35.691683000000005,,105102214,2020-03-17 11:16:58,,city, ,
88,130.97350799999998,34.142483,LynnRin@1,1051022570407907329,2020-03-08 10:04:45,,city, ,
171,125.14252749999999,6.144298,Pransininin,1051022927833919488,2020-04-08 16:41:42,Soccsksargen,city,"Gen. Santos City, Soccsksargen",Republic of the Philippines
205,-1.7874955000000001,52.447226,Dan Sheen,1051022947,2020-05-01 12:45:37,Birmingham,city,"Solihull, England",United Kingdom
119,-103.40758100000001,20.489709,Cruz Crdoba,1051023094796746752,2020-03-07 12:55:03,Mars,city,"Tlajomulco de Ziga, Jalisco",Mexico
88,140.066986,35.870761,Botanical,1051023742296449025,2020-05-18 03:21:17,,city, ,
82,77.532387,12.977215,     ,1051023988980248576,2020-03-23 10:29:36,"Bengaluru, India",poi,Malagala,India
205,0.135916,52.200974,Aparna Salimon,1051024077857656832,2020-02-27 12:29:54,"Cambridge, Uk",city,"Cambridge, England",United Kingdom
43340,-93.66637800000001,32.5246725,Taylor McGinnis,1051024206,2020-06-03 10:50:34,Etx~midland~carlsbad ,city,"Bossier City, LA",United States
200,40.517653499999994,41.0293075,osman,1051024320175198208,2020-03-01 17:01:17,"stanbul, Trkiye",city,"Rize, Trkiye",Turkey
21,-43.5243665,-22.696528,Yan Roberto,1051024488,2020-04-21 03:53:11,"Nova Iguau, Brasil",city,"Nova Iguau, Brasil",Brasil
21,-43.3697645,-22.7854705,2M,1051024761378271232,2020-02-14 03:36:39,"So Joo de Meriti, Brasil",city,"So Joo de Meriti, Brasil",Brasil
82,77.095086,28.638489500000002,Nitesh Bhardwaj,1051024872330035200,2020-04-30 05:19:03,"New Delhi, India",city,"New Delhi, India",India
69,-0.1842935,5.6231985,Kuuku Jones,1051025021576069120,2020-04-02 13:21:01,,city,"Accra, Ghana",Ghana
41940,-122.043373,37.313083000000006,D I O S A ,1051025053087719425,2020-02-14 00:25:39,"San Jose, CA",city,"Cupertino, CA",United States
41860,-122.17466850000001,37.4619215,D I O S A ,1051025053087719425,2020-02-20 17:52:13,"San Jose, CA",city,"Menlo Park, CA",United States
41940,-121.8737305,37.331159,D I O S A ,1051025053087719425,2020-02-22 20:18:36,"San Jose, CA",city,"San Jose, CA",United States
171,121.3033405,13.902427,V I N C E N T,1051025392994140161,2020-02-14 10:47:51,ITL/PH,city,"San Antonio, Calabarzon",Republic of the Philippines
205,-0.159403,51.5424365,johnsomertown,1051025476247019520,2020-05-09 13:07:25,,city,"Camden Town, London",United Kingdom
119,-103.73299999999999,19.3,Jos Mara Urzua ,1051025809,2020-02-14 22:12:30,"Colima, Mxico",city,"Villa de lvarez, Colima",Mxico
30,114.50539099999999,38.04085,LEO,1051025964065406976,2020-04-16 23:16:53,,poi,Hilton Shijiazhuang ,
95,126.9803395,37.52706000000001,LOREN HONG,1051026050027728897,2020-02-15 04:38:09,,city, ,
9,152.9931965,-27.382143,Rony Chowdhury,105102609,2020-03-27 07:22:01,"Brisbane, Queensland",city,"Brisbane, Queensland",Australia
117,58.247865000000004,23.590453,mr. sultan ,1051026206,2020-02-18 16:29:02, ,poi,Al Sahwah Park  , 
186,-3.7035075,40.4777945,Fco. Javier Vallano,1051026607,2020-02-23 20:43:32,Madrid,city,"Madrid, Espaa",Espaa
171,121.09037350000001,14.278017000000002,g.,1051026633879146496,2020-04-19 06:03:46,,city,"Santa Rosa City, Calabarzon",Republic of the Philippines
13660,-85.46484799999998,43.6751345,andrea,1051027044,2020-02-20 03:44:37,,city,"Big Rapids, MI",United States
16980,-88.02183199999997,42.263629,andrea,1051027044,2020-03-07 22:44:47,,city,"Mundelein, IL",United States
119,-87.0316645,21.048719000000002,andrea,1051027044,2020-03-12 18:21:02,,city,"Benito Jurez, Quintana Roo",Mexico
13660,-85.46484799999998,43.6751345,andrea,1051027044,2020-03-16 01:25:48,,city,"Big Rapids, MI",United States
34740,-86.2418955,43.232966499999996,andrea,1051027044,2020-03-21 03:11:16,,city,"Muskegon, MI",United States
175,39.162444,21.567715,Feras,1051027627736293376,2020-02-19 19:35:10,"Jeddah, Kingdom of Saudi Arabia",city,",   ",  
200,28.904032,40.988257,memetserifesen,1051028409378381825,2020-02-14 19:16:19,,poi,Yeilam Kahve Evi Zeytinburnu,Turkey
171,120.5259855,14.602851,Seng,1051028549245722624,2020-02-18 10:39:24,"Orion, Bataan",city,"Orion, Central Luzon",Republic of the Philippines
171,121.007944,14.581607,tinay;,1051028563938295808,2020-02-16 12:53:02,,poi,Manila River City Residences,Republic of the Philippines
39580,-78.49915150000002,35.788423,lex ,1051028893,2020-02-14 06:45:44,,city,"Knightdale, NC",United States
171,123.89539340000002,10.362580300000001,Marianne ,105102899,2020-05-24 09:50:17,"Ormoc City, PH",city,"Cebu City, Central Visayas",Republic of the Philippines
200,36.825752,41.08162,derbeder,1051029035252363269,2020-03-18 07:47:13,"anakkale, Trkiye",poi,Salpazar,Trkiye
205,-3.50339247,51.65540543,sam,105102979,2020-04-10 08:45:53,,city,"Treorchy, Wales",United Kingdom
65,4.8120565000000015,45.6485495, ,1051029891855077378,2020-04-11 20:14:04,"Lyon, France",city,"Vernaison, France",France
119,-100.264,25.6726,bienvenidosalounder,1051030207,2020-06-09 23:27:41,monterrey.n.l,city,"Guadalupe, Nuevo Len",Mxico
82,72.636678,22.980926999999998,Salman Ka Fan,1051030208541745152,2020-02-21 01:57:48,Gujarat,city,"Daskroi, India",India
186,-0.9632865,37.78457,elestore,1051030361797525505,2020-03-22 12:59:23,"Region of Murcia, Spain",city,"Torre-Pacheco, Espaa",Spain
205,0.286119,50.7820255,Michael Plummer,1051030496799547392,2020-02-17 10:57:19,"South East, England",city,"Eastbourne, England",United Kingdom
222,108.5491315,-6.766686,Adhiwicaksono,1051030836550594560,2020-03-18 11:48:42,"Cirebon, Jawa Barat",city,"Harjamukti, Indonesia",Indonesia
88,139.4737255,35.72719700000001,tom,1051030938723876864,2020-03-12 14:04:53, ,city, ,
120,102.867616,1.937092,lishz,1051031263623012353,2020-03-09 01:27:46,,city,"Simpang Kiri, Johor",Malaysia
222,109.26170549999999,-7.325626,c e l v y,1051031630490435584,2020-03-09 05:25:24,"Purwokerto Utara, Indonesia",city,"Sumbang, Indonesia",Indonesia
88,136.916322,35.166331,ku,105103178,2020-03-14 13:15:16,Nagoya,poi,club GOODWEATHER,
119,-97.771998,21.187502,Eduardo Alarcon,1051031820295393280,2020-04-13 20:20:52,"Tampico, Tamaulipas",city,"Cerro Azul, Veracruz de Ignacio de la Llave",Mxico
151,7.424094,9.073663999999999,Spardacock,1051032479560331264,2020-02-14 19:52:04,"Federal Capital Territory, Nig",city,"Abuja, Nigeria",Nigeria
65,5.4052739999999995,43.2943095,,1051032601610334209,2020-04-11 13:58:20,"Marseille, France",city,"Marseille, France",France
88,139.764165,35.671246999999994,,1051033030624665600,2020-02-23 12:26:04,,poi,NAGANO,
65,6.1960495,49.1048085,Gregory Boyer,105103338,2020-02-14 17:20:43,"Metz, Lorraine, GrandEst",city,"Metz, France",France
205,-4.06205028,51.62953259,The Barns,105103341,2020-03-11 15:34:31,Gower Wales UK,city,"Three Crosses, Wales",United Kingdom
85,11.25639127,43.77600313,The Barns,105103341,2020-04-18 08:29:13,Gower Wales UK,city,"Florence, Tuscany",Italy
205,-4.069719999999999,51.6292,The Barns,105103341,2020-04-23 08:42:35,Gower Wales UK,city,"Three Crosses, Wales",United Kingdom
21,-48.478899,-27.609691,Alessandra Medina ,1051033483,2020-02-14 02:54:48,"Florianpolis, Brasil",city,"Florianpolis, Brasil",Brasil
162,17.85,54.7833,Morskie Domki Kopalino,1051033878201344000,2020-04-21 17:23:55,Kopalino ,city,"Choczewo, Polska",Poland
31080,-118.4119065,34.0207895,Pepper Denino,1051034332918243328,2020-02-29 17:02:07,"Los Angeles, CA",city,"Los Angeles, CA",United States
40140,-117.58565800000001,33.859093,Pepper Denino,1051034332918243328,2020-03-13 20:49:02,"Los Angeles, CA",city,"Corona, CA",United States
31080,-118.4119065,34.0207895,Pepper Denino,1051034332918243328,2020-03-13 20:54:16,"Los Angeles, CA",city,"Los Angeles, CA",United States
222,103.28621700000001,-4.007838,Dwi J. Rochmanu,1051034386353684480,2020-04-13 12:06:38,,city,"Pagar Alam Utara, Indonesia",Indonesia
85,14.243452,40.8541125,Giovambattista  Capasso,1051034429706170369,2020-04-26 22:45:32,,city,"Naples, Campania",Italy
205,-0.025509999999999998,51.501914,David WANG,1051034651408683009,2020-03-26 20:46:30,"London, England",poi,Tesco Express,United Kingdom
175,36.614784,28.39854,,1051034729682747392,2020-03-02 07:57:52,,city,",   ",  
82,78.80277050000002,25.348527999999998,Vishal Prajapati,1051034849295839232,2020-03-20 07:39:51,"Indore, India",city,"Niwari, India",India
222,106.70103,-6.4554800000000006,Feluthf,1051034860767207424,2020-02-14 07:44:15,Bogor,city,"Parung, Indonesia",Indonesia
200,34.89752,36.9199375,ADNAN DA,1051035572054179840,2020-05-31 21:40:58,,city,"Tarsus, Trkiye",Trkiye
186,-3.7695875,40.328899,RAULATM,1051036073042817025,2020-02-15 13:52:51,Espaa,city,"Legans, Espaa",Espaa
49,-78.44501503,-0.11568033,Marjo,1051036231,2020-06-03 14:56:18,"Quito, Ecuador",city,"Quito, Ecuador",Ecuador
38,-72.89061749999998,5.657152,Alejandra Hurtado R,1051036286,2020-05-06 04:24:38,,city,"Sogamoso, Colombia",Colombia
200,27.006511,38.4079305,Bra Akgl,1051036337845997568,2020-02-17 22:14:24,"Marmaris, Trkiye",city,"zmir, Trkiye",Trkiye
88,139.69262600000002,35.666851,,1051036557715492865,2020-03-22 05:07:24,,city, ,
205,0.07886299999999999,51.58499000000001,Eugene Gaughan,1051037288,2020-04-29 06:25:30,Chadwell Heath,city,"Ilford, London",United Kingdom
205,-1.309589,51.065943,HartleyBear,1051037457641365504,2020-03-11 10:47:06,University of Southampton,poi,Winchester School of Art,United Kingdom
40900,-121.3820915,38.4215345,Manny,1051037802,2020-02-19 21:57:51,"Sacramento, CA",city,"Elk Grove, CA",United States
82,78.00876,30.320672499999997,Subarno Bhattacharyya (SB),1051037809,2020-05-21 02:45:20,"Dehradun, India",city,"Dehradun, India",India
222,107.011756,-6.254410999999998,Lugina Pragitawati,105103794,2020-05-19 05:15:18,beside your ,city,"Bekasi Timur, Indonesia",Indonesia
21,-47.03021800000001,-22.8949945,Amauri Capuzzo,1051037972,2020-02-18 18:39:08,,city,"Campinas, Brasil",Brasil
200,28.949669,41.031708,Yunus Emre Tekcan,1051037972840284161,2020-06-06 09:22:50,"stanbul, Trkiye",poi,Bulgarian St. Stephen Church,Trkiye
171,124.24840400000001,7.2014785,Muq,1051038052284489730,2020-02-23 13:12:11,rawr,city,"Cotabato City, Soccsksargen",Republic of the Philippines
88,130.555749,31.522809000000002,pachi03AGXL883N803,1051038305658200066,2020-04-13 16:12:19,,city, ,
82,79.37363500000002,28.4060465,M. Irfan Saifi,1051038445,2020-03-31 16:15:18,"Bareilly, India",city,"Bareilly, India",India
193,101.033277,13.430270499999999,#v5,1051038525544525825,2020-03-16 06:15:37,",",city,", ",
88,139.67017650000003,35.847469,,105103926,2020-03-16 23:03:47,,city,  ,
200,28.907812,41.162226000000004,farukylcin,1051039430121844736,2020-05-06 04:08:55,,poi,Silikon Vadisi,Turkey
88,140.300207,37.4459445,hakugei/,1051039571989868544,2020-02-14 05:49:50,,city,"Koriyama-shi, Fukushima",Japan
171,120.41836699999999,15.6948335, ,1051039613404381184,2020-03-18 05:31:47,Tarlac,city,"Camiling, Central Luzon",Republic of the Philippines
26,80.109611,6.124211,LISA,1051039660242169857,2020-03-20 06:09:11,,poi,Long beach,Sri Lanka
151,3.3386055,6.4931125000000005,IG: Hair by ewa,1051039663832612866,2020-03-13 17:19:30,"Lagos, Nigeria",city,"Lagos, Nigeria",Nigeria
171,124.75988500000001,9.1697575,nia,1051039732237361153,2020-02-23 01:54:04,"velmiro, upt",city,"Mahinog, Northern Mindanao",Republic of the Philippines
120,101.57849499999999,3.1565125,Shamsul Farikh Othman,1051040506472366080,2020-04-26 11:02:01,"Damansara, Selangor",city,"Sungai Buloh, Selangor",Malaysia
9,150.931975,-33.848244,Spyskinny,105104080,2020-03-11 02:34:50,,city,"Sydney, New South Wales",Australia
175,39.8016865,21.389833000000007,NOORY,1051040821963837440,2020-02-23 07:09:20," ,   ",city," ,   ",  
82,77.626386,29.143066500000003,Rizwan Mirza official,1051041010250219520,2020-04-09 13:12:19,"Delhi, India",city,"Sardhana, India",India
45060,-76.50144800000002,43.4612265,Criminal Justice,1051041236,2020-03-24 13:58:15,Oswego High School,city,"Oswego, NY",United States
200,29.0052225,41.0213205,Eleni523,1051041854337273856,2020-02-14 16:21:56,,city,"stanbul, Trkiye",Trkiye
88,140.1935355,35.980138000000004,,1051042116338573313,2020-02-14 10:16:52, ,city,"Ushiku-shi, Ibaraki",Japan
175,39.12502885,21.56723317,Feras,1051042158,2020-02-16 18:42:03,jeddah,city,",   ",  
222,119.47568700000001,-5.15921,#magazhi,105104295,2020-02-16 03:24:29,Makassar,city,"Panakkukang, Indonesia",Indonesia
88,130.55606613,31.59012221,eff KAGOSHIMA,1051043362080313344,2020-03-03 07:42:34,,city,"Kagoshima-shi, Kagoshima",Japan
24,-79.6938095,46.337700500000004,( 30-19-8 ),1051044008,2020-02-14 00:58:44,"Nipissing 10, Ontario",city,"Nipissing 10, Ontario",Canada
205,-2.8948825,53.1973495,amy is !,1051044135279443973,2020-06-08 01:38:53,"my room, most probably eating",city,"Chester, England",United Kingdom
200,39.7658825,37.2351815,ferit tata,105104420,2020-04-22 18:38:42,"anlurfa, Trkiye",city,"Viranehir, Trkiye",Trkiye
120,101.6536755,3.0329245,Mohdhasif_01,1051044909476532224,2020-03-17 22:14:07,"Pahang, Malaysia",city,"Petaling, Selangor",Malaysia
175,40.1755065,29.896484499999996,|,1051045003785588736,2020-04-26 16:47:31,  ,city,",   ",  
222,107.63441350000001,-6.9279340000000005,Indrajathie aziz,105104509,2020-02-14 06:57:35,,city,"Batununggal, Indonesia",Indonesia
88,140.2733225,39.657004,,105104518,2020-02-16 23:02:17,,city, ,
38,-72.80018949999999,10.862569500000001,Mara De los reyes,1051046258,2020-02-15 15:21:20,"Maracaibo, Venezuela",city,"Fonseca, Colombia",Colombia
200,27.006511,38.4079305,A.,1051046356134051840,2020-02-14 00:34:35,,city,"zmir, Trkiye",Turkey
171,123.67839450000001,10.368178,,1051046371808014336,2020-02-21 00:47:38,"Media Once, Toledo City",city,"Toledo City, Central Visayas",Republic of the Philippines
21,-46.730649,-23.479567499999998,Mrcio e Lidiane donnarumma,1051046488632164358,2020-05-03 23:11:32,,neighborhood,"Pirituba, So Paulo",Brasil
31080,-118.129042,33.8880815,Brandy K.,1051046534110883841,2020-02-14 09:08:52,,city,"Bellflower, CA",United States
41100,-113.5777655,37.0855815,momma braaandy,1051046534110883841,2020-02-29 20:12:49,,city,"St George, UT",United States
31080,-118.129042,33.8880815,momma braaandy,1051046534110883841,2020-03-03 21:38:21,,city,"Bellflower, CA",United States
175,41.677267,19.495601,      _ ,1051046944037097472,2020-02-23 03:10:16,,poi, -  ,  
193,99.790581,6.8918755,9Comsatun,1051047187289800705,2020-05-16 05:07:59,,city,"Kamphaeng, Thailand",Thailand
69,-0.1842935,5.6231985,AceKush,1051047361521360897,2020-04-24 12:56:41,"Greater Accra, Ghana",city,"Accra, Ghana",Ghana
171,123.7764,10.425892999999999, ,1051047372023726081,2020-05-19 05:43:23,"Cebu, philippines",poi,Buwakan Ni Alejandra,Republic of the Philippines
88,135.50847,34.707954,KSS,1051047518568501249,2020-03-17 05:32:27,   13-13,poi,,
82,77.749804,21.793929000000002,Sanjay Sariyam,1051047956139438080,2020-04-05 15:41:08,Indore,poi,"Hanuman Temple, Kairpani",India
88,140.22504149999997,35.536341,,1051047972908064768,2020-06-03 14:57:57, ,city,"Chiba-shi Midori, Chiba",Japan
200,28.769831,41.035007,EYT Serkan FLZ,1051048027299954688,2020-03-20 18:28:09,,poi,Meneke evleri,Trkiye
65,1.3649625,44.021672,Zarwik,105104817,2020-02-14 09:30:34,"Montauban, France",city,"Montauban, France",France
151,8.527467000000001,12.005,,1051048324445478913,2020-03-19 05:16:51,somewhere on Earth,city,"Kano, Nigeria",Nigeria
82,73.8567,18.5203,Bhoomesh M Suthar,1051048353327386624,2020-04-19 09:49:47,"Pune, India",city,"Pune, India",India
82,77.96649550000002,28.4752015,  ,1051048538170253312,2020-03-02 01:31:58,"Garhmuktesar, India",city,"Bulandshahr, India",India
120,101.770181,2.9490515,Noor Azmi Hj Hashim,1051048744173465600,2020-02-19 08:48:44,"Lanchang,Pahang",city,"Kajang, Selangor",Malaysia
151,7.029838000000001,5.498543,Prestige,1051048959123304448,2020-06-08 19:17:30,"Imo, Nigeria",city,"Owerri, Nigeria",Nigeria
26900,-86.13660949999998,40.0357415,Pam Piper-Griffiths,1051049010,2020-02-20 00:16:37,"Carmel, IN",city,"Westfield, IN",United States
41820,-79.163726,35.474284000000004,502-919,1051049652,2020-05-28 17:44:09,"North Carolina, USA",city,"Sanford, NC",United States
71,9.989044999999999,53.543769,Schwungmops,1051049738571837440,2020-03-13 17:26:20,,poi,Miniatur Wunderland,Deutschland
200,34.009482500000004,38.364603,kiraz,1051050674442645504,2020-02-18 07:45:24,"Aksaray, Trkiye",city,"Aksaray, Trkiye",Turkey
171,121.025444,14.388963,Christian Imperial,1051050768357240832,2020-02-21 03:11:05,FOLLOWS YOU,poi,"College of Arts and Science, Pamantasan ng Lungsod ng Muntinlupa",Republic of the Philippines
222,112.746467,-7.264442999999999,Zain,1051050793363632128,2020-03-15 04:14:18,,poi,Grand Surabaya Hotel,Indonesia
8,-58.9505085,-34.1853415,Sashiii,1051050793565134851,2020-03-03 03:10:22,,city,"Campana, Argentina",Argentina
88,139.44876100000002,35.507938,Health Caf Apricot,1051050808861581314,2020-03-03 06:23:06, ,poi,Health Cafe Apricot,
88,139.599853,35.702709999999996,,1051050816470048769,2020-02-23 14:04:42, ,poi, ,
82,76.11771850000001,31.6857795,Rishabh,1051050863639183360,2020-05-07 16:47:07,"Himachal Pradesh, India",city,"Amb, India",India
205,-1.5608605,53.7224825,"toast says acab, even your dad.",1051050941322055681,2020-05-29 09:33:14,the internet,city,"East Ardsley, England",United Kingdom
39900,-119.82718200000001,39.512436,Cassandra,1051050969075609601,2020-03-18 21:37:29,"California, USA",city,"Reno, NV",United States
17020,-121.83373,39.747037,Cassandra,1051050969075609601,2020-06-03 21:42:40,"California, USA",city,"Chico, CA",United States
171,120.828395,14.3396345,,1051051087145316352,2020-02-14 11:19:14,,city,"Tanza, Calabarzon",Republic of the Philippines
175,41.687540000000006,27.508333500000003,  ,1051051346944774144,2020-03-17 09:08:06,  ,city,",   ",  
9,151.953249,-27.560979999999997,Donna Veronica Sheppard,1051051737354711040,2020-04-19 04:26:46,"Toowoomba, Queensland",city,"Toowoomba, Queensland",Australia
120,103.387078,1.4800870000000002,POKNGAH,1051052096,2020-02-15 15:37:26,JOHO_JB,poi,Tambak Pontian,Malaysia
88,127.665939,26.196898,,1051052177240645632,2020-02-18 06:18:18,,poi,,
30780,-92.342322,34.721886,Dylan Hays,1051052246,2020-03-12 23:44:00,,city,"Little Rock, AR",United States
151,7.424094,9.073663999999999,raynascents ,1051052315090841601,2020-02-17 16:55:10,"Abuja, Nigeria",city,"Abuja, Nigeria",Nigeria
222,112.737747,-7.302671000000001,udith,1051052528513634304,2020-05-24 03:23:51,,poi,Air Mata Kucing,Indonesia
88,139.72994350000002,35.76519000000001,,1051052797,2020-03-04 01:06:56,,city, ,
21,-52.277707,-30.788324000000006,Dborarena,1051052878729814017,2020-02-14 18:10:39,"Amaral Ferrador, Brasil",city,"Amaral Ferrador, Brasil",Brasil
200,41.0130775,38.141902,saadeett,1051052925068431360,2020-02-27 14:04:19,"Silvan, Trkiye",city,"Silvan, Trkiye",Turkey
205,-3.2125334999999997,54.120758,Paddy,1051053568374046720,2020-03-07 19:59:11,"Millom, England",city,"Barrow-in-Furness, England",United Kingdom
82,75.74752099999999,26.909683,MOTS: STREAM ON,1051053738247385089,2020-03-05 11:31:26,"Rajasthan, India",city,"Jaipur, India",India
65,2.3492,48.8573,laddawan komnaunjit,1051053799,2020-05-11 10:41:32,,city,"Paris, France",France
171,121.259866,14.6541465,crisedel,1051054720184279040,2020-02-16 10:59:53,"Antipolo City, Calabarzon",city,"Antipolo City, Calabarzon",Republic of the Philippines
117,59.538006,22.5581535,M,1051054741264969728,2020-02-14 08:42:17,.Volleyball player,city,"Sur, Oman",Oman
175,46.685077,24.7219435,Nadiah,1051054906197626886,2020-04-15 03:29:27,Riyadh,city,"Riyadh, Kingdom of Saudi Arabia",Kingdom of Saudi Arabia
205,-1.449612,53.3831645,Stephen Pointer,1051054957,2020-02-22 19:07:24,"West Bridgford, Nottingham",city,"Sheffield, England",United Kingdom
225,55.274148,25.197232999999997,Barista_vivek,1051055277884215296,2020-05-25 12:19:52,"Dubai, United Arab Emirates",poi,Burj Khalifa,United Arab Emirates
35300,-72.9763955,41.496609,angelina,1051055293,2020-02-17 03:42:11,,city,"Prospect, CT",United States
88,139.71509400000002,35.7291085, ,1051055548974546946,2020-03-20 11:40:11,,city,"Toshima-ku, Tokyo",Japan
178,27.968098,-26.2761385,crescen booyse,105105562,2020-03-21 19:09:52,Ridgeway,city,"Johannesburg, South Africa",South Africa
205,-0.0601675,51.5476445,Billy,1051056014,2020-03-14 20:43:53,,city,"Hackney, London",Royaume-Uni
191,7.002462,47.0948135,Billy,1051056014,2020-03-23 18:38:43,,city,"Villiers, Suisse",Suisse
9,145.0531355,-37.9725665,,1051056054165942272,2020-02-28 13:55:29,,city,"Melbourne, Victoria",Australia
88,139.69262600000002,35.666851,,1051056054165942272,2020-03-06 04:31:18,,city, ,
151,8.526110500000001,7.713362999999998,Anyorikyo David Aondona,1051056448397090816,2020-03-23 05:01:42,"Proudly,  Nigeria",city,"Makurdi, Nigeria",Nigeria
65,2.8795825,42.72319475,,1051056845320843264,2020-02-26 16:54:52,ptg,city,"Perpignan, France",France
82,72.87424399999999,19.174139999999998,Rohit More,1051057303137464321,2020-05-24 20:05:36,"Thane, India",city,"Mumbai, India",India
51,-9.4203375,53.9092525,Lehinch Texels,1051057431294427141,2020-02-17 20:30:24,"Lehinch, Hollymount, Co. Mayo, F12 CY28",city,"Mayo, Ireland",Ireland
171,120.9839865,14.5914565,cine,1051057517852147712,2020-02-14 02:14:14,sinco lev,city,"Manila City, National Capital Region",Republic of the Philippines
222,110.815729,-7.547169500000001,pgn liat aurora.,1051057569358209024,2020-04-17 08:57:26,Indonesia,city,"Banjarsari, Indonesia",Indonesia
200,28.968754999999998,41.037929999999996,K YEI YEI,1051057969910226945,2020-04-06 00:02:29," stanbul, zmit Trkiye",city,"stanbul, Trkiye",Trkiye
35620,-73.44818000000002,40.7320385,Henry Queen,1051058040433192960,2020-03-23 00:53:05,"New York, USA",city,"Farmingdale, NY",United States
88,139.3039325,35.46059599999999,Naga,1051058102227820544,2020-02-17 09:35:56,,city, ,
88,139.6565525,35.4267515,@,1051058257874153472,2020-02-16 09:34:43,5-4 61-A,city,"Yokohama-shi Naka-ku, Kanagawa",Japan
21,-46.79530878,-23.65883969,silviaruiva10,105105884,2020-03-08 00:28:16,EMBU SP,city,"Embu, Brasil",Brasil
82,72.87424399999999,19.174139999999998,Sumit Singh Sisodia,1051059004036780033,2020-04-03 02:58:34,,city,"Mumbai, India",India
88,130.4824715,33.5136855,,1051059049557450753,2020-02-17 05:45:27,  ,city,"Onojo-shi, Fukuoka",Japan
51,-7.888808500000001,52.46745,irishDairy Man,1051059157984575488,2020-04-04 15:36:13,"South Tipperary, Ireland",city,"South Tipperary, Ireland",Ireland
200,29.810513,40.763183500000004,verici sikici ariyor,1051059268705800194,2020-02-19 19:37:05,,city,"Derince, Trkiye",Trkiye
171,121.626327,17.1150095,arna ,1051059339958484992,2020-05-09 17:27:28,,city,"Roxas, Cagayan Valley",Republic of the Philippines
71,8.334835,49.967842499999996,LosT_Jakub,1051059348817027073,2020-02-14 15:39:57,Top Secret,city,"Ginsheim-Gustavsburg, Deutschland",Deutschland
65,6.731242,45.5415265,babiige,1051059597614690305,2020-02-17 07:14:48,"Chasseneuil, France",city,"Bellentre, France",France
21,-46.9469495,-23.6839305,patolinda,1051059780603777024,2020-03-24 13:09:30,no fundo do poo,city,"Cotia, Brasil",Brasil
151,3.3386055,6.4931125000000005,Theaccessorieslounge.ng,1051060095105331201,2020-03-16 11:03:58,"Lagos, Nigeria",city,"Lagos, Nigeria",Nigeria
173,37.42764250000001,55.7547875,Annie T.G.,105106060,2020-02-20 10:10:46,"Eitoland, Rainbow No.7",city,"Moscow, Russia",Russia
175,39.2541285,21.5857105, ,1051060731511263232,2020-02-15 20:45:38,"Jeddah, Kingdom of Saudi Arabia",city,"Jeddah, Kingdom of Saudi Arabia",Kingdom of Saudi Arabia
36220,-102.470691,31.845178999999998,bando,1051060921,2020-02-20 13:49:01,,city,"West Odessa, TX",United States
175,46.685077,24.7219435,   0543977861,1051060963540168704,2020-05-14 01:41:06,",   ",city,",   ",  
38,-75.619213,6.270883,Marvin mesa,1051061196,2020-02-23 14:50:53,Cartagena de Indias,city,"Medelln, Colombia",Colombia
82,76.1120215,28.052133500000004,Himanshu__gautam,1051061201067683840,2020-03-16 10:58:48,"New Delhi, India",neighborhood,"Narnaul, Haryana",India
171,124.40603999999999,8.595889999999999,erms,1051061338212986880,2020-05-12 06:53:00,"Cagayan De Oro City, Northern ",city,"Gitagum, Northern Mindanao",Republic of the Philippines
88,139.766582,35.671465000000005,PMSexy Hawk,1051061723292004353,2020-02-22 15:15:37,,poi, (Scheveningen),
21,-43.889036499999996,-19.626348,Lucas Fonseca,105106176,2020-02-16 12:15:25,Lagoa Santa/BH - MG,city,"Lagoa Santa, Brasil",Brasil
200,32.8183815,39.8889765,onur kaya,1051061866850635777,2020-02-15 16:17:01,zmir - Ankara,city,"Ankara, Trkiye",Trkiye
200,27.896022,39.649682,Ouz Atan,1051061928,2020-03-05 19:22:31,10'suzASLA ErzurumEreliKbey,city,"Balkesir, Trkiye",Trkiye
186,-4.825614,39.966843,Mario Arriero,105106199,2020-02-18 15:51:19,Talavera de la Reina,city,"Talavera de la Reina, Espaa",Espaa
128,3.7145620000000004,51.08374600000001,Sarah Garre,105106207,2020-02-19 12:41:51,Belgium,city,"Gent, Belgi",Belgi
175,39.2541285,21.5857105, ,1051062258837725186,2020-02-14 14:26:15,"Jeddah, Kingdom of Saudi Arabia",city,",   ",  
10,50.48894,26.120637,k bye for now,1051062301737009152,2020-04-15 10:42:46, ,poi,Loazy, 
40900,-121.469664,38.561721999999996,Bryan Nelson,1051062630,2020-02-16 03:38:27,,city,"Sacramento, CA",United States
151,3.3386055,6.4931125000000005,bellzclassycollections,1051062658131210240,2020-03-04 11:30:40,"Lagos, Nigeria",city,"Lagos, Nigeria",Nigeria
69,-0.1842935,5.6231985,KingGeorge,1051063359284625409,2020-05-08 08:33:03,Roman Ridge ,city,"Accra, Ghana",Ghana
88,137.873537,36.957394,GAKU,105106341,2020-02-28 21:24:15,,city, ,
222,112.565278,-7.947944000000001,,1051063533738180613,2020-02-19 02:53:22,"Kota Surabaya, Jawa Timur",city,"Dau, Indonesia",Indonesia
82,77.28059350000001,12.7236295,Manjunath,1051064567256764416,2020-04-11 13:44:23,"Ramanagaram, India",city,"Ramanagaram, India",India
88,141.769796,39.093973999999996,yoshihide.s58,1051064756616851457,2020-02-21 02:48:17, ,city,"Ofunato-shi, Iwate",Japan
88,139.63060900000002,35.878184999999995,rinari- ,1051065184314253312,2020-03-21 06:45:33,,city,  ,
205,-1.449612,53.3831645,Simon Green,105106547,2020-02-14 09:41:47,SMHQ,city,"Sheffield, England",United Kingdom
9,151.128865,-33.787732,cassidy elke,1051065591170121728,2020-03-06 02:40:13,sydney,poi,Nickelodeon HQ,Australia
205,-0.14893599999999999,51.500091999999995,cassidy elke,1051065591170121728,2020-05-24 13:02:33,sydney,city,"London, England",United Kingdom
9,150.931975,-33.848244,cassidy elke,1051065591170121728,2020-05-25 07:52:19,sydney,city,"Sydney, New South Wales",Australia
222,111.063111,-7.5418470000000015,The Wolf ,1051065778638733314,2020-04-24 03:24:11,,city,"Kerjo, Indonesia",Indonesia
41860,-122.263603,37.798734,cringe-lo,1051065978,2020-03-12 18:53:55,"Berkeley, CA",poi,Oakland Museum of California,United States
200,39.731627,40.997132,Gktrk SALAM,1051065984,2020-02-21 06:27:44,"Trabzon, Trkiye",poi,Boztepe,Trkiye
178,18.4890615,-34.1216575,Tonderai,1051066330361880577,2020-03-11 20:12:16,"Cape Town, South Africa",city,"Cape Town, South Africa",South Africa
171,122.4809865,7.7965575,,1051066767005478912,2020-04-11 13:04:30,,city,"Titay, Zamboanga Peninsula",Republic of the Philippines
96,48.002414,29.290069,MFA,1051066965899513857,2020-02-17 10:42:00,Kuwait,poi,   ,Kuwait
88,139.85749199999998,35.861539,,105106704,2020-03-07 01:28:46,,city, ,
222,106.1059775,-6.1263830000000015,Nisaa,105106709,2020-02-14 07:22:27,0254 ,city,"Taktakan, Indonesia",Indonesia
82,72.78910450000002,21.171369,RAJESH BINGI,1051067281709527040,2020-04-12 14:09:02,"Surat, India",city,"Surat, India",India
171,124.025,10.4872,swyden,105106733,2020-03-18 12:19:07,Republic of the Philippines,city,"Danao City, Central Visayas",Republic of the Philippines
26420,-95.4464865,29.838495,iLEAD,1051067492,2020-03-27 08:33:16,"Rees Elementary, Alief ISD",city,"Houston, TX",United States
82,79.565884,11.074119999999999,Mohamed Sahil,1051067547158687744,2020-05-25 04:15:08,"Vandalur, India",poi,kuttalam,India
171,124.81245249999999,8.7375475,C J,1051067709083926528,2020-03-08 13:17:53,,city,"Balingasag, Northern Mindanao",Republic of the Philippines
9,144.959641,-37.798556,Bacchus ,1051068040098402304,2020-03-08 03:12:04,,poi,The Baillieu Library,Australia
82,72.87424399999999,19.174139999999998,Barkha Thakur,1051068278502805505,2020-02-18 04:47:19,"Andheri West, Mumbai",city,"Mumbai, India",India
51,-9.0333065,51.903863,Richard Blair,105106840,2020-03-14 20:02:33,"Cork, Ireland.",city,"Cork, Ireland",Ireland
88,135.969153,35.0909945,01ver.1.2@FF7R_8,1051068435491258369,2020-04-24 15:35:08,,city, ,
171,120.752671,15.667417000000002,lex,1051069753769377795,2020-02-15 13:09:03,wup shs,city,"Guimba, Central Luzon",Republic of the Philippines
205,-1.4704025,53.752169,Chennells,1051069918144356352,2020-03-16 20:26:37,,city,"Rothwell, England",United Kingdom
82,76.585677,28.260807,Ajit Kumar,1051069968291225601,2020-02-22 05:30:22,,city,"Rewari, India",India
193,100.53953,13.746645000000001,_,1051069999568183298,2020-02-14 02:23:01,", ",poi,centralwOrld (),
171,123.846722,10.3748325,C L A R I T A ,1051070037446946816,2020-05-26 10:03:40,"Cebu City, Central Visayas",city,"Cebu City, Central Visayas",Republic of the Philippines
29820,-115.13516499999999,36.060964500000004,Emma K,1051070106,2020-03-14 04:51:08,"Las Vegas, NV",city,"Paradise, NV",United States
