currentGEOID,lon,lat,name,author_Id,created_at,location,place_type,place_full_name,place_country
21,-43.018208,-22.821465,maria do bairro,852481466965655553,2020-03-18 17:43:08,SG / NITERI,city,"So Gonalo, Brasil",Brasil
82,78.036709,27.168941999999998,Salman Mazhar,852481792913399809,2020-02-24 05:12:18,"Agra, India",city,"Agra, India",India
60,27.1588065,65.52353500000001,fuat eren,852482302999396352,2020-02-14 09:47:18,"Pudasjrvi, Suomi (Finland)",city,"Pudasjrvi, Suomi",Suomi
88,139.01864799999998,37.840675,TV2,852482732861005824,2020-03-08 03:25:47,,poi, ,
205,-3.1798,51.4970015,Cryptic Cardiff,852483114408521730,2020-02-16 12:18:01,"Cardiff, Wales",city,"Cardiff, Wales",United Kingdom
24,-79.5657915,43.8371045,BeesYU,852483149904969730,2020-02-26 16:03:52,"Toronto, Ontario",city,"Vaughan, Ontario",Canada
171,121.9590065,10.7754765,,852483174911197184,2020-02-15 14:59:11,,city,"San Jose, Western Visayas",Republic of the Philippines
82,80.92135,26.85472,Narendra Singh,852483607595810820,2020-02-19 19:49:15,"Jankipuram, Lucknow",city,"Lucknow, India",India
82,74.977153,15.496924,Muttappa.P.Toragall.,852483752244559873,2020-03-07 18:15:49,,city,"Dharwad, India",India
35620,-74.2367465,40.77098150000001,FPOE NEWZ,852484175097724928,2020-03-16 14:06:13,"New Jersey, USA",city,"Orange, NJ",United States
175,36.614784,28.39854, ,852485275,2020-05-22 20:35:03,,city,",   ",  
85,9.827945,44.107648,Panacea,852485431555969024,2020-02-24 10:41:07,,city,"La Spezia, Liguria",Italia
222,109.23673500000001,-7.421760000000001,lymun water ,852485512078139392,2020-02-17 01:50:51,,poi,Kantor Perhutani Banyumas Timur,Indonesia
186,-6.29818061,36.53527225,La Marmita Cadiz,852485599919525888,2020-02-25 14:34:45,"Cdiz, Espaa",city,"Cdiz, Espaa",Espaa
175,46.685077,24.7219435,.,852485848524349440,2020-02-22 06:27:55,,city,",   ",  
200,29.0052225,41.0213205,TC tuba atalay,852486008,2020-02-14 12:57:28,,city,"stanbul, Trkiye",Trkiye
222,110.606181,-7.598909499999999,Lutvia Anggita,852486776,2020-04-20 12:47:41,Bintaro,city,"Tulung, Indonesia",Indonesia
26,80.428069,6.988055,A-PAD Sri Lanka,852487526073815041,2020-02-29 11:55:29,,poi,Kithulgala,Sri Lanka
21,-54.261875,-20.8753275,vaporzinho,852487713970434048,2020-03-05 10:20:24,,city,"Campo Grande, Brasil",Brasil
175,43.9595905,26.345051,,852487718,2020-02-14 16:28:27,,city,",   ",  
82,77.021867,30.584789,Ranbeer singh. i love india,852488070398173184,2020-03-22 03:49:26,"Chandigarh, India",city,"Raipur Rani, India",India
82,78.77910250000001,22.9200635,Gireesh Kumar Dhanka,852488519377457153,2020-03-30 05:47:06,India,city,"Gadarwara, India",India
82,72.78910450000002,21.171369,Mayank Deshani,852488645122695168,2020-05-01 03:41:18,"Surat, India",city,"Surat, India",India
191,6.652358500000001,46.528765,Axel Louissaint,852488711723941888,2020-02-14 18:53:57,Suisse,city,"Lausanne, Suisse",Suisse
65,7.684156,48.55423,Axel Louissaint,852488711723941888,2020-02-17 11:39:21,Suisse,city,"Lingolsheim, France",France
191,6.652358500000001,46.528765,Axel Louissaint,852488711723941888,2020-04-10 16:11:46,Suisse,city,"Lausanne, Suisse",Suisse
82,73.53554150000001,27.1605845,RAMDEV BISHNOI,852489031120297984,2020-02-21 15:23:42,"Rajasthan, India",city,"Nagaur, India",India
47900,-77.0908695,38.81738,Dad O Juengsts,852489040175788032,2020-02-14 00:39:36,,city,"Alexandria, VA",United States
32300,-79.8563,36.6622065,Dad O Juengsts,852489040175788032,2020-02-22 16:32:16,,city,"Martinsville, VA",United States
39580,-78.657837,35.8439815,Dan J,852489040175788032,2020-02-24 02:40:25,,city,"Raleigh, NC",United States
47900,-77.0908695,38.81738,Dan J,852489040175788032,2020-03-01 21:21:39,,city,"Alexandria, VA",United States
28940,-83.9638415,35.982470500000005,Dan J,852489040175788032,2020-03-07 17:17:16,,city,"Knoxville, TN",United States
47900,-77.0908695,38.81738,Dan J,852489040175788032,2020-03-09 23:15:26,,city,"Alexandria, VA",United States
71,6.96747,50.957617,Grkan,852489378572234757,2020-02-14 00:04:08,"Kln, Deutschland",city,"Kln, Deutschland",Deutschland
21,-42.47978371,-22.93499999,jess,852489607975489536,2020-02-21 13:44:19,11/06 ,city,"Saquarema, Brasil",Brasil
222,110.38181200000001,-7.7860404999999995,Devita Ari,85248975,2020-02-18 08:26:48,+62 -0354,city,"Gondokusuman, Indonesia",Indonesia
88,138.932581,35.376125,ERK-ness,852489821385703424,2020-03-02 07:56:18,Crony Tuning,poi,,
8,-68.5779735,-31.534117,Maxi D'Angelo,85248983,2020-05-26 14:23:24,Argentina,city,"Rivadavia, Argentina",Argentina
41940,-122.043373,37.313083000000006,Jeremy Meyers,8524902,2020-02-21 03:20:42,"Austin, Texas",city,"Cupertino, CA",United States
12420,-97.754724,30.3233455,Jeremy Meyers,8524902,2020-03-08 00:57:37,"Austin, Texas",city,"Austin, TX",United States
41860,-122.43206699999999,37.806540999999996,Jeremy Meyers,8524902,2020-04-15 23:13:35,"Austin, Texas",poi,The Interval at Long Now,United States
12420,-97.754724,30.3233455,Jeremy Meyers,8524902,2020-04-25 18:37:26,"Austin, Texas",city,"Austin, TX",United States
82,76.7807,30.7229, ,852490264056934400,2020-03-07 06:14:04,", ",city,"Chandigarh, India",
175,39.6354573,24.488167699999998,hani idrees,852490327,2020-05-11 08:59:49," ,  ",city," ,   ",  
120,101.680805,2.904732,Mirana,852490706,2020-02-25 06:02:44,,city,"Dengkil, Selangor",Malaysia
222,106.818002,-6.210463,mahawisesha,85249100,2020-02-26 09:26:01,"T: -6.3135896,106.6886034",poi,"SAP Indonesia, PT",Indonesia
17460,-81.43148149999998,41.65914650000001,Coach Duncan,852491453314060288,2020-02-17 20:22:37,"Eastlake, OH",city,"Eastlake, OH",United States
151,7.0312755000000005,4.82463,Jator Robinson,852491732314972160,2020-05-06 09:43:39,,city,"Port Harcourt, Nigeria",Nigeria
21,-51.4481005,-23.4457835,F.Diniz  meu pastor e posse de bola n me faltar,852491955040907264,2020-02-14 22:32:15,"Paran, Brasil",city,"Arapongas, Brasil",Brasil
186,-3.7035075,40.4777945,Emilio Guerrero Vill,852492172825899008,2020-03-15 16:13:52,,city,"Madrid, Espaa",Espaa
88,139.081806,35.170733500000004,Sunnyzhang,852492622455201796,2020-02-15 13:14:45,"Odawara-shi, Kanagawa JP",city,"Yugawara-machi, Kanagawa",Japan
88,140.731558,38.3456355,@......,85249276,2020-04-14 06:54:00,,city, ,
222,107.6170635,-6.9144175,Dicky,852492889200275457,2020-03-04 10:11:50,,city,"Sumurbandung, Indonesia",Indonesia
171,125.1557575,8.161327,Alecs Garcia,852492925,2020-03-28 04:05:53,,city,"City Of Malaybalay, Northern Mindanao",Republic of the Philippines
19340,-90.5490325,41.44228250000001,Marvin Black,852493036714110976,2020-02-15 09:51:11,"Moline, IL",city,"Milan, IL",Etats-Unis
82,88.21768399999999,22.7089855,Iqra Shiksha Sadan,852493715881037824,2020-06-09 15:18:27,"Panchla,Howrah,711322(WB)India",city,"Haora, India",India
21,-48.82054100000001,-28.476333,Aquele menino que se Monta,85249414,2020-02-15 09:21:32,Laguna SC :D,city,"Laguna, Brasil",Brasil
117,58.307306000000004,23.567088000000002,.,852494160162684929,2020-02-23 14:22:26,,poi,Muscat Hills |  ,Oman
41420,-123.02901499999999,44.935084,John Mayer freestyle,852494214,2020-03-01 08:47:43,"Salem, OR",city,"Salem, OR",United States
175,46.685077,24.7219435,.,852494313070243841,2020-02-14 20:25:36,..,city,"Riyadh, Kingdom of Saudi Arabia",Kingdom of Saudi Arabia
175,42.131133,19.126419,Bashayer.,852494404682207232,2020-06-06 06:09:46, ,poi,Alnmas,  
65,2.341343,48.869153999999995,Turenne Groupe,852494634932744194,2020-02-28 11:15:47,"Paris, France",poi,Palais Brongniart,France
82,77.597645,12.971117,Suresh Rajpurohit,852494755460239361,2020-03-27 06:49:22,"Surat, India",city,"Bengaluru, India",India
26420,-95.123249,29.663527000000002,GiL ,852495122315051008,2020-03-25 04:30:19,Houston ,poi,right here,United States
200,35.4600735,41.143109,Tamer,852495450032787460,2020-03-05 13:27:28,"Vezirkpr, Trkiye",city,"Vezirkpr, Trkiye",Trkiye
9,137.900562,-34.037298,Daniel Pridham,852495884956778497,2020-02-25 00:55:31,"Melton, South Australia",poi,Paskeville,Australia
171,121.00045619,14.69359139,Hellzee,85249590,2020-02-24 09:54:55,"Lungsod ng Valenzuela, Pambans",city,"Valenzuela City, National Capital Region",Republic of the Philippines
222,106.91111399999998,-6.3306495,Yohanes Dalyono,852496172040060928,2020-03-23 03:29:46,,city,"Cipayung, Indonesia",Indonesia
39900,-119.83871200000002,39.6593735,Spidermans Plural,8524962,2020-04-30 16:19:15,the high desert,city,"Lemmon Valley, NV",United States
82,85.311786,25.50629,Kaushal Kumar,852496532557484034,2020-02-16 05:05:26," , Patna",city,"Fatwah, India",India
222,106.8293805,-6.2529575,e j h a a -,852496543030562816,2020-03-06 12:22:24,somewhere.,city,"Mampang Prapatan, Indonesia",Indonesia
21,-43.5243665,-22.696528,menina legal ,852496637708701699,2020-04-18 04:15:29,Rj,city,"Nova Iguau, Brasil",Brasil
39,-84.08085299999998,9.9303,Mari Lo_O,85249666,2020-02-25 19:16:00,"Moravia, Costa Rica",city,"San Jose, Costa Rica",Costa Rica
96,48.086011,29.262911,.,852496722660139009,2020-04-23 04:45:59,Love.,poi,Froyo, 
33,-70.6596155,-33.4521615,Dennys Mosquera,852497264031543298,2020-05-12 15:29:18,"Barquisimeto, Venezuela",city,"Santiago, Chile",Chile
47900,-77.18362990000001,38.7778,MC Big Swig,85249740,2020-02-16 01:01:46,No. VA / DC area,city,"Springfield, VA",United States
205,-2.0964385,53.470437,Lewis Johnstone,852497458299113477,2020-03-16 10:22:19,"Manchester, England",city,"Ashton-under-Lyne, England",United Kingdom
193,100.467761,13.6890545,,852497517950320642,2020-04-22 06:03:29,,city,", ",
222,109.19358500000001,-6.88144,RifkiNurul Nikmawati,85249765,2020-02-16 08:06:15,under palm tree,city,"Kramat, Indonesia",Indonesia
85,12.5451455,41.8984165,Christina Hallmert,852497862,2020-05-28 12:05:30,,city,"Roma, Lazio",Italia
88,139.7848745,38.571718,,852497978044502016,2020-02-20 04:20:21, ,city, ,
36740,-81.52288,28.52706,aura villarruel,85249815,2020-02-15 00:23:41,"Ridgewood, Queens",city,"Gotha, FL",United States
35620,-73.84274395,40.67190134,aura villarruel,85249815,2020-03-06 06:27:12,"Ridgewood, Queens",city,"Queens, NY",United States
36740,-81.3775,28.5421,aura villarruel,85249815,2020-04-11 18:08:26,"Ridgewood, Queens",city,"Orlando, FL",United States
88,138.88368450000002,37.443303,,852498193216544768,2020-02-14 16:51:23, ,city, ,
178,26.21311,-29.1065885,Mathabo,852498239203008512,2020-03-01 02:30:22," Bloemfontein, Kroonstad",city,"Bloemfontein, South Africa",South Africa
82,72.78910450000002,21.171369,Mohit Maurya,852498665872773120,2020-03-14 12:48:58,"Surat, India",city,"Surat, India",India
205,-1.56549,53.801956,Ste Richardson,852498883183816704,2020-02-14 08:24:45,"Leeds, England",city,"Leeds, England",United Kingdom
200,27.006511,38.4079305,dnyadnyorsendnme,852498956542234626,2020-03-05 23:17:55,"Aydn, Trkiye",city,"zmir, Trkiye",Trkiye
88,133.7541,33.535,,852499807016898560,2020-02-18 10:12:31,,city, ,
119,-96.7255,17.0603,Cristopher,85249999,2020-04-12 02:25:54,"Oaxaca de Jurez, Oaxaca",city,"Oaxaca de Jurez, Oaxaca",Mxico
82,79.83909799999999,26.224047,  #HTL,852500083509784577,2020-05-22 02:39:16," , ",poi,Pukhrayan Railway Station,India
119,-100.1687175,25.778679,Isidro Martinez,85250058,2020-02-20 04:31:46,"Monterrey, NL",city,"Apodaca, Nuevo Len",Mxico
200,29.0052225,41.0213205,mustafa Bostan,852500603850903553,2020-05-25 14:05:06,,city,"stanbul, Trkiye",Trkiye
82,78.46509449999998,17.3886495,syed shujath hussain,852500713909272577,2020-06-09 14:47:56,"Rajendra Nagar, India",city,"Hyderabad, India",India
8,-58.449059999999996,-34.803740000000005,Nahuel Mitri,85250096,2020-03-28 00:58:29,Buenos Aires,city,"Monte Grande, Argentina",Argentina
120,101.2025985,4.6471325,Queeeen,85250146,2020-02-14 06:00:17,Melaka - Tapah,city,"Hulu Kinta, Perak",Malaysia
242,120.9558625,24.2208365,Az,852501774745321472,2020-02-23 09:20:56,"Taichung City, Taiwan",city,", ",
158,176.309048,-37.702884000000005,nodraeR gerG - Stay The Fc Home,852501834312712192,2020-04-01 01:41:26,Papamoa Beach,poi,Papamoa Beach,New Zealand
21,-46.5955455,-23.682803,Bruno Dornellas,852502585093357568,2020-02-17 01:28:29,"So Paulo, Brasil",city,"So Paulo, Brasil",Brasil
33,-70.55934149999999,-33.593537999999995,El Anti Zurdo,852503652635901952,2020-05-14 14:38:38,"AbuDabi, Emiratos rabes Unid",city,"Puente Alto, Chile",Chile
15980,-81.986834,26.63648,Sam Martin,852504017439731714,2020-04-29 17:54:36,"Cape Coral, FL",city,"Cape Coral, FL",United States
222,106.719417,-6.2665074999999995,D_Duhari,852504035877806084,2020-02-22 23:42:29,"Tangsel, Indonesia",city,"Pondok Aren, Indonesia",Indonesia
186,1.40537,38.91462,asiangrillroad,852504046128820226,2020-03-15 14:18:49,"Eivissa, Espaa",city,"Eivissa, Espaa",Espaa
171,121.08234499999999,14.5833065, minsung agenda,852504665015017472,2020-04-25 07:15:20,jyp building ,city,"Pasig City, National Capital Region",Republic of the Philippines
222,107.54496200000001,-6.9068565,Poppi Dwi Agustin,85250470,2020-06-01 12:46:34,Around you,city,"Cimahi Selatan, Indonesia",Indonesia
21,-43.441578,-22.911421500000003,steph,852504952308199426,2020-04-17 04:11:44,,city,"Rio de Janeiro, Brasil",Brasil
88,138.9404815,37.856349,,852505103420465152,2020-04-07 12:05:02,170-2,city, ,
9,151.57205850000003,-33.1271,Caitlin,852505109279854592,2020-06-05 10:04:26,Australia,city,"Summerland Point - Gwandalan, New South Wales",Australia
200,32.841937,40.000465999999996,Musa Yenisoy,852505385143607296,2020-03-01 08:52:12,"stanbul, Trkiye",city,"Keiren, Trkiye",Trkiye
222,106.8233,-6.1803,talenanku,852505409248141312,2020-04-09 09:18:17,,city,"Tanah Abang, Indonesia",Indonesia
82,75.0684065,32.657848,Kailashvac@gmail.com,852505438843174912,2020-03-04 18:27:19,J and K,city,"Jammu, Jammu And Kashmir",Pakistan
171,122.9592885,10.5096345,Efrel,852505638,2020-02-20 00:43:35,Philippines,city,"Bago City, Western Visayas",Republic of the Philippines
171,120.99243100000001,14.602462,heyyy,852506077413244928,2020-03-01 11:31:36,"General Trias, Calabarzon",poi,Morayta St. Corner Recto St.,Republic of the Philippines
205,-2.915427,53.4198785,Tony Stewart,852506414,2020-02-16 16:05:13,Liverpool,city,"Liverpool, England",United Kingdom
82,80.755177,24.273334,Anuj BAbaZ,852506979146674176,2020-05-29 17:29:46,"Maihar, India",poi,Maihar temple,India
171,120.59792161,18.51227541,Nathan Jon,85250715,2020-04-10 09:42:40,Republic of the Philippines,city,"Burgos, Ilocos Region",Republic of the Philippines
120,100.23899999999999,5.4,Ricky Matthews runRICKYrun,852507224203075584,2020-02-16 04:52:30,"Penang, Malaysia",city,"Mukim 15 (Bkt. Ayer Itam), Pulau Pinang",Malaysia
88,139.7598472,35.66277778,Ricky Matthews runRICKYrun,852507224203075584,2020-02-22 23:12:55,"Penang, Malaysia",city,"Minato-ku, Tokyo",Japan
120,100.23899999999999,5.4,Ricky Matthews runRICKYrun,852507224203075584,2020-04-17 07:27:08,"Penang, Malaysia",city,"Mukim 15 (Bkt. Ayer Itam), Pulau Pinang",Malaysia
222,106.8233,-6.1803,Yos,852507492,2020-02-27 13:20:19,"DKI Jakarta, Indonesia",city,"Tanah Abang, Indonesia",Indonesia
200,28.986985999999998,41.057911,idem gnarslan,852507507608227840,2020-03-01 07:48:01,Trkiye,poi,Cemil Canda Kent Kltr Merkezi,Trkiye
82,83.0654805,26.039812,Anand P. Gautam {KVian},852507562339708928,2020-04-14 10:43:10,"Azamgarh, India",city,"Azamgarh, India",India
88,130.98049679,33.79959082,,852507662713446400,2020-04-08 22:32:18,,city, ,
14700,-93.2662515,36.6548395,Robbie,852507731709841408,2020-05-26 12:42:13,"Branson, MO",city,"Branson, MO",United States
65,4.710013999999998,44.4350955,Philippe LE JONCOUR,852507810504085509,2020-02-18 07:11:01,"Avignon, France",city,"Donzre, France",France
21,-38.51989,-3.789768,Patty,852507911658115072,2020-03-02 04:22:30,"Fortaleza, Brasil",city,"Fortaleza, Brasil",Brasil
8,-64.1980255,-31.4154565,agus,852507913927131137,2020-04-22 20:33:00,Fan Account,city,"Crdoba, Argentina",Argentina
171,121.5049835,13.936379999999998,Ina VelascoTolentino,852508203745026049,2020-02-25 09:12:24,"Sariaya, Calabarzon",city,"Sariaya, Calabarzon",Republic of the Philippines
8,-64.2929775,-36.618834,Chechuland,85250876,2020-05-26 18:45:39,"La Pampa, Argentina",city,"Santa Rosa, Argentina",Argentina
82,82.68833749999997,24.1179115, ,852509197853917184,2020-03-23 04:11:13,"Shaktinagar, India",city,"Shakti Nagar, India",India
242,120.612349,22.973791000000002, ,852510325,2020-03-06 16:11:55,Singapore,city,"Kaohsiung City, Taiwan",Taiwan
82,72.95954900000002,23.600523000000006,Hiren Patel,852510576890830848,2020-02-15 09:09:43,"Himatnagar, India",city,"Himatnagar, India",India
193,100.53480649999999,13.659798499999999, ,852510655,2020-06-08 11:04:56,,city,", ",
119,-103.41857900000001,20.627670000000002,Oscar Arias,85251093,2020-04-14 14:51:27,"Guadalajara, Jalisco",poi,Scotiabank,Mexico
34980,-86.791549,36.200008000000004,RJK,852510936,2020-04-27 16:48:28,,city,"Nashville, TN",United States
222,106.49319799999999,-6.268336,,852511142823972865,2020-02-14 05:30:55, ,city,"Tigaraksa, Indonesia",Indonesia
193,100.538414,13.753473999999999,,852511142823972865,2020-02-22 00:32:19, ,poi,Ten Stars Inn,
222,106.49319799999999,-6.268336,,852511142823972865,2020-02-25 05:11:14, ,city,"Tigaraksa, Indonesia",Indonesia
222,109.271178,-7.442667,keramaian,852511187321278466,2020-02-16 02:01:10,,poi,Honda Sumber Purwokerto,Indonesia
175,39.2541285,21.5857105, ,852511272,2020-02-15 20:19:26, - ,city,",   ",  
222,106.91111399999998,-6.3306495,n g g i ,852511321459314689,2020-02-14 01:29:07,jkt-dpk,city,"Cipayung, Indonesia",Indonesia
171,125.4432615,7.317582499999999,GBrl,852511516821553153,2020-03-23 07:13:27,,city,"Davao City, Davao Region",Republic of the Philippines
82,80.88440750000002,26.8251695,Sp,852511563361792001,2020-03-01 16:56:41,13/308Indiranagar.Lkoup ,city,"Lucknow, India",India
24640,-72.325572,42.499067,Seth Nadeau,85251158,2020-05-02 19:43:55,"Worcester, MA",poi,"New Salem, MA",United States
49340,-71.818013,42.269624,Seth Nadeau,85251158,2020-05-07 12:01:19,"Worcester, MA",poi,Elm Park,United States
8,-68.207679,-28.757808,Mar-c Herrera,852511669540577282,2020-03-14 13:41:51,Vinchina Pcia de la Rioja,poi,"vinchina,La rioja",Argentina
35620,-74.085219,40.2764875,Brittany Lamb,852511999842029568,2020-03-04 16:59:50,,city,"Tinton Falls, NJ",United States
96,47.956589,29.359665999999997,,852512020943572992,2020-02-14 17:39:42,,poi,     Jaber Al-Ahmed Cultural Center,Kuwait
205,-0.462348,51.469408,,852512020943572992,2020-02-26 08:56:16,,poi,London Heathrow Airport (LHR),United Kingdom
96,48.05357923,29.19787572,,852512020943572992,2020-06-10 10:17:57,,city,"Al Wusta, Kuwait",Kuwait
65,2.7185650000000003,48.263048,Nira Nira Nira,852512247431737344,2020-02-28 17:37:32,,city,"Nemours, France",France
31080,-117.8874385,33.739992,casey epling,852512594,2020-03-02 23:45:00,,city,"Santa Ana, CA",United States
175,46.685077,24.7219435,.,852512838270767104,2020-03-11 08:22:05,"Riyadh, Kingdom of Saudi Arabia",city,",   ",  
19100,-96.773829,32.785081,UnityVazquez,852513126989934592,2020-02-22 23:06:00,Dallas Texas,poi,Double Wide,United States
34980,-86.791549,36.200008000000004,Shane,85251315,2020-03-03 14:24:46,"Nashville, TN",city,"Nashville, TN",United States
21,-43.441578,-22.911421500000003,VITRIA ,852513268589572097,2020-02-14 01:00:40,"Parada de Lucas, Rio de Janeir",city,"Rio de Janeiro, Brasil",Brasil
82,77.62305699999999,12.890106,Amarendra Bandla,85251369,2020-03-18 06:11:12,Bangalore,poi,kakappa layout,India
119,-106.14549720000001,28.6859332,Jesus Sandoval Ch,85251382,2020-04-19 03:37:03,,city,"Chihuahua, Mxico",Mxico
151,7.01886287,4.82249935,ntechideals,852514269245702144,2020-03-10 14:56:46,"Nigeria, Port Harcourt",city,"Port Harcourt, Nigeria",Nigeria
49,-79.89133100000001,-2.157518,Dr. Hermogenes  Muniz Moran,852514709945372674,2020-03-17 00:35:02,,poi,Omni Hospital,Ecuador
88,133.50985500000002,33.5703455, ,852514741318688769,2020-05-19 15:53:43,,city, ,
21,-43.5786705,-22.7313695,Preta Oliveira,852514890132664320,2020-05-24 23:23:46,"Queimados, Brasil",city,"Queimados, Brasil",Brasil
168,55.222885999999995,-21.078694,  ,852515034047672320,2020-02-19 12:22:33,,poi,Plage de l'Ermitage les Bains,La Runion
21,-43.018208,-22.821465,Brenno,852515162888261634,2020-02-14 15:06:11,"Tenente Jardim, So Gonalo",city,"So Gonalo, Brasil",Brasil
82,75.65129999999998,29.275157500000002,Vernaji...,852515616208584704,2020-06-09 03:07:35,"Gurgaon, India",city,"Hisar, India",India
21,-39.7,-11.55,Locutor Jferson Santana,852515626459549698,2020-02-19 02:33:10,Macabas ,city,"Gavio, Brasil",Brasil
193,100.99737950000001,13.4068775,Pom,852515634160189441,2020-05-15 14:05:43,,city,", ",
21,-43.250721999999996,-22.989839,BR,852515706327490560,2020-02-18 20:27:50,"Rio de Janeiro, Brasil",poi,Rocinha,Brasil
222,106.7814675,-6.4608865,im,852515839467061254,2020-02-15 01:16:25,,city,"Bojonggede, Indonesia",Indonesia
171,120.97565549999999,14.712613000000001,beancy rose,852515945558028288,2020-05-30 06:56:16,Philippines,city,"Valenzuela City, National Capital Region",Republic of the Philippines
32580,-98.3918665,26.327507,Izzy,852516018920574976,2020-05-05 02:36:39,,city,"Citrus City, TX",United States
82,79.006775,28.002131,Abhinav Saxena,852516036721205248,2020-03-30 11:58:01,Ujhani (Badaun) Uttar Predash,city,"Ujhani, India",India
82,79.16077,21.148477,Aditya Gaidhane ,852516318502899714,2020-05-23 12:08:20,"Nagpur, India",poi,paradi,India
31080,-118.4119065,34.0207895,Janine Vee Bee,852516378,2020-02-19 06:20:51,,city,"Los Angeles, CA",United States
88,131.455,34.16,:,852516906,2020-02-14 00:08:19,,city, ,
21,-43.938805,-16.616056,Rolaprafrente 6k,852516916409356289,2020-02-20 03:08:47,,city,"Montes Claros, Brasil",Brasil
37980,-75.117998,40.0048655,Aaron,852517169481035777,2020-02-19 23:31:27,"Philadelphia, PA",city,"Philadelphia, PA",United States
10900,-75.4839355,40.591825,Aaron,852517169481035777,2020-03-02 01:53:48,"Philadelphia, PA",city,"Allentown, PA",United States
37980,-75.117998,40.0048655,Aaron,852517169481035777,2020-03-05 16:28:20,"Philadelphia, PA",city,"Philadelphia, PA",United States
10900,-75.4839355,40.591825,Aaron,852517169481035777,2020-04-24 05:50:19,"Philadelphia, PA",city,"Allentown, PA",United States
88,135.44021049999998,34.551635499999996,,852517333784383488,2020-04-16 05:28:07,,city,  ,
21,-43.018208,-22.821465,Digata,852517528999997440,2020-02-25 21:27:35,cpx d rocinha c.v,city,"So Gonalo, Brasil",Brasil
88,135.840352,34.683896000000004,,852517636231487488,2020-03-26 04:37:14,,poi, (Nara Park),
171,121.0392605,14.5847555,Yvonne Aspan,852517933,2020-04-23 08:21:57,"Mandaluyong City, National Capital Region",city,"Mandaluyong City, National Capital Region",Republic of the Philippines
173,34.382272,61.7860505,   ,852518008790626304,2020-02-15 15:07:40,hogwarts,city,", ",
33,-71.51564599999999,-33.0263575,GingerCote,852518024427053057,2020-02-24 00:04:15,,city,"Via del Mar, Chile",Chile
21,-49.72506,-29.34123,Emilin Dias,852518138587598849,2020-03-03 14:23:45,"Trs Cachoeiras, Brasil",city,"Torres, Brasil",Brazil
88,139.14912099999998,35.254017499999996,MASATO,852518326001483776,2020-04-06 09:05:15, ,city, ,
33100,-80.2333285,25.7823535,Hassan Ndam,852518360118177793,2020-02-17 22:39:54,"Cincinnati, OH",city,"Miami, FL",United States
35,9.745933,4.093134,Hassan Ndam,852518360118177793,2020-02-27 13:13:14,"Cincinnati, OH",poi,Parc de Bonamoussadi,Cameroon
33100,-80.2333285,25.7823535,Hassan Ndam,852518360118177793,2020-03-16 04:47:53,"Cincinnati, OH",city,"Miami, FL",United States
119,-99.13328111,19.43429012,Diana Abadia,85251858,2020-05-17 19:23:40,Colombia ,city,"Cuauhtmoc, Distrito Federal",Mxico
31080,-118.30777778,33.89361111,Ivan Cabrera,852518585033383938,2020-02-21 21:19:09,"Gardena, CA",city,"Gardena, CA",United States
178,27.968098,-26.2761385,MEDuSA,852518614402048000,2020-03-27 08:02:16,South Africa,city,"Johannesburg, South Africa",South Africa
119,-86.76950500000001,21.089125,NehemiasRa,85251868,2020-02-15 16:06:21,LM || Cancn Mx ,poi,Hard Rock Hotel Cancn,Mexico
205,-2.5935,53.3924,Signature Home Improvements,852518694299238401,2020-06-04 16:16:25,"Warrington, England",city,"Warrington, England",United Kingdom
8,-58.013021499999994,-34.9363185,Veronica Tejeiro,852518812553543683,2020-03-26 21:48:58,,city,"La Plata, Argentina",Argentina
175,39.8016865,21.389833000000007,Mohmed samir,852519044272050177,2020-04-26 14:02:54, ,city," ,   ",  
31080,-118.59093999999999,34.25725,Alan Solares,852519061,2020-02-18 16:22:45,"Los Angeles, Ca",city,"Los Angeles, CA",United States
50,30.9149,29.944516999999998,adel magdy,852519222,2020-06-03 22:16:27,,poi,   ,Egypt
82,73.88438199999999,18.520764,Moosa Kazi,852519284270039040,2020-02-14 14:22:19,,city,"Pune, India",India
24300,-108.462822,39.080316499999995,Tyler Gonzalez,852519331,2020-02-14 01:59:55,970,city,"Clifton, CO",United States
82,76.47511999999999,13.25985,PRABHAT VERMA,852519360,2020-05-14 03:29:45,REWA  THE LAND OF WHITE TIGERS,city,"Tiptur, India",India
205,-2.23348,53.4569525,Emily May Robertson RN BEM,852519442919641089,2020-02-14 21:23:36,"Manchester, England",city,"Manchester, England",United Kingdom
119,-90.27714,19.601414000000002,Marcos Ivn Sp,852519458073710592,2020-02-18 19:09:59,"Campeche, Mxico",city,"Campeche, Mxico",Mxico
82,77.51043653,28.34825089,Ch Niranjan Nagar,852519906566316036,2020-05-06 11:25:58,     ,city,"Sikandarabad Noida, India",India
186,2.2335163,41.5695721,Restaurant El Jard,852520200,2020-03-01 15:20:07,"c/ Major, 1 Parets del Valls",city,"Parets del Valls, Espanya",Espanya
16980,-87.985476,42.095656,RMHS Theatre,852520610995597312,2020-02-14 05:16:20,"Rolling Meadows, IL",city,"Arlington Heights, IL",United States
36260,-111.9090835,40.984473,"Alberto Herraez, M.Ed",852520911383085056,2020-02-23 17:15:48,"Farmington, UT",city,"Farmington, UT",Estados Unidos
189,15.138272,59.118017,Hampus Ericsson,852521690957524992,2020-04-19 11:28:01,,city,"Kumla, Sverige",Sverige
46140,-95.913642,36.1093915,V,852521733257146369,2020-02-15 02:26:20,"Tulsa, OK",city,"Tulsa, OK",United States
16980,-87.88322600000002,42.36878,Rene,852522400973565952,2020-05-30 01:28:25,,city,"Waukegan, IL",United States
82,82.802212,27.029034499999998,Vijendra Sharma,852522482112225282,2020-04-09 19:01:53,", ",city,"Rudhauli, India",India
96,47.694488,29.3416835, A D E L,852522532930564097,2020-02-24 11:21:42,"Wales, United Kingdom",city,"Al Qasr, Kuwait",Kuwait
82,77.5584485,12.9231145,Angela D'Souza,85252314,2020-02-17 06:59:20,"Bengaluru, India",city,"Bengaluru South, India",India
38300,-80.053292,40.6423405,Ethan Chan,852523248533344257,2020-02-23 03:48:34,"Gibsonia, PA",city,"Bradford Woods, PA",United States
88,130.925,33.94833333,:,852523387,2020-02-14 00:08:20,,city, ,
65,1.566217,45.4280685,Anthony Rougerie,852523483,2020-02-25 20:08:55,"Uzerche, Limousin",city,"Uzerche, France",France
205,-1.1835235,52.903548,Peter Hacker,852523754622246914,2020-02-15 11:12:29,"England, United Kingdom",city,"Clifton, England",United Kingdom
88,132.44895200000002,34.3857005,,852524035355234304,2020-03-02 14:49:11,YamaguchiOsakaHiroshima,city,  ,
88,124.2050055,24.469803, ,852524096978014208,2020-04-02 03:40:39,,city, ,
41180,-90.336884,38.52272650000001,  ,852524754879877120,2020-03-20 16:18:07,"Duluth, GA",city,"Green Park, MO",United States
29460,-81.6988865,28.0173055,ROCK OUT' KE,852525098,2020-03-05 23:48:34,,city,"Winter Haven, FL",United States
193,100.53910732,13.74649267,Sompoch Rienkaew,85252514,2020-02-17 06:29:44,Bangkok,city,"Pathum Wan, Thailand",Thailand
36540,-96.053431,41.275721,Prajwal Dhakal,85252539,2020-03-02 01:44:48,"Nepal, USA",city,"Omaha, NE",United States
205,-2.378775,52.769625,FG Newport,852525650,2020-03-11 16:44:19,"Newport, Shropshire, England.",city,"Newport, England",United Kingdom
96,47.713665999999996,29.318407500000003,  ,852525656,2020-02-16 04:23:39,Kuwait/London,city,"Saad Al Abdullah, Kuwait",Kuwait
21,-49.261299,-16.642782500000003,Breno A. Barbosa,852525858640334849,2020-02-17 02:07:08,"Goinia, Brazil",city,"Goinia, Brazil",Brazil
242,121.561476,25.085756,QiangWei,852525862104608768,2020-03-05 10:32:45,,city,"Taipei City, Taiwan",Taiwan
82,78.51308900000002,29.302742,Gaurav  Rajput,852525964236115969,2020-03-25 13:02:09,,city,"Dhampur, India",India
12540,-119.025163,35.3469015,Ivan,85252609,2020-02-21 05:21:10,United States,city,"Bakersfield, CA",United States
31080,-118.399639,34.082496500000005,Ivan,85252609,2020-03-01 02:34:18,United States,city,"Beverly Hills, CA",United States
12540,-119.025163,35.3469015,Ivan,85252609,2020-03-09 00:27:32,United States,city,"Bakersfield, CA",United States
205,-2.304758,53.580698,Caralyne Louise,852526181018734592,2020-03-24 10:40:54,"Manchester, England",city,"Bury, England",United Kingdom
36420,-97.455741,35.695221999999994,Toni Gregg,852526692354719744,2020-06-04 13:19:06,,city,"Edmond, OK",United States
174,30.134867,-1.9637830000000003,Kevin MjK,852526860844060672,2020-03-04 15:46:09,Rwanda,poi,Kigali International Airport (KGL),Rwanda
222,112.743,-7.2647,Martina Tomlinson,85252807,2020-04-02 00:55:52,Indonesia,city,"Genteng, Indonesia",Indonesia
151,8.470568,11.958346,Baffah,852528076512780288,2020-02-14 10:54:16, Nigeria,city,"Rijiyar Zaki, Nigeria",Nigeria
175,46.685077,24.7219435,,852528194,2020-05-26 05:38:40,"Riyadh, Kingdom of Saudi Arabia",city,",   ",  
171,121.0186875,13.8122125,zamaam,852528454419357696,2020-04-26 12:11:57,Padre Castillo San Pascual Bat,city,"San Pascual, Calabarzon",Republic of the Philippines
21,-43.5243665,-22.696528,Matheuzin ,852528712121819137,2020-06-07 16:52:16,Comedador Soares,city,"Nova Iguau, Brasil",Brasil
88,140.214143,35.598141,Chimo,852529056754970624,2020-04-03 01:57:08,  ,city,  ,
222,106.852751,-6.186116,Adin,85252911,2020-02-23 03:17:29,,poi,Pasar Johar Baru,Indonesia
18140,-82.764772,39.9748205,ORION Electronics,852529110454808578,2020-02-29 19:03:42,"Ohio, USA",city,"Reynoldsburg, OH",United States
175,50.08808,26.402277,,852529334044827649,2020-03-02 05:03:23,,poi,    ,Kingdom of Saudi Arabia
36740,-81.491811,28.457142500000003,HeatherC,85252975,2020-05-19 19:03:00,"Orlando, FL",city,"Doctor Phillips, FL",United States
39300,-71.43666999999998,41.698940500000006,Jon Gruszka,852529981133606912,2020-02-16 23:16:07,"Providence, RI",city,"Warwick, RI",United States
51,-6.775433500000001,53.64991800000001,Keith Heavey,852530002889502720,2020-06-02 14:18:47,"Dublin City, Co. Dublin, Ireland",city,"Meath, Ireland",Ireland
18,96.11698299999999,16.876223,Wai Phyo Han,85253008,2020-05-03 04:09:22,Myanmar,poi,Rangoon Institute of Technology,Myanmar
171,125.34428799999999,8.930861499999997,Z,852530090466435072,2020-03-26 08:58:35,The Burrow,city,"Nasipit, Caraga",Republic of the Philippines
36740,-81.3677725,28.5016785,mar.,852530110720880641,2020-02-14 01:15:57,"Rosario, Argentina",city,"Orlando, FL",Estados Unidos
33100,-80.13296249999998,25.8169655,mar.,852530110720880641,2020-02-16 22:47:53,"Rosario, Argentina",city,"Miami Beach, FL",Estados Unidos
36740,-81.471188,28.465076,mar.,852530110720880641,2020-03-28 00:13:16,"Rosario, Argentina",poi,Universal's Aventura Hotel,Estados Unidos
33100,-80.164703,25.775128,mar.,852530110720880641,2020-04-06 04:26:10,"Rosario, Argentina",poi,Port Of Miami: South Florida Container Terminal,Estados Unidos
36740,-81.581061,28.416609,mar.,852530110720880641,2020-04-11 23:31:10,"Rosario, Argentina",poi,Magic Kingdom Park,Estados Unidos
33100,-80.12775400000001,25.788299,mar.,852530110720880641,2020-06-07 02:34:30,"Rosario, Argentina",poi,Miami Beach,Estados Unidos
88,137.389143,34.754942,ca-ke,852530288668229633,2020-05-08 03:42:45, ,poi,,
171,120.95352633,15.48100358,E.VL,852530438224609281,2020-03-14 10:35:19,+63,city,"Cabanatuan, Central Luzon",Republic of the Philippines
171,120.5287295,15.2125625,aevanescence,852530581246164992,2020-02-14 12:31:51,,city,"Mabalacat, Central Luzon",Republic of the Philippines
85,7.6757855,45.072872499999995,Alessandro Capo,852530581808324608,2020-02-14 05:09:32,"Turin, Pimont",city,"Torino, Piemonte",Italia
151,3.3584169999999998,7.141858999999999,Olumo Rock Tourist Complex,852530623101251584,2020-02-17 21:48:20,"Abeokuta, Nigeria",poi,Olumo Rock Abeokuta,Nigeria
95,127.47619526,36.64218724,,852530996,2020-05-22 15:12:40,Osaka/Japan,city, ,
88,135.37460311,34.71718099,,852530996,2020-05-28 13:51:51,Osaka/Japan,city, ,
222,106.75429,-6.26368,,852530996,2020-06-02 15:06:41,Osaka/Japan,city,"Pondok Aren, Indonesia",Indonesia
88,135.51097019999997,34.648623,,852530996,2020-06-02 23:19:47,Osaka/Japan,city,  ,
71,6.96747,50.957617,Mohamed _Alhaddad,852531253320572928,2020-04-07 19:31:14,Misurata Libya,city,"Cologne, Germany",Germany
82,85.512336,23.6254,Pramod kumar,852531493721255936,2020-03-24 11:39:59,"Jharkhand, Ramgarh ",poi,Ramgarh cantt,India
222,108.81258899999999,-7.029107499999999,Rudi Roshan,852531540894470144,2020-05-22 13:02:52,"Tanjung Pinang Kota, Indonesia",city,"Banjarharjo, Indonesia",Indonesia
119,-100.28591158,25.6344568,Mario Reyna ,85253172,2020-02-17 18:18:21,,city,"Monterrey, Nuevo Len",Mexico
82,76.4763085,18.427528,Mukesh Sabde-Reddy (MSR),852532178,2020-02-17 04:52:07,"Latur, India",city,"Latur, India",India
151,3.39583,6.45306,Gabriel Imoleayo,852532193763184640,2020-04-20 22:00:08,"Lagos, Nigeria",city,"Lagos, Nigeria",Nigeria
88,136.51039965,34.73429941,,852532477,2020-03-20 05:31:35,,city, ,
14010,-88.98634200000001,40.508652000000005,Lori Leppert,852532528636448768,2020-03-06 16:19:08,,poi,Bloomington-Normal Marriott Hotel & Conference Center,United States
200,29.0052225,41.0213205,Turan Alev,852532650455814145,2020-05-09 22:36:50,"Beyolu, stanbul",city,"stanbul, Trkiye",Trkiye
21,-43.25465151,-22.99390041,Vitria,852532672400424960,2020-02-14 02:45:22,"Rio de Janeiro, Brasil",city,"Rio de Janeiro, Brasil",Brasil
186,2.11083,41.35083,Pere Boadas Vaello,852532916,2020-02-25 12:22:15,"Girona, Catalunya",city,"l'Hospitalet de Llobregat, Espanya",Espanya
21,-50.065922,-29.811335999999997,Johny,852533222936383488,2020-02-15 01:44:21,"Frederico Westphalen, Brasil",city,"Xangri-L, Brasil",Brasil
65,-1.7016474999999998,43.3513015,Urko,852533317849272320,2020-03-19 11:14:04,"Txingudi, Euskal Herria",city,"Urrugne, France",Francia
186,-1.790589,43.320681,Urko,852533317849272320,2020-03-20 14:18:59,"Txingudi, Euskal Herria",city,"Irun, Espaa",Espaa
65,-1.7016474999999998,43.3513015,Urko,852533317849272320,2020-03-21 07:21:31,"Txingudi, Euskal Herria",city,"Urrugne, France",Francia
186,-1.790589,43.320681,Urko,852533317849272320,2020-03-23 13:46:50,"Txingudi, Euskal Herria",city,"Irun, Espaa",Espaa
65,-1.7016474999999998,43.3513015,Urko,852533317849272320,2020-03-23 21:27:20,"Txingudi, Euskal Herria",city,"Urrugne, France",Francia
186,-1.790589,43.320681,Urko,852533317849272320,2020-03-24 15:57:40,"Txingudi, Euskal Herria",city,"Irun, Espaa",Espaa
65,-1.7016474999999998,43.3513015,Urko,852533317849272320,2020-03-24 21:52:00,"Txingudi, Euskal Herria",city,"Urrugne, France",Francia
186,-1.790589,43.320681,Urko,852533317849272320,2020-03-25 15:34:27,"Txingudi, Euskal Herria",city,"Irun, Espaa",Espaa
65,-1.7016474999999998,43.3513015,Urko,852533317849272320,2020-03-25 22:20:37,"Txingudi, Euskal Herria",city,"Urrugne, France",Francia
186,-1.790589,43.320681,Urko,852533317849272320,2020-03-26 19:19:22,"Txingudi, Euskal Herria",city,"Irun, Espaa",Espaa
65,-1.7016474999999998,43.3513015,Urko,852533317849272320,2020-03-26 23:06:41,"Txingudi, Euskal Herria",city,"Urrugne, France",Francia
186,-1.790589,43.320681,Urko,852533317849272320,2020-03-27 15:34:33,"Txingudi, Euskal Herria",city,"Irun, Espaa",Espaa
65,-1.7016474999999998,43.3513015,Urko,852533317849272320,2020-03-27 21:28:01,"Txingudi, Euskal Herria",city,"Urrugne, France",Francia
186,-1.790589,43.320681,Urko,852533317849272320,2020-03-31 14:32:37,"Txingudi, Euskal Herria",city,"Irun, Espaa",Espaa
65,-1.7016474999999998,43.3513015,Urko,852533317849272320,2020-04-01 10:51:41,"Txingudi, Euskal Herria",city,"Urrugne, France",Francia
186,-1.82703,43.361829,Urko,852533317849272320,2020-05-09 10:31:39,"Txingudi, Euskal Herria",city,"Hondarribia, Espaa",Espaa
65,-1.7016474999999998,43.3513015,Urko,852533317849272320,2020-05-09 17:26:02,"Txingudi, Euskal Herria",city,"Urrugne, France",Francia
186,-1.790589,43.320681,Urko,852533317849272320,2020-05-15 09:41:36,"Txingudi, Euskal Herria",city,"Irun, Espaa",Espaa
65,-1.7016474999999998,43.3513015,Urko,852533317849272320,2020-05-15 12:29:08,"Txingudi, Euskal Herria",city,"Urrugne, France",Francia
186,-1.82703,43.361829,Urko,852533317849272320,2020-05-16 16:48:44,"Txingudi, Euskal Herria",city,"Hondarribia, Espaa",Espaa
65,-1.7016474999999998,43.3513015,Urko,852533317849272320,2020-05-16 20:27:27,"Txingudi, Euskal Herria",city,"Urrugne, France",Francia
186,-1.790589,43.320681,Urko,852533317849272320,2020-05-29 10:49:05,"Txingudi, Euskal Herria",city,"Irun, Espaa",Espaa
65,-1.7016474999999998,43.3513015,Urko,852533317849272320,2020-05-31 11:54:39,"Txingudi, Euskal Herria",city,"Urrugne, France",Francia
186,-1.790589,43.320681,Urko,852533317849272320,2020-06-05 08:39:14,"Txingudi, Euskal Herria",city,"Irun, Espaa",Espaa
65,-1.7016474999999998,43.3513015,Urko,852533317849272320,2020-06-05 11:44:46,"Txingudi, Euskal Herria",city,"Urrugne, France",Francia
186,-1.790589,43.320681,Urko,852533317849272320,2020-06-05 14:34:55,"Txingudi, Euskal Herria",city,"Irun, Espaa",Espaa
65,-1.7629005000000002,43.363540500000006,Urko,852533317849272320,2020-06-05 18:06:36,"Txingudi, Euskal Herria",city,"Hendaya, Francia",Francia
186,-1.790589,43.320681,Urko,852533317849272320,2020-06-06 14:11:21,"Txingudi, Euskal Herria",city,"Irun, Espaa",Espaa
65,-1.7016474999999998,43.3513015,Urko,852533317849272320,2020-06-06 18:01:28,"Txingudi, Euskal Herria",city,"Urrugne, France",Francia
186,-3.7035075,40.4777945,Urko,852533317849272320,2020-06-08 15:35:09,"Txingudi, Euskal Herria",city,"Madrid, Espaa",Espaa
65,-1.7016474999999998,43.3513015,Urko,852533317849272320,2020-06-08 18:43:23,"Txingudi, Euskal Herria",city,"Urrugne, France",Francia
30,120.48414299999999,36.150656,,852533438598873088,2020-05-11 14:19:21,,poi,,
41860,-121.979527,37.5236445,,852533438598873088,2020-05-26 17:45:19,,city,"Fremont, CA",United States
21,-43.441578,-22.911421500000003,Larissa  ,852533887016239106,2020-02-14 01:02:52,Rio de Janeiro,city,"Rio de Janeiro, Brasil",Brasil
82,77.095086,28.638489500000002,The RJ Aryan,85253399,2020-03-02 16:34:53,india,city,"New Delhi, India",India
88,136.236493,36.272646,@50,852534020,2020-02-23 02:56:23,,poi,,
193,102.08574,14.967381,',852534125449760768,2020-02-14 05:38:31,", ",city,", ",
151,3.366807,6.573461,Ochinanwata Joseph,852534173386592256,2020-04-10 07:24:33,FCT Abuja,poi,Lagos Nigeria,Nigeria
175,39.6540485,24.462089000000002,Talal,852534234921279488,2020-02-23 18:02:45,,city,"Al Madinah Al Munawwarah, Kingdom of Saudi Arabia",Kingdom of Saudi Arabia
205,0.277851,51.2044985,Liz Orr,852534420288548865,2020-02-15 09:12:17,"South East, England",city,"Tonbridge, South East",United Kingdom
200,39.197963,38.667615500000004,Salih Gndz,852534582754848769,2020-03-04 09:20:10,"Elaz, Trkiye",city,"Elaz, Trkiye",Trkiye
21,-54.54379300000001,-21.802759,Jullia,852535224525365249,2020-04-20 01:21:32,"Rio Brilhante, Brasil",poi,Rio Brilhante,Brasil
88,130.7487335,33.8342865,groundrule,852535231806545923,2020-06-11 13:36:28,1-10-33,city,  ,
11460,-83.72997149999999,42.2708395,Katherine Gallagher,852535274613735424,2020-02-14 19:27:12,"Northville, MI",city,"Ann Arbor, MI",United States
19820,-83.49095750000002,42.4191315,Katherine Gallagher,852535274613735424,2020-02-14 21:16:04,"Northville, MI",city,"Northville, MI",United States
11460,-83.72997149999999,42.2708395,Katherine Gallagher,852535274613735424,2020-02-28 01:20:22,"Northville, MI",city,"Ann Arbor, MI",United States
19820,-83.49095750000002,42.4191315,Katherine Gallagher,852535274613735424,2020-03-20 22:36:13,"Northville, MI",city,"Northville, MI",United States
222,110.5329055,-7.3968655,ican,852535311515107328,2020-04-21 17:01:52,,city,"Tengaran, Indonesia",Indonesia
178,31.011979999999998,-29.8603,Talent Sibisi,85253542,2020-05-08 06:19:00,South Africa Durban KwaMashu,city,"Durban, South Africa",South Africa
200,35.458448499999996,38.7292675,ramazan,852535488,2020-04-24 13:09:08,Erciyes niversitesi ,city,"Kayseri, Trkiye",Trkiye
21,-46.678548,-23.527556,SHAY,852535853473726464,2020-05-28 14:29:13,"So Paulo, Brasil",poi,Allianz Parque,Brasil
21,-46.9752535,-22.9800425,Daniel dOliveira,852535889305710593,2020-02-14 23:10:09,,city,"Valinhos, Brasil",Brasil
42660,-121.8443495,47.526913,Bob Singleton,852536249244164096,2020-03-22 16:58:56,"Missouri, USA",city,"Snoqualmie, WA",United States
205,-3.2030084999999997,55.943195499999995,Stu Sly,852536252582821889,2020-02-21 08:03:45,"Scotland, United Kingdom",city,"Edinburgh, Scotland",United Kingdom
205,-2.3267745,53.4001995,Kevin J Munro,852536280,2020-03-09 16:55:07,"Manchester, England",city,"Sale, England",United Kingdom
9,138.7096634,-34.97492409,Kate Crayford,852536387664359425,2020-03-21 09:34:01,"South Australia, Australia",neighborhood,"Cleland, Adelaide",Australia
26420,-95.4464865,29.838495,Chocolatee Hoodbratt,852536529956343809,2020-05-03 05:53:16,"Houston, TX",city,"Houston, TX",United States
9,150.931975,-33.848244,Andrea Fiedler,852536623,2020-02-19 22:23:00,,city,"Sydney, New South Wales",Australia
21,-49.11254200000001,-22.2387405,analu,852536811398336512,2020-04-24 21:41:06,Brasil,city,"Bauru, Brasil",Brasil
26420,-95.4464865,29.838495,Lauren Eller,852536910581030912,2020-05-06 06:39:13,"Katy, TX",city,"Houston, TX",United States
193,100.534701,13.739609, (_ _)|17cm.,852537495065575424,2020-03-01 09:24:40,since 23-Apr-2017,city,"Pathum Wan, Thailand",Thailand
175,40.4908105,21.38543,..,852537555740479489,2020-05-12 04:05:27,,city,",   ",  
37100,-119.067407,34.3600145,Juan Parra,852537586262261760,2020-03-04 22:57:22,Santa Paula CA,city,"Santa Paula, CA",United States
222,106.770877,-6.562181000000002,#,852537598664785920,2020-02-24 06:03:25,"(blue) multifandom area!  [likes art, fotography, food, rebahan, sesuatu yg cute] w [ nsfw/bl area] ",city,"Bogor Barat, Indonesia",Indonesia
82,78.280975,30.0970875,Veshesh Gandhi ,852537678,2020-04-17 11:47:57,,city,"Rishikesh, India",India
9,149.157943,-35.270433000000004,HZ ,85253805,2020-05-10 11:23:53,Harveytown,poi,Mount Ainslie,Australia
88,137.3669115,36.568288,,852538056506613760,2020-04-26 03:58:52,,city, ,
65,2.347003,48.8588335,John Lichfield,852538501832769540,2020-02-14 12:19:29,"Paris, France",city,"Paris, France",France
106,13.427553,32.863125,  ,852538548821667840,2020-03-12 14:10:48,Tajoura - Libya,poi,Tajura,Libya
171,121.00621100000001,14.674375199999998,J,852538589279698944,2020-03-04 15:44:11,,city,"Caloocan City, National Capital Region",Republic of the Philippines
28660,-97.75384,31.0793065, ,852538591129501697,2020-02-14 04:51:04,Ya Moms Crib,city,"Killeen, TX",United States
41180,-90.702644,38.7796565,Astro,852538628043657216,2020-03-26 10:08:57,The Internet,city,"O'Fallon, MO",United States
65,2.153336,48.95021,Lounes,852538717,2020-03-08 18:57:26,"Bezons, France",city,"Maisons-Laffitte, France",France
37980,-75.117998,40.0048655,"Ryan Morse, CMT ",85253884,2020-02-28 16:16:23,"Point Pleasant, NJ",city,"Philadelphia, PA",United States
35620,-74.0748485,40.0785255,"Ryan Morse, CMT ",85253884,2020-02-29 16:41:51,"Point Pleasant, NJ",city,"Point Pleasant, NJ",United States
37980,-74.786966,39.9952965,"Ryan Morse, CMT ",85253884,2020-03-08 22:07:23,"Point Pleasant, NJ",city,"Mount Holly, NJ",United States
35620,-74.0748485,40.0785255,"Ryan Morse, CMT ",85253884,2020-03-09 01:11:07,"Point Pleasant, NJ",city,"Point Pleasant, NJ",United States
37980,-74.8075185,40.020441999999996,"Ryan Morse, CMT CFP ",85253884,2020-04-25 22:33:51,"Point Pleasant, NJ",city,"Westampton, NJ",United States
35620,-74.0748485,40.0785255,"Ryan Morse, CMT CFP ",85253884,2020-04-26 14:39:15,"Point Pleasant, NJ",city,"Point Pleasant, NJ",United States
37980,-74.8372155,39.8768235,"Ryan Morse, CMT CFP ",85253884,2020-05-10 20:37:31,"Point Pleasant, NJ",city,"Medford, NJ",United States
35620,-74.0748485,40.0785255,"Ryan Morse, CMT CFP ",85253884,2020-05-11 01:31:29,"Point Pleasant, NJ",city,"Point Pleasant, NJ",United States
88,140.10045449999998,35.6617655,nanshukan,85253893,2020-02-20 05:17:40,,city,  ,
222,109.51896599999999,-7.608239500000001,Angginkh_,852539065723375616,2020-02-16 09:06:13,Republic of Indonesia,city,"Gombong, Indonesia",Indonesia
193,100.402363,14.7849865,,852539161491816448,2020-03-18 09:25:14,Thailand,city,"Pikun Thong, Thailand",Thailand
186,0.553042,41.624821999999995,Serveto,852539904512991232,2020-02-17 12:53:35,"Lleida, Espaa",city,"Lleida, Espaa",Espaa
186,2.191242,41.397555,,852540147837087744,2020-03-10 00:27:09,Hogwarts,poi,Razzmatazz,Espaa
82,87.8594125,23.276703,Syed MD. Sahil ,852540218775396352,2020-02-27 07:50:25,"Purba Bardhaman, India",city,"Bardhaman, India",India
21,-46.791753299999996,-23.8723082,CaioBrito,852540353110528000,2020-04-27 16:11:33,"Embu-Guau, Brasil",city,"Embu-Guau, Brasil",Brasil
88,130.3942705,33.663443,,852540434,2020-05-26 23:55:26,,city,  ,
88,139.62178799999998,35.933656,Yuzuki,852540436560224256,2020-02-24 08:59:59,,poi,,
88,140.10045449999998,35.6617655,RYU,852540756728225793,2020-04-02 13:55:59, ,city,  ,
88,141.03143300000002,43.178824,,852540854291972096,2020-04-09 08:33:07, ,poi,,
88,139.734723,35.61306000000001,,852541078347501568,2020-04-15 12:16:45,,city, ,
120,111.4180195,2.1171745,aisshi,852541412,2020-02-15 07:29:26,,city,"Sarikei, Sarawak",Malaysia
21,-43.441578,-22.911421500000003,muleque pureza,852541575439822848,2020-02-14 10:32:53,las viegas,city,"Rio de Janeiro, Brasil",Brasil
17460,-81.705467,41.49593950000001,Maxwell,852541663,2020-02-28 00:19:07,Help I'm lost!,city,"Cleveland, OH",United States
21,-48.45979749999999,-1.2729295,Tata.,852542135312277504,2020-05-14 14:39:01,"Engenheiro Coelho, SP",city,"Belm, Brasil",Brasil
200,27.006511,38.4079305,Mehmet AKIN,852542524753412096,2020-03-20 23:24:03,"zmir, Trkiye",city,"zmir, Trkiye",Trkiye
200,29.0052225,41.0213205,Sultanbeyli lk Ocaklar,852542747676487680,2020-05-01 14:40:02,"Sultanbeyli, stanbul",city,"stanbul, Trkiye",Trkiye
82,77.42063950000001,29.712605,Deepak Kumar,852542760976392192,2020-03-09 03:27:54,"Shamli, India",city,"Nanauta, India",India
21,-44.080921999999994,-22.524347,"O METIDO LEGAL, COMO DIZEM",852542772137660416,2020-03-23 02:23:27,"Volta Redonda, Brasil",city,"Volta Redonda, Brasil",Brasil
186,-4.4237,36.7167,Puyolo8,852542805553672192,2020-03-14 21:25:47,"Mlaga, Espaa",city,"Mlaga, Espaa",Espaa
82,88.352242,22.6127055,The BucketList,852542828806668288,2020-02-24 17:14:43,India,city,"Kolkata, India",India
152,4.904053500000001,52.354728,loodgieter 020 ,852543019991654400,2020-05-28 12:47:40,Kinkerstraat 442,city,"Amsterdam, Nederland",Nederland
12020,-83.39977950000001,33.9563835,Clif Cauley,85254303,2020-02-14 16:13:57,"Athens, Georgia",city,"Athens, GA",United States
33100,-80.11290349999999,26.533486,Clif Cauley,85254303,2020-03-06 15:51:21,"Athens, Georgia",city,"Boynton Beach, FL",United States
12020,-83.39977950000001,33.9563835,Clif Cauley,85254303,2020-03-10 21:39:36,"Athens, Georgia",city,"Athens, GA",United States
91,36.863620000000004,-1.2748635,,852543273176621057,2020-02-22 22:44:08,"Nairobi, Kenya",city,"Nairobi, Kenya",Kenya
16700,-80.007367,32.770073499999995,Carmen Pagel,852543457545662465,2020-04-13 02:19:31,"Charleston, SC",city,"Charleston, SC",United States
39,-85.4535865,10.1459645,Jose Pablo,852543627809226752,2020-02-25 18:18:28,"Guanacaste, Costa Rica",city,"Nicoya, Costa Rica",Costa Rica
21,-52.075447,-25.522251999999998,A L I C E,852543884760678400,2020-03-08 02:17:04,"Ibema, Brasil",city,"Candi, Brasil",Brasil
21,-43.5243665,-22.696528,,852544292765749248,2020-02-17 00:48:44,"Rio de Janeiro, Brasil",city,"Nova Iguau, Brasil",Brasil
222,106.600612,-6.243780999999999,premantangsel,852544885961801728,2020-02-18 16:24:51,"Tangerang, Indonesia",city,"Curug, Indonesia",Indonesia
171,121.18178200000001,13.939445000000001,   ,852545132,2020-05-09 08:19:46,South,city,"Lipa City, Calabarzon",Republic of the Philippines
88,135.3516735,34.9453855,@-20kg,852545200102690818,2020-02-14 04:30:26, ,city, ,
222,106.8598,-6.195069999999999,lui whatever,85254527,2020-02-16 13:46:57,Bekasi Kustom Kulture,poi,Sop Kaki Kambing Babe I'ing,Indonesia
88,137.01004,35.241346,SSS,852545305287376896,2020-03-27 01:47:11,,poi,PA (),
82,77.095086,28.638489500000002,Anil kumar,852545582,2020-04-02 06:14:14,"New Delhi, India",city,"New Delhi, India",India
222,122.86323700000001,-0.9311825,ALFILA GILDA SITORUS,852545586322526208,2020-03-14 04:08:48,,city,"Luwuk, Indonesia",Indonesia
65,3.2345155,43.348402,Eule 34 ,852545804011175937,2020-04-05 08:31:44,    F / D/SF(Ca)/milano/Sp,city,"Bziers, France",France
193,100.708678,15.047538000000001,...,852545920201662464,2020-04-21 22:26:18,,poi, ,
193,100.468542,7.0166535,firm,852546052309700610,2020-03-22 15:24:57,,city,"Hat Yai, Thailand",Thailand
28940,-83.94422674,35.93998148,Travis Brummitt,8525462,2020-04-05 02:42:59,Enroute to anywhere,city,"Knoxville, TN",United States
21,-34.939349,-8.043603,Ronalldo Sillva/PE,852546278005362688,2020-03-27 21:38:42,"Recife, Brasil",city,"Recife, Brasil",Brasil
178,26.21311,-29.1065885,Gae12Dec,852546290248450052,2020-02-15 17:45:30,,city,"Bloemfontein, South Africa",South Africa
38,-74.849933,10.958072999999999,Gladys Coba,852546772715151360,2020-05-16 15:47:25,,city,"Barranquilla, Colombia",Colombia
151,8.340073,4.976338,Richard Unimke,852546945587523585,2020-02-15 12:37:03,147 Ndidem Usang Iso Marian Ca,city,"Calabar, Nigeria",Nigeria
82,80.88440750000002,26.8251695,Mohsin Ali Khan,852547027951026176,2020-04-07 17:20:07,,city,"Lucknow, India",India
96,48.130959999999995,29.13618,N,852547079973031936,2020-02-17 07:50:09, ,poi,Tobys Estate, 
120,100.5335315,5.8015655000000015,jagungboy #StayAtHome,852547362106916864,2020-05-05 03:53:20,"Kuala Terengganu, Terengganu",city,"Gurun, Kedah",Malaysia
171,125.4432615,7.317582499999999,,852547370600480768,2020-02-14 02:06:53,mf china ,city,"Davao City, Davao Region",Republic of the Philippines
17900,-80.80406450000002,34.178705,It's B. Rad Bitch!,85254741,2020-03-01 07:23:39,Hit me on my Nextel chirp,city,"Elgin, SC",United States
82,75.120214,22.559061,  ,852547942787317760,2020-02-16 13:07:37,"Ujjain, India",city,"Amjhera, India",India
222,106.89062450000002,-6.3919865,Bantal Cinta,852548045178785792,2020-02-21 19:40:17,"Jakarta Selatan, DKI Jakarta",city,"Cimanggis, Indonesia",Indonesia
19820,-83.157747,42.507218,Gian ,85254817,2020-06-05 22:38:25,"Michigan, USA",city,"Royal Oak, MI",United States
41740,-117.09241000000002,32.75628,The Amalgamated,85254867,2020-03-04 00:13:51,"San Diego, CA",city,"San Diego, CA",United States
30,126.53860700000001,45.809549,,852548678829002752,2020-04-04 06:12:02, ,poi,,People's Republic of China
200,31.830576,36.5968065, ,852548875588173825,2020-04-15 05:08:57,ALANYA ,city,"Alanya, Trkiye",Trkiye
41700,-98.428669,29.658554,Demola,85254953,2020-03-15 14:04:46,"Texas, USA",poi,I'm Gorgeous Inside,United States
82,78.036709,27.168941999999998,Vinay Jadaun,852549557183492096,2020-04-05 09:09:37,India,city,"Agra, India",India
12060,-84.465127,33.884578000000005,Suellyn Ranalet,852549672992260096,2020-02-18 00:55:48,,poi,Renaissance Atlanta Waverly Hotel & Convention Center,United States
175,50.20694949999999,26.124798000000002,  ,852549825451184128,2020-02-22 10:27:10,,city,",   ",  
82,77.5584485,12.9231145,Jyotirmoy Mandal,85254985,2020-02-14 14:50:18,"Bengaluru, India",city,"Bengaluru South, India",India
186,-7.562158,43.643696000000006,NaTaLia,852550105,2020-02-24 00:35:56,"Viveiro, Galicia",city,"Viveiro, Espaa",Espaa
82,75.89291300000001,30.794095000000002,Raby kaur,852550491703824384,2020-02-25 11:14:25,Lucknow,city,"Ludhiana, India",India
82,73.031286,26.173613,Rannsa ,852550700991221760,2020-05-22 20:52:19,,city,"Jodhpur, India",India
82,84.4712935,25.769506,Vinit Singh,852551073369927680,2020-04-03 00:29:47," , ",city,"Bairia, India",India
21,-49.261299,-16.642782500000003,AMR pereira,852551122569097216,2020-02-28 14:30:21,Goinia,city,"Goinia, Brasil",Brasil
171,121.033212,14.5464995,  ,852551169645789184,2020-05-18 11:14:55,"Legazpi Village, Makati City",city,"Makati City, National Capital Region",Republic of the Philippines
65,1.4329005,43.600757,Paul APCHER,852551184,2020-02-26 08:58:27,,city,"Toulouse, France",France
88,135.5520645,34.7250725,,852551366,2020-03-27 06:09:33,  ,city,  ,
38,-77.17049800000002,1.0755555,Mauricio Rosas,852551451813531650,2020-02-24 00:25:33,,city,"Pasto, Colombia",Colombia
200,29.920416499999998,40.75789,Hseyin Akar,852552250123845632,2020-03-29 10:04:17,,city,"Kocaeli, Trkiye",Trkiye
173,83.64607,53.338943500000006,,852552299385954305,2020-03-18 14:00:47," , ",city,", ",
35620,-73.9487755,40.655138,Brave World Media,852553112833245189,2020-02-19 15:10:53,United States,city,"Brooklyn, NY",United States
21300,-76.81397700000001,42.097912,Brave World Media,852553112833245189,2020-04-02 14:19:41,United States,poi,Mark Twain Study,United States
35620,-73.9487755,40.655138,Brave World Media,852553112833245189,2020-04-02 20:38:36,United States,city,"Brooklyn, NY",United States
193,100.530488,14.0226715, ,85255312,2020-03-08 12:43:13,Pathum Thani,city,"Pathum Thani, Thailand",Thailand
205,-1.312817,50.96889,daniel,852553338554023937,2020-03-19 07:37:18,Tara ,city,"Fair Oak, England",United Kingdom
21,-38.486419,-12.690086500000001,Jamile Sales,852553405499363328,2020-04-29 13:21:27,,city,"Candeias, Brasil",Brasil
21,-34.843243,-7.12213,esposa perdida do julinho da van,852553416878563333,2020-03-09 01:33:58,"Joo Pessoa, Brasil",poi,Espao Cultural Jos Lins do Rgo,Brasil
82,77.66287,28.912684999999996,Rajan Chaudhary,852553569047908352,2020-04-13 06:36:51,"Meerut, India",city,"Meerut, India",India
222,105.2589225,-2.7075035,Javier Pradipta P.,852553831757955074,2020-06-05 02:59:39,indonesia,city,"Muara Padang, Indonesia",Indonesia
175,39.2541285,21.5857105,MALAK ,852553844936630281,2020-02-14 13:59:17,Jeddah,city,"Jeddah, Kingdom of Saudi Arabia",Kingdom of Saudi Arabia
222,112.74478300000001,-7.240817,Legend-Dairy,85255405,2020-02-17 17:56:18,"T: -6.262967,106.97125ll",poi,Pasar Atom (PA),Indonesia
222,119.50858999999998,-5.120716000000001,Ibnul Fadli,85255430,2020-03-06 03:37:31,"T: 45.706974,8.833394",poi,PT Bina Artha Ventura Province Office,Indonesia
189,18.097534,59.357986,Viking,852554316087001088,2020-03-31 10:34:11,"Stockholm, Sverige",poi,Kltterverket,Sverige
38,-73.4704055,4.0882915,Franco Munevar M.Bienvenidos!,852554455581163520,2020-03-13 20:31:41,Debajo del higuern. ,city,"Villavicencio, Colombia",Colombia
205,-1.33989,52.0615,Banbury BID,852554509805133824,2020-04-01 15:37:41,"Banbury, England",city,"Banbury, England",United Kingdom
58,14.465875500000001,50.05958,E.,852554594597175297,2020-03-08 22:15:02,esk republika,city,"Praha, esk republika",esk republika
222,106.89062450000002,-6.3919865,Ambar Dewi Pratiwi,852555322107469824,2020-02-15 14:40:29,"Depok, Jawa Barat",city,"Cimanggis, Indonesia",Indonesia
117,58.15478450000001,23.650904999999998,   ,852555631,2020-02-23 13:14:59,",  ",city,",  ", 
222,115.162057,-8.725477999999999,Nathan,852556760653025280,2020-04-10 08:29:29,,city,"Kuta, Indonesia",Indonesia
193,100.58760550000001,13.962407999999998,3ItsmELukH2o~ o.O,85255678,2020-02-22 18:55:19,"13.281422,100.925764",city,"Lak Hok, Thailand",Thailand
65,1.2319785,45.858622,Le CostauMonaute ,852557503,2020-02-14 19:31:47,"Limoges, France",city,"Limoges, France",France
205,-2.324087,53.425481000000005,.,852557524352073728,2020-03-12 08:23:39,,poi,Costa Coffee,United Kingdom
82,77.593659,27.439072999999997,Ashish rajput,852557668463943680,2020-03-29 08:23:38,,city,", ",
205,1.1081126000000001,51.9906723,Shotley Peninsula CC,852557736218947584,2020-02-23 18:41:15,"Ipswich, England",city,"Tattingstone, England",United Kingdom
82,81.168685,16.805079,Sukesh Arnepalli,852557795291525120,2020-04-05 17:03:56,"Eluru, India",city,"Eluru, India",India
222,107.638443,-6.9729470000000005,,852558115,2020-04-27 06:41:59,UNKNOWN,poi,Permata Buah Batu,Indonesia
21,-43.171656,-22.927251000000002,Gold ,852558270728482816,2020-02-23 21:48:15,"Realengo, Rio de Janeiro",poi,Aterro do Flamengo,Brasil
222,104.585697,-3.36499,Nazila Alita,85255860,2020-03-28 18:18:47,"Palembang, Indonesia",city,"Tanjung Batu, Indonesia",Indonesia
21,-43.296872,-22.644558,Lady,852558734790455296,2020-02-14 19:55:12,,city,"Duque de Caxias, Brasil",Brasil
19100,-96.875617,32.984648,Julie Thibodeaux,852558903690674181,2020-05-13 22:23:24,"Euless, TX",poi,TMX Finance,United States
82,85.29276999999998,25.5082565,Avik Roy,852558961249181696,2020-03-22 11:51:32,"Patna, India",city,"Patna City Outer, India",India
21,-38.48245953,-13.01436739,Christyan A. Olinto,85255932,2020-02-27 16:26:42,"So Paulo, Brasil",city,"Salvador, Brasil",Brasil
21,-48.466014,-25.553019,Alanis,852559347683123201,2020-02-28 01:44:11,"Paranagu, Brasil",city,"Paranagu, Brasil",Brasil
21,-40.31594800000001,-9.4807875,ary,852559390477570048,2020-05-23 01:45:00,"Juazeiro, Brasil",city,"Juazeiro, Brasil",Brasil
73,22.988954,40.6610425,Vasilis Adamidis,852560121624494080,2020-03-18 19:11:10,", ",city,", ",
205,0.8988910000000001,51.8887015,Mason,852560176892850178,2020-04-19 10:27:43,,city,"Colchester, England",United Kingdom
200,32.680235,39.9300615,Kaan,852560335,2020-02-22 14:48:40,STANBUL/SANCAKTEPE,city,"Etimesgut, Trkiye",Trkiye
82,77.20344399999999,28.749090999999996,@susheelkumar,852560574697394176,2020-03-25 11:51:54,"New Delhi, India",poi,"Bio-Diversity Park, Delhi",India
205,-2.136028,53.84736949999999,Martin Peter Hughes,852560680481951744,2020-03-09 17:35:13,Trawden In Lancashire,city,"Trawden, England",United Kingdom
82,77.5584485,12.9231145,Suprita Anupam,85256082,2020-03-17 09:25:14,"Bengaluru, India",city,"Bengaluru South, India",India
21,-42.6043955,-11.389000500000002,nathicreu,852561103691411457,2020-02-15 00:57:16,na pqp,city,"Gentio do Ouro, Brasil",Brasil
29820,-115.149,36.1675,BeautifullyUndressed,852561259,2020-06-03 10:04:19,Windsor England ,city,"Las Vegas, NV",United States
18140,-82.93285350000001,39.60431,Alex,852561360118566912,2020-05-11 16:04:42,everywhere ,city,"Circleville, OH",United States
21,-43.376828,-22.728707999999997,L,852562174660792320,2020-02-17 04:21:14,"Belford Roxo, Brasil",city,"Belford Roxo, Brasil",Brasil
171,120.9839865,14.5914565,JPS ,85256225,2020-02-15 01:24:39,"Manila, Philippines",city,"Manila City, National Capital Region",Republic of the Philippines
82,77.403878,32.0685025,Bhavana Bhandage,852562457365184514,2020-02-21 06:25:49,"Pune, India",city,"Kullu and Manali, India",India
24,-79.27256949999999,43.629311,Trystan Nault,852562467565834240,2020-05-24 12:20:32,"London, Ontario",city,"Toronto, Ontario",Canada
31080,-118.34613799999998,33.914068,Giovanni Reynaga,852562577288605697,2020-02-27 18:40:21,"Bell, CA",city,"Hawthorne, CA",United States
222,106.8161784,-6.6207398,kang nyoo,85256295,2020-02-23 14:43:33,"Bogor, Jawa Barat",city,"Bogor Selatan, Indonesia",Indonesia
193,100.6798465,13.999492499999999,    ,85256309,2020-02-20 04:04:06, Nasa ,city,"Bueng Yitho, Thailand",Thailand
222,115.23380800000001,-8.633732,I G N Krisma B.,85256317,2020-05-30 05:47:52,Crusty Crab,poi,Maduratna Barbershop,Indonesia
21,-43.955246,-19.850742,Leandro Brum,852563266933018626,2020-02-20 17:24:59,"Belo Horizonte, Brasil",city,"Belo Horizonte, Brasil",Brasil
85,18.187663,40.4138865,Paola,852563332364201984,2020-03-15 13:19:55,"Lecce, Puglia",city,"Lecce, Puglia",Italia
222,106.834852,-6.2213485,bian.,852563436,2020-02-19 12:17:39,,city,"Setia Budi, Indonesia",Indonesia
205,-1.4707785,52.91553,Paul Burrows FCCT,852563642352644096,2020-02-14 05:13:31,"Derby, England",city,"Derby, England",United Kingdom
88,138.8807375,37.662732,,852563792,2020-05-23 06:19:51,,city, ,
88,139.782273,35.663443,,852563919214333952,2020-03-11 14:57:41,,poi,IKI OYSTER BAR,
205,-0.159403,51.5424365,Ravi Barod,852564290,2020-02-16 12:29:58,"London, England",city,"Camden Town, London",United Kingdom
19820,-83.099288,42.3527865,Ravi Barod,852564290,2020-04-22 05:18:42,"London, England",city,"Detroit, MI",United States
205,-0.159403,51.5424365,Ravi Barod,852564290,2020-04-28 21:14:53,"London, England",city,"Camden Town, London",United Kingdom
91,34.745484499999996,-0.10169199999999999,John Jagero,852564355652534272,2020-06-06 13:38:28,"Kisumu, Kenya",city,"Kisumu, Kenya",Kenya
85,8.83013,45.8147499,Comunit  QUEENiana,852564439,2020-06-02 17:49:53,#ExtendedVersion ,city,"Varese, Lombardia",Italia
189,20.5759385,63.827709,Possum,852564505481674756,2020-02-14 21:36:15,Kekistan,city,"Ume, Sverige",Sweden
193,100.75115204,13.697026900000001,Prasetyo Widodo,85256456,2020-03-09 06:11:53,Gresik,city,"Nong Prue, Thailand",Thailand
222,112.60233402,-7.1668164,Prasetyo Widodo,85256456,2020-03-11 12:54:31,Gresik,city,"Kebomas, Indonesia",Indonesia
21,-48.667588,-27.7689385,Celso Martins ,852564747602063360,2020-02-14 22:28:20,"Santa Catarina, Brasil",city,"Palhoa, Brasil",Brasil
16980,-87.732013,41.8335845,Andrew Black,852564763263590400,2020-03-07 19:05:16,"Near East Side, Indianapolis",city,"Chicago, IL",United States
31080,-118.383678,34.081446,joy-L,85256480,2020-03-01 05:41:37,"Los Angeles, CA",poi,Catch LA,United States
205,-2.3495665,53.4753035,SalfordOriginal,852565183226630144,2020-02-23 05:42:58,"Salford, England",city,"Salford, England",United Kingdom
21340,-106.4174305,31.793368,ygutz13,852565262494830592,2020-02-14 16:56:56,"El Paso, TX",city,"El Paso, TX",United States
151,5.187079,7.255458999999999,Dami,852565578409795585,2020-05-06 07:59:01,"Lagos, Nigeria",city,"Akure, Nigeria",Nigeria
205,-0.2631405,51.5651955,Haashim,852565740016345089,2020-02-17 00:45:26,London,city,"Brent, London",United Kingdom
31080,-118.329241,34.097176,Trevor,852565869641289728,2020-02-27 19:42:48,"Los Angeles, CA",poi,Le Jardin,United States
15940,-81.1124265,40.9176595,Trevor,852565869641289728,2020-04-25 05:40:02,"Los Angeles, CA",city,"Alliance, OH",United States
49660,-81.0198245,40.914318,Trevor,852565869641289728,2020-04-29 10:42:58,"Los Angeles, CA",city,"Sebring, OH",United States
15940,-81.17392099999999,40.88082350000001,Trevor,852565869641289728,2020-05-01 23:19:37,"Los Angeles, CA",city,"Maximo, OH",United States
31080,-118.4119065,34.0207895,Trevor,852565869641289728,2020-05-22 05:59:17,"Los Angeles, CA",city,"Los Angeles, CA",United States
49660,-81.0198245,40.914318,Trevor,852565869641289728,2020-05-30 14:01:38,"Los Angeles, CA",city,"Sebring, OH",United States
21,-53.95861800000001,-22.711707999999998,CICERA GRAZIELLE ,852565911559172096,2020-04-03 03:54:54,Jate MS,city,"Jate, Brasil",Brasil
85,9.19466001,45.46051109,Sandra Sesek Brajko,852566011,2020-02-14 08:26:51,,city,"Milan, Lombardy",Italy
35620,-73.8311875,40.6708795,nafees ahmad,852566037056901120,2020-03-28 16:04:22,"Queens, NY",city,"Queens, NY",United States
119,-99.13030985,19.48969483,Ernesto Hernndez ,85256605,2020-03-05 21:35:33,Ecatepec,city,"Gustavo A. Madero, Distrito Federal",Mxico
82,80.91415500000001,25.217892000000003,Ramnaresh Agrahari,852566099644297216,2020-04-30 05:58:38,"Chitrakoot Dham, India",city,"Chitrakoot Dham, India",India
24,-114.087851,51.027664,M A T T H E W,852566179331710976,2020-02-24 10:10:26,,city,"Calgary, Alberta",Canada
161,67.19987900000001,24.922601999999998, @Shazia Khalil,852566194255052800,2020-05-05 00:03:53,Pakistan,city,"Malir Cantonment, Pakistan",Pakistan
19100,-97.1031385,33.030083000000005,Heather Geider,852566297732952065,2020-03-16 23:15:57,"Dallas, TX",city,"Flower Mound, TX",United States
171,121.03498200000001,14.296812,marqu,852566398299537409,2020-03-09 12:12:12,san junipero,poi,San Lazaro Leisure Park,Republic of the Philippines
171,121.1242275,14.606717499999998,Z ,852566624229933056,2020-04-10 09:50:08,,city,"Cainta, Calabarzon",Republic of the Philippines
205,0.518546,51.364338000000004,Gonzolecture,85256730,2020-02-29 18:56:43,Gonzo land  ,city,"Rochester, South East",United Kingdom
85,7.6777,45.0702,Antonella La Porta,852567480790896640,2020-03-28 21:07:04,,city,"Torino, Piemonte",Italia
8,-66.8593345,-29.424003999999996,Tanquia Esteban ngel,852567552811249665,2020-06-10 01:50:47,,city,"La Rioja, Argentina",Argentina
33100,-80.369153,25.8256435,Atul Agrawal,852567619710275584,2020-02-23 00:00:47,,city,"Doral, FL",United States
82,77.4233395,28.773568,Atul Agrawal,852567619710275584,2020-03-21 18:57:21,,city,"Ghaziabad, India",India
120,102.218441,5.5521985, ,852568159,2020-02-14 06:17:10,"kota bharu , kelantan ",city,"Batu Mengkebang, Kelantan",Malaysia
82,81.8644645,21.2814035,nikhil yadav,852568313553199105,2020-03-19 16:21:06,,city,"Raipur, India",India
222,112.58055324,-7.41073883,rveriadi,85256833,2020-04-19 06:35:54,"Sidoarjo, Indonesia",city,"Krian, Indonesia",Indonesia
16980,-87.732013,41.8335845,,852568339641769984,2020-02-16 21:57:49,"Chicago, IL",city,"Chicago, IL",United States
193,100.915477,13.283470000000001,JZ=,852568406746292225,2020-03-23 04:11:04,"Bangkok, Thailand",poi,Click Caf ( ),Thailand
51,-6.1743985000000015,53.257282999999994,TWOBEANS coffee bar,852568566,2020-03-29 16:00:11,Speciality Coffee Bar,city,"Dun Laoghaire-Rathdown, Ireland",Ireland
200,29.1205295,40.202796000000006,|EROK,852568778835714049,2020-04-27 19:16:11,"Bursa, Trkiye",city,"Bursa, Trkiye",Trkiye
9,145.0531355,-37.9725665,...SJ....,852568874,2020-02-16 01:54:37,"Melbourne, Australia",city,"Melbourne, Victoria",Australia
82,79.05957599999998,13.2547755,NaveenkumarVutukuri #Naveenkpd,852568897010184194,2020-04-15 09:01:32,,city,"Chittoor, India",India
82,72.28948249999998,22.9482755,Pradeep Kushwaha,85256901,2020-02-24 07:32:21,New Delhi,city,"Sanand, India",India
88,139.338433,35.65795,(),852569289227776000,2020-03-03 03:06:50,,poi, ,
12060,-84.38745,33.759816,Amariya,852569524964515840,2020-02-26 23:07:50,"LW$ - Atlanta, GA",poi,Hard Rock Cafe Atlanta,United States
205,-0.5645100000000001,51.76041,UCS RFC,852569737,2020-02-29 18:10:10,"West Hampstead, London",city,"Berkhamsted, England",United Kingdom
82,76.974691,28.368525,Prabhakar,852569998430158848,2020-02-17 05:29:12,"New Delhi, India",city,"Gurgaon, India",India
205,-0.44236099999999995,51.537061,Alireza,852570037064011780,2020-04-17 12:35:15,"London, England",city,"Hillingdon, London",United Kingdom
200,29.0052225,41.0213205,Suat Seyran,852570059780304896,2020-02-15 19:39:09,"stanbul, Trkiye",city,"stanbul, Trkiye",Trkiye
119,-99.239401,19.51576,Jorge Moraless,852570453055086592,2020-03-15 07:01:22,CDMX,poi,Somewhere Over The Rainbow,Mxico
21,-43.41291,-22.831595999999998,tiane,852570453575073792,2020-02-27 01:52:24,,poi,Morro da Jaqueira,Brasil
14460,-71.10165500000001,42.136508,Evaliz,852570662153670656,2020-06-04 22:39:34,"Boston, MA",poi,Daddy's Dairy,United States
71,9.1773475,48.7793015,Lars Vegas,852570714,2020-03-13 10:46:47,,city,"Stuttgart, Deutschland",Deutschland
91,36.863620000000004,-1.2748635,Wangari Mwangi,852571048138743809,2020-04-03 07:24:57,"Nairobi, Kenya",city,"Nairobi, Kenya",Kenya
205,-0.0929105,51.5144805,Ben Bailey,852571094,2020-02-28 18:12:10,London,city,"City of London, London",United Kingdom
21,-43.5243665,-22.696528,Bolsonas,852571421289177094,2020-02-21 18:11:17,"Rio de Janeiro, Brasil",city,"Nova Iguau, Brasil",Brasil
85,11.244817,43.7807085,,852571585,2020-02-22 20:41:22,"Barcelos, Portugal",city,"Florena, Toscana",Itlia
186,-3.5979675,37.180409000000004,Marta,852571649606070272,2020-02-29 10:00:01,"Crdoba, Andaluca,  Espaa",city,"Granada, Espaa",Espaa
82,72.57023199999999,23.013959,Jalak Shah,852571682,2020-02-15 19:19:15,"Bhavnagar, Gujarat,India.",city,"Ahmadabad City, India",India
200,35.29861122,37.05160022,ibrahim ENTRK,852571836,2020-02-14 05:18:26,ADAM | saloon,city,"Adana, Trkiye",Trkiye
26620,-86.611411,34.7060265,Megan Breitbach,852571885036593154,2020-03-16 01:54:24,"Alabama, USA",city,"Huntsville, AL",United States
82,77.08816800000001,28.621923,Nishu Nishant Yadav,852571905328599040,2020-04-09 11:35:22,"Budaun, India",poi,janak puri,India
88,137.20470311,34.82331131,,852571910600773632,2020-02-18 06:55:30,,city, ,
21,-43.119101,-22.616096,gepeto,852572007380246530,2020-04-13 21:48:05,"bxd, rj",city,"Mag, Brasil",Brasil
186,2.1412275000000003,41.392657,Marisela Sarmiento,852572302088830980,2020-06-03 17:17:47,"Chacao, Venezuela",city,"Barcelona, Espaa",Espaa
35620,-73.8494415,40.8503475,Martha Snchez,852572452156780545,2020-02-15 08:26:58,"Bronx, NY",city,"Bronx, NY",United States
42660,-122.3306025,47.614816999999995,Jovuani,852572486411497472,2020-05-13 23:32:07,"Seattle, WA",city,"Seattle, WA",United States
185,45.304352,2.037761,Abdifatah Aden Aw Abdi,852572730625064961,2020-03-29 17:32:10,Somalia,poi,The Village Restaurant,Somalia
205,-0.265658,52.5832685,Christopher,852572731023527937,2020-03-19 20:11:26,"England, United Kingdom",city,"Peterborough, England",United Kingdom
30,113.914404,22.536424,,852572880,2020-02-19 06:10:22,,poi,,People's Republic of China
38,-73.09641350000003,7.063666499999999,Alejo!,85257301,2020-02-16 17:03:02,Colombia,city,"Floridablanca, Colombia",Colombia
119,-86.8257,21.1635,Fernandans4543,852573256477360128,2020-02-23 05:20:39,,city,"Benito Jurez, Quintana Roo",Mxico
82,75.96818400000002,22.6714825,Sandeep Sahu,852573441471283201,2020-03-28 08:36:39,"Indore, India",city,"Indore, India",India
47900,-77.0367,38.8951,DC MUSIC SUMMIT,852573729418862592,2020-04-08 19:38:01,United States,city,"Washington, DC",United States
222,110.228132,-6.947242,Mochammad Kahfi,85257377,2020-03-13 02:35:29,somewhere solitude.,city,"Brangsong, Indonesia",Indonesia
119,-89.62361100000003,20.941035,TurismoSotaventoMex,852574091416567810,2020-04-06 17:16:10,"Mrida, Yucatn",city,"Mrida, Yucatn",Mxico
29820,-115.03833700000001,36.006256,Sergio Bernache,85257418,2020-02-19 03:36:40,"Henderson, NV",city,"Henderson, NV",United States
40140,-117.603783,34.0451585,Sergio Bernache,85257418,2020-02-20 05:13:36,"Henderson, NV",city,"Ontario, CA",United States
29820,-115.03833700000001,36.006256,Sergio Bernache,85257418,2020-02-25 03:52:19,"Henderson, NV",city,"Henderson, NV",United States
14460,-71.064882,42.355487,#NoFirstUse,852574310732627968,2020-02-29 18:06:24,,poi,Boston Common,United States
38,-75.594718,6.239561,COLAPSO,85257432,2020-05-20 04:20:24,Medelln- Colombia,poi,Estudio Retro,Colombia
35,9.742028999999999,4.092192,Camile Branli,852574549673750530,2020-06-11 07:45:30,"Littoral, Cameroon",poi,cole publique Bonamoussadi,Cameroon
205,-0.14054775,51.51460499,Eli ,85257471,2020-02-23 18:57:32,Austria,city,"London, England",United Kingdom
200,28.900419,41.026061999999996,Tue Birol,852575159387119617,2020-05-17 17:41:46,"Maslak, stanbul",poi,Nef nistanbul,Trkiye
24,-73.5744,45.5038,Rafi Mohammad Azad,85257533,2020-05-25 20:17:14,"Montral, Qubec",city,"Montral, Qubec",Canada
35620,-73.9487755,40.655138,Paid Leave Co,852575382985474049,2020-04-02 14:32:58,"Brooklyn, NY",city,"Brooklyn, NY",United States
119,-87.05410549999998,21.402667,Vive Puerto Morelos,852575457325326336,2020-04-16 17:03:35,Puerto Morelos,city,"Isla Mujeres, Quintana Roo",Mxico
21,-49.109626500000005,-26.872810499999996,Carioca,852575899530735616,2020-03-17 20:34:19,"salto do norte, Blumenau",city,"Blumenau, Brasil",Brasil
88,139.734723,35.61306000000001,,852575923,2020-06-06 01:38:14,,city, ,
151,3.297709,6.579936,Mrs ikilima jibril,852576001326493696,2020-05-22 03:03:56,"Lagos, Nigeria",poi,Airforce Base Shasha,Nigeria
200,29.0052225,41.0213205,Adem ztrk,852576234,2020-02-19 17:11:56,MacFit Personal Coach,city,"stanbul, Trkiye",Trkiye
13820,-86.77961099999997,33.2980275,Fran Keller,852577174271950848,2020-02-28 14:55:33,,city,"Pelham, AL",United States
21,-39.7643545,-16.986425500000006,Talita Sena,852577614250291201,2020-03-01 10:40:44,"Itamaraju, Brasil",city,"Itamaraju, Brasil",Brasil
21,-41.941329,-22.470358500000003,Geb ,852577828973547521,2020-02-25 21:18:10,Tailndia ,city,"Rio das Ostras, Brasil",Brasil
189,17.980058999999994,59.333671,Huz_Dillinger,852577881230381060,2020-02-23 23:22:07,,city,"Stockholm, Sverige",Sverige
171,120.98784093,14.56184735,,852577904,2020-02-27 11:50:50,"Indang, Cavite",city,"Manila City, National Capital Region",Republic of the Philippines
242,121.5647905,25.03373019,,852577904,2020-06-06 19:15:12,"Indang, Cavite",city,"Taipei City, Taiwan",Taiwan
21,-43.441578,-22.911421500000003,Cela ,852578481787600896,2020-02-16 23:35:44,,city,"Rio de Janeiro, Brasil",Brasil
222,110.581181,-7.3431095000000015,MATCHAA,852578499944525824,2020-03-07 00:38:01,"Salatiga, Jawa Tengah",city,"Suruh, Indonesia",Indonesia
222,106.594932,-6.187284,BUTEK,852578577044217857,2020-04-30 19:42:08,Tangerang ,city,"Jati Uwung, Indonesia",Indonesia
21,-43.296872,-22.644558,Cris,852578594287235077,2020-04-09 01:53:32,"Duque de Caxias, Brasil",city,"Duque de Caxias, Brasil",Brasil
21,-43.441578,-22.911421500000003,rc.  ,852578741305974784,2020-02-14 01:13:58,"Paris, France",city,"Rio de Janeiro, Brasil",Brasil
21,-43.441578,-22.911421500000003,Felipe de Santana,852578875175469056,2020-03-30 13:23:24,"Rio de Janeiro, Brasil",city,"Rio de Janeiro, Brasil",Brasil
12060,-84.2726873,34.08911292,LaShonda,852578923154219009,2020-02-15 02:30:29,"Atlanta, GA",city,"Milton, GA",United States
119,-99.1332,19.4326,Urbana Radio,852578956679270402,2020-05-30 19:07:28,Ciudad de Mxico,city,"Cuauhtmoc, Distrito Federal",Mxico
85,11.086905499999999,43.389426,Beatrice Biagiotti,852579139,2020-02-15 15:44:25,"Valdelsa, Toscana, Italia",city,"Colle di Val d'Elsa, Toscana",Italia
186,-3.035598,36.781535999999996,Mohamed Ait Hmid,852579146,2020-05-15 22:14:07,Almera ,city,"Adra, Espaa",Espaa
82,75.1520915,33.8651245,SM,85257933,2020-04-29 05:53:11,srinagar,city,"Anantnag, Jammu And Kashmir",
205,-1.8906405,52.493966500000006,Redcape,852579401468399616,2020-02-14 16:40:39,"Birmingham, England",city,"Birmingham, England",United Kingdom
200,28.968227000000002,41.03754, m e r,852579440370569217,2020-05-21 20:01:23,Baak ,city,"Mula, Trkiye",Trkiye
119,-99.16919,19.406659,cydonian erased,85257950,2020-03-14 06:04:07,Monterrey,poi,Auditorio BlackBerry,Mxico
41940,-121.88597,37.337777,"Angel Rios, Jr.",852579517478584320,2020-02-25 23:10:23,"San Jose, CA",poi,San Jose City Hall,United States
82,73.88438199999999,18.520764,Swamesh,852579707044286464,2020-02-19 02:49:32,"Mundhwa, Pune",city,"Pune, India",India
96,48.0860765,28.841995500000003, .,852579769287942144,2020-02-21 21:51:58,,city,",  ", 
91,36.741963,-1.292481,Walter Kennedy,852580147081338881,2020-04-17 16:42:19,"Riruta Satellite,Nairobi",poi,Riruta (Satellite),Kenya
82,85.843187,20.305195,Abhilash Mishra,852580268951175169,2020-03-03 16:44:33,Odisha ,poi,"Bhubaneswar,Orissa",India
120,116.1405425,5.9882775000000015,Dahlia Aznir,852580945274085376,2020-02-22 23:32:17,Kota kinabalu,city,"Kota Kinabalu, Sabah",Malaysia
35380,-90.253346,30.0093515,,852581190615879681,2020-03-08 02:30:37,United States,city,"Kenner, LA",United States
91,36.863620000000004,-1.2748635,Christina Chanya Lenjou,852581443,2020-03-13 20:41:21,"Nairobi, Kenya",city,"Nairobi, Kenya",Kenya
161,74.333759,31.512411,Shezz Khan,852581458912972800,2020-03-29 07:18:12,"Sharjah, United Arab Emirates",poi,Gaddafi Stadium,Pakistan
200,30.680889,36.89007,lgnanne,852581492832296960,2020-03-31 15:41:16,,city,"Antalya, Trkiye",Trkiye
14460,-71.09440740000001,42.38004352,Zach Seals,852581594674208768,2020-02-15 20:46:54,"Baltimore, MD",city,"Somerville, MA",United States
31080,-118.23579,34.042789,Zach Seals,852581594674208768,2020-04-14 17:27:10,"Baltimore, MD",city,"Los Angeles, CA",United States
14460,-71.0565,42.3577,Zach Seals,852581594674208768,2020-04-17 19:38:15,"Baltimore, MD",city,"Boston, MA",United States
51,-6.28153,53.33096999999999,AmalWomenAssociation,852581652001943554,2020-05-07 23:10:54,"Dublin City, Ireland",city,"Dublin City, Ireland",Ireland
88,139.60604650000002,35.423801, ,852581776392208384,2020-02-25 05:00:08,"Yokohama-shi Minami, Kanagawa",city,"Yokohama-shi Minami, Kanagawa",Japan
242,121.380114,23.734184,,852581846,2020-03-07 13:41:55,,city,"Hualien County, Taiwan",Taiwan
19380,-84.04755300000001,39.727936,Sharon Smith,852581897708478464,2020-02-18 13:36:38,"Xenia, OH",city,"Beavercreek, OH",United States
17140,-84.1067685,39.522059000000006,Sharon Smith,852581897708478464,2020-03-05 01:18:45,"Xenia, OH",city,"Waynesville, OH",United States
19380,-84.15352899999998,39.695477000000004,Sharon Smith,852581897708478464,2020-03-13 13:58:20,"Xenia, OH",city,"Kettering, OH",United States
17140,-84.1959935,39.361606,Sharon Smith,852581897708478464,2020-04-16 19:47:52,"Xenia, OH",city,"South Lebanon, OH",United States
19380,-84.25613899999998,39.629944,Sharon Smith,852581897708478464,2020-05-06 15:31:51,"Xenia, OH",city,"Miamisburg, OH",United States
33100,-80.17576349999999,25.879932500000002,Kara,85258203,2020-03-03 18:49:40,"Miami, FL",city,"Biscayne Park, FL",United States
171,120.96950149999999,14.430456499999998,Nuez,852582173106331648,2020-04-30 16:45:05,,city,"Bacoor, Calabarzon",Republic of the Philippines
178,28.184066499999997,-25.752605499999998,Boitumelo Namane,852582257848193028,2020-02-19 09:14:06,,city,"Pretoria, South Africa",South Africa
175,46.685077,24.7219435,Mariam,852582551508176896,2020-05-24 02:28:49,,city,",   ",  
21,-48.45979749999999,-1.2729295,Automao  com ns!,852582556910444545,2020-02-29 21:13:00,"Belm, Brasil",city,"Belm, Brasil",Brasil
22,23.290026,42.704792,..,85258261,2020-03-08 00:39:34,Sofia,poi,  (Arena Cinema),Bulgaria
19740,-104.98360001,39.7391,Amy Doughty,852582722258309120,2020-04-28 16:05:06,"Denver, CO",city,"Denver, CO",United States
21,-60.644195,3.0169745,Herikem Silva,852583051179819009,2020-05-04 19:15:43,"Roraima, Brasil",city,"Boa Vista, Brasil",Brasil
222,112.643875,-8.0899045,Editya Apriliani,85258334,2020-02-20 23:14:08,INDONESIA-Malang,city,"Bululawang, Indonesia",Indonesia
82,79.445548,18.875899,Madhu Mogili,852583522128846848,2020-06-11 06:07:01,Mancherial ,poi,Manchiryal,India
171,120.9667405,14.751303,,852583645315424256,2020-02-14 06:10:39,althea kish ,city,"Meycauayan, Central Luzon",Republic of the Philippines
21,-43.441578,-22.911421500000003,larissa.,852583685782204416,2020-02-14 01:17:31,Paris,city,"Rio de Janeiro, Brasil",Brasil
162,21.155823,51.4148745,Jacek Wieczorek,852583842,2020-03-10 22:07:00,"Radom, Polska",city,"Radom, Polska",Polska
175,39.2541285,21.5857105,hanan omar,852583880,2020-04-12 18:18:40,"Montana, USA",city,"Jeddah, Kingdom of Saudi Arabia",Kingdom of Saudi Arabia
21,-43.803105,-22.879409,Ozana psicloga,852584125219450880,2020-02-21 16:13:40,Itagua ,city,"Itagua, Brasil",Brasil
200,26.625246,40.8567225,Yusuf ,852584185684537345,2020-02-14 17:50:14,"Ankara, Trkiye",city,"Kean, Trkiye",Trkiye
88,139.65954499999998,35.572207500000005,,852584386868334592,2020-02-14 13:11:45,,city,  ,
65,3.1126915,45.786915,Victor Mallet,852584741987602433,2020-02-24 06:16:14,Clermont-f /Nogent sur Marne,city,"Clermont-Ferrand, France",France
41620,-111.88194399999999,40.534585,JDCHSambassadors,852584788812644352,2020-02-25 05:25:08,Juan Diego Catholic HS,poi,Juan Diego Catholic High School,United States
186,1.9810185,41.293839500000004,Dra Rosa Casafont,852585121555283969,2020-02-14 16:47:05,,city,"Gav, Espaa",Espaa
82,74.736304,34.177133999999995,Irfan Wani,852585227310575617,2020-02-24 15:51:06,Jammu And Kashmir,city,"Baramula, Jammu And Kashmir",
45300,-82.37272800000001,28.0424895,Kelly Turinsky,852585249578135552,2020-02-14 21:27:51,"Tampa, FL",city,"Temple Terrace, FL",United States
47900,-77.24600050000002,38.8775845,Silence L. Dogood!,852585298458497024,2020-04-29 18:44:16,"Washington, DC",city,"Merrifield, VA",United States
161,67.0421945,24.9050755,Dr. Raj Wadhwani,852586238,2020-02-26 06:32:09,"Karachi, Pakistan",city,"Karachi, Pakistan",Pakistan
193,100.563008,13.843001,TRAM,852586565595418624,2020-02-14 11:01:51,"Bangkok, Thailand",city,"Lat Yao, Thailand",Thailand
49340,-71.76174350000001,42.189619500000006,Evan Griffith,852586865886679041,2020-02-16 12:19:10,"North Grafton, MA",city,"Millbury, MA",United States
82,72.87360100000001,19.109135000000002,Suresh Lalwani,852586974,2020-03-24 08:44:39,,poi,Leela Palace,India
85,9.1897,45.4643,ZaccaOfficial,852587126168399872,2020-04-16 19:44:13,"Lomazzo, Lombardia",city,"Milano, Lombardia",Italia
24,-122.32108000000001,49.13296,Jennifer Millier,852587199186915328,2020-02-17 22:57:37,"Mission, British Columbia",city,"Mission, British Columbia",Canada
200,34.859926,36.926632,Yusuf zen,852587963867377664,2020-03-29 01:59:05,Mersin tarsus cigerci  yusuf  ,poi,Cierci Yusuf,Trkiye
45300,-82.451921,27.942871000000004,Chadd Simon,852588143131996161,2020-02-15 22:33:16,,poi,Amalie Arena,United States
82,77.095086,28.638489500000002,Neeraj jha,852588180318584832,2020-02-24 06:39:13,"New Delhi, India",city,"New Delhi, India",India
82,71.666523,22.170073000000002,Dr.Hitesh Kukadiya,852588485504634881,2020-03-02 16:54:20,"Botad, India",city,"Botad, India",India
160,-77.09047199999999,-11.965705,Willy Valera Vargas,852588521017794560,2020-04-30 05:35:08,"Los Olivos, Per",poi,Vipol Naranjal,Peru
186,-3.6058985,40.581855,Alexiito ,852588849192632320,2020-02-15 16:01:57,"Madrid, Spain",city,"San Sebastin de los Reyes, Espaa",Espaa
16980,-88.1613215,41.748496,Armando Varela III,852588948115161088,2020-02-28 13:00:10,"Tijuana, Baja California",city,"Naperville, IL",United States
8,-64.1980255,-31.4154565,A  ,852588975793606656,2020-02-14 14:36:38,"Crdoba, Argentina",city,"Crdoba, Argentina",Argentina
200,36.9276755,37.5606085,Ibrahim Ercan,852589099357790209,2020-05-09 14:42:46,,city,"Kahramanmara, Trkiye",Turkey
200,29.00700385,41.04412761,Eyllll,852589151690141697,2020-06-04 22:27:39,,city,"stanbul, Trkiye",Trkiye
35620,-73.672072,40.6748365,Patrick Higgins,852589206429986820,2020-04-12 20:57:16,"Allentown, PA",city,"Malverne, NY",United States
34940,-81.791977,26.152407500000002,G. Patrick O'Brien,852589489520345088,2020-04-05 00:33:16,"Naples, FL",city,"Naples, FL",United States
49620,-76.797775,39.969547,Ms. Foery,852589582273175552,2020-03-06 22:17:53,"York, PA",poi,Trimmer Elementary School,United States
24,-79.616073,43.555244,Ms. Ardiente,852589708945346561,2020-02-17 16:28:29,"Mississauga, Ontario",city,"Mississauga, Ontario",Canada
222,110.3451535,-7.736615,Agus Raharsanto,85258973,2020-05-16 17:07:18,Cebongan Rock City,city,"Mlati, Indonesia",Indonesia
21,-44.3657935,-23.032432500000002,Chefona ,852589868261703680,2020-03-05 17:55:15,"Rio de Janeiro, Brasil",city,"Angra dos Reis, Brasil",Brasil
205,-2.3312305,53.4559985,Urmston Primary,852590180854894592,2020-02-21 16:26:03,"Urmston, Manchester",city,"Urmston, England",United Kingdom
171,121.0652415,14.504111499999999,MAGICALBerbLover,852590396706144256,2020-05-07 17:36:13,"Makati City, National Capital ",city,"Taguig City, National Capital Region",Republic of the Philippines
205,-1.5186514999999998,52.411913,ABENA,852590455162273792,2020-03-06 06:49:25,"Coventry, England",city,"Coventry, England",United Kingdom
178,28.060613,-26.058708,MOTLATSI Mphatse,852590568,2020-02-17 06:19:43,"Johannesburg, South Africa",city,"Sandton, South Africa",South Africa
19100,-96.69960400000001,33.1946515,Kaleigh Herring ,852590637698478080,2020-02-18 16:35:42,"Dallas, TX",city,"McKinney, TX",United States
82,75.7435045,26.783655000000003,ajaze ahmad siddique,852590702,2020-03-25 13:55:20,"Jaipur, India",city,"Sanganer, India",India
82,75.2200215,19.348722,DR.NILESH MANTRI,85259077,2020-02-15 09:13:43,"Maharashtra, India",city,"Shevgaon, India",India
96,47.8971545,29.2559725,*,852591245067255808,2020-02-20 10:53:40,Kuwait,city,"   ,  ", 
16980,-87.732013,41.8335845,nana nsfw ,852591413346746369,2020-05-29 00:58:57,Mars,city,"Chicago, IL",United States
175,42.533355,18.303816,.,852591511908872192,2020-03-15 14:54:27,",   ",city,",   ",  
19100,-97.15735500000001,33.208131,Barstool UNT ,852591583400800257,2020-02-25 20:36:21,"Denton, TX",poi,Fouts Field,United States
33100,-80.2333285,25.7823535,Barstool UNT ,852591583400800257,2020-02-26 22:42:19,"Denton, TX",city,"Miami, FL",United States
35620,-73.975801,40.893343,realer!!!! last real bitch,852591826414567425,2020-03-02 20:24:32,United States Lark world ,city,"Englewood, NJ",United States
119,-99.655676,19.2843215,ENSUS MXICO,852591908769734657,2020-03-30 18:15:48,Toluca y alrededores,city,"Toluca, Mxico",Mxico
88,139.815545,35.715131,ex.,852592321,2020-02-26 19:01:06,,city, ,
186,2.0025235,41.3915815,FOR YOU,852592502163087362,2020-02-23 21:37:29,"Barcelona, Espaa",city,"Sant Vicen dels Horts, Espaa",Espaa
186,-3.9783565000000003,38.960989,Alfonso Mayoralas,852592674,2020-04-02 21:14:18,Daimiel,city,"Ciudad Real, Espaa",Espaa
21,-43.973894,-19.943388,~fl,852593816574066689,2020-05-10 05:45:44,Belol Horizonte,poi,Lava Jato do Juarez,Brasil
82,86.207111,22.807248,Gaurav Gunjan,852593886715367425,2020-03-27 20:15:06,"Jamshedpur , Jharkhand , India",poi,United Club,India
32820,-89.972143,35.104295,Cash G.O.A.T,85259413,2020-06-06 21:51:38,"Memphis, TN",city,"Memphis, TN",United States
120,101.8550325,2.820527,,852594410,2020-03-01 02:38:00,"Perak, Malaysia",city,"Setul, Negeri Sembilan",Malaysia
82,85.783926,25.862894,kumar vinay,852594827506188288,2020-04-08 05:42:46,Samastipur Bihar ,poi,Samastipur,India
73,23.298064,40.2379429,pauloskefa,852594840193949696,2020-05-30 10:03:41,,city,", ",
82,78.09189,9.868919,okey,85259502,2020-04-03 14:19:08,,city,"Madurai South, India",India
65,5.3879195000000015,43.536051,ahi ahou,852595239760035841,2020-03-13 14:18:50,"Marseille, France",city,"Aix-en-Provence, France",France
34980,-86.791549,36.200008000000004,Susan Moore ,852595245430833152,2020-03-17 11:51:01,"Nashville, TN",city,"Nashville, TN",United States
82,77.498726,28.545556,rajbahadur sharma,852595771446882305,2020-05-16 07:11:39,,city,"Noida, India",India
51,-9.1065045,53.343313,Sarah Harte,852595820,2020-03-12 19:43:02,Galway Ireland ,city,"Galway, Ireland",Ireland
200,27.006511,38.4079305,Ismal Afsar,852596091312844800,2020-04-17 10:22:26,"zmir, Trkiye",city,"zmir, Trkiye",Trkiye
28140,-94.80808499999999,38.886623,Brent von Behrens II,85259637,2020-04-03 00:14:08,"Olathe, Kansas",city,"Olathe, KS",United States
222,106.8439945,-6.3969215,Soto Mie Bogor Pak Kucai,852596569299759104,2020-02-15 10:05:13,suka bylat,city,"Sukmajaya, Indonesia",Indonesia
88,135.6006042,34.563097799999994,  ,852596738821050368,2020-03-09 10:02:37, ,city, ,
42020,-120.709,35.5538,Viviana,85259681,2020-04-21 01:29:25,"California, USA",city,"Templeton, CA",United States
82,78.3852855,17.3950375,Suryakant Navale,852596836653309954,2020-02-14 01:46:39,India,city,"Rajendra Nagar, India",India
69,-2.3428400000000003,7.349345,Onuapa ABS,852596903284027393,2020-03-14 16:34:57,Ghana,poi,University of Energy And Natural Resources,Ghana
200,36.2083995,36.834491,Rhan ksz,852597082548568064,2020-05-04 13:38:13,Hatay Drtyol,city,"Drtyol, Trkiye",Trkiye
21,-40.470364,-20.307374499999998,solitrio,852597223972098048,2020-02-17 23:59:58,027,city,"Cariacica, Brasil",Brasil
42660,-122.455344,47.2429605,green goddess ,852597509407068161,2020-03-18 02:15:15,"Tacoma, WA",city,"Tacoma, WA",United States
173,39.0332435,45.0536305,Vitaly Salov,852597618119241730,2020-03-05 21:38:51,,city,"Krasnodar, Russia",Russia
205,-0.2108945,51.611884499999995,Jonni,852597637,2020-03-15 10:45:22,"London, England",city,"Barnet, London",United Kingdom
31080,-118.2445,34.0564,MONO/POLY,85259767,2020-05-03 02:51:06,Worldwide,city,"Los Angeles, CA",United States
95,129.08997050000002,35.1749295, :) +,852597743516139520,2020-05-04 06:23:19,,city, ,
164,-8.8526825,38.4926565,Ribeiro ,852597852207501312,2020-04-02 23:20:53,"Setbal, Portugal",city,"Setbal, Portugal",Portugal
28420,-119.14341999999999,46.27492,Ayy ,85259811,2020-05-12 00:56:36,"Pasco, WA",city,"Pasco, WA",United States
175,47.457722,24.201688,abdullah.m.t,852598117,2020-05-06 18:51:34,,city,",   ",  
47900,-77.117345,38.848863,;,852598254105538565,2020-02-19 22:26:09,,poi,Babylon Futbol Cafe,United States
33100,-80.32799849999999,26.0278895,x,852598254105538565,2020-05-22 16:05:45,,city,"Pembroke Pines, FL",United States
200,27.9642845,40.339001,Bedirhan Dikici,852598364009115649,2020-03-27 16:05:55,,city,"Bandrma, Trkiye",Trkiye
41940,-121.5607,37.0017,Vince the Boss Baby,852598529566547968,2020-03-07 21:16:29,"Los Angeles, CA",city,"Gilroy, CA",United States
31080,-118.083,33.9069,Vince the Boss Baby,852598529566547968,2020-03-24 06:28:31,"Los Angeles, CA",city,"Norwalk, CA",United States
41940,-121.58497555,37.02218479,Vince the Boss Baby,852598529566547968,2020-03-31 20:37:07,"Los Angeles, CA",city,"Gilroy, CA",United States
31080,-118.167,33.8999,Vince the Boss Baby,852598529566547968,2020-04-07 20:30:41,"Los Angeles, CA",city,"Paramount, CA",United States
205,-0.12306800000000001,51.510383000000004,Esztk ,85259863,2020-02-21 23:42:50,"Budapest, Hungary",poi,Adelphi Theatre,United Kingdom
80,19.129828,47.4812305,Esztk ,85259863,2020-02-23 18:09:30,"Budapest, Hungary",city,"Budapest, Magyarorszg",Magyarorszg
29820,-115.025,36.0292,Katia Goodman Portillo,852598837474504704,2020-02-16 22:33:24,"Henderson, NV",city,"Henderson, NV",United States
171,121.12833405,15.30222225,christian esguerra,85259892,2020-02-22 12:47:07,,city,"General Tinio, Central Luzon",Republic of the Philippines
175,39.2541285,21.5857105,  ,852598954067980288,2020-02-26 11:12:01,",   ",city,",   ",  
88,139.796759,35.714702,kzm,8525992,2020-03-05 12:42:12,"Tokyo, Japan",poi, (),
222,106.83881799999999,-6.4719745,Regina Ramadhani,852599570,2020-02-15 01:46:02,,city,"Cibinong, Indonesia",Indonesia
11260,-149.7587945,61.235042500000006,Meg,852599684644216833,2020-06-01 18:06:39,,city,"Anchorage, AK",United States
-9999,-152.390306,57.803681000000005,Meg,852599684644216833,2020-06-05 01:44:06,,city,"Kodiak, AK",United States
24,-81.2487865,42.9488405,Shawzie,852600434795655168,2020-02-14 22:15:20,"Ontario, Canada",city,"London, Ontario",Canada
82,73.0655005,20.206391,Jitesh Hirani,852600624998998016,2020-05-14 10:35:35,"Dadra And Nagar Haveli, India",city,"Silvassa, India",India
65,4.25568,44.63524,Anke,852600684,2020-03-05 06:23:20,Strasbourg,city,"Jaujac, France",France
189,18.3333,59.4667,Mattias hman,852601711,2020-03-19 09:59:17,Sweden,city,"sterker, Sverige",Sverige
82,77.498726,28.545556,Suraj Satyaprakash,852601797491347456,2020-04-09 14:53:04,"Noida, India",city,"Noida, India",India
188,32.590746,15.6587375, ,852601848,2020-02-15 17:19:10,Qatar | Sudan ,city,Khartoum North,
82,77.4233395,28.773568,  ,85260242,2020-02-14 14:51:45,Delhi,city,"Ghaziabad, India",India
178,27.9574575,-26.0197195,Theo,852602560900976646,2020-03-03 05:50:15,Midrand.,city,"Randburg, South Africa",South Africa
31080,-117.802135,33.7337835,megzeppelinn,85260261,2020-02-14 12:27:12,los angeles,city,"Tustin, CA",United States
120,101.71764,2.725882, ,852602917,2020-04-10 14:46:03,Anfield,poi,MAS Hangar 5 AMU L3,Malaysia
200,29.924355,40.822383,bahar,852603314730668032,2020-04-16 17:34:01,,poi,Umuttepe,Trkiye
10900,-75.42161,40.62627,Mosh ,852603531169345536,2020-04-20 23:54:13,United States,city,"Allentown, PA",United States
31080,-117.7823605,33.689732,NHS Track and XC,852603611410452480,2020-02-28 02:26:17,,city,"Irvine, CA",United States
88,137.40308449999998,34.7543535,,852603638404964352,2020-03-29 06:50:22,,city, ,
21,-43.296872,-22.644558,hallison ,852603801911611394,2020-05-02 23:08:24,"Duque de Caxias, Brasil",city,"Duque de Caxias, Brasil",Brasil
222,110.66282549999998,-7.0629029999999995,hmmmm mungkin aku masa depanmu:),852603985361948672,2020-03-25 11:08:35,"Semarang, Jawa Tengah",city,"Gubug, Indonesia",Indonesia
171,121.170794,14.6879375,Mc Rolan,85260399,2020-02-18 14:22:28,"Dubai, United Arab Emirates",city,"San Mateo, Calabarzon",Republic of the Philippines
17460,-81.84886,41.470205,Mary Mellino,852604193269587969,2020-02-17 11:51:22,,city,"Rocky River, OH",United States
95,127.05576,37.4885575,,852604242586025984,2020-03-11 04:00:21,,city, ,
178,28.16271501,-26.3499442,hLaKsMatIc,852604514,2020-03-15 16:37:08,Katlehong,city,"Katlehong, South Africa",South Africa
193,100.552755,13.8145695,,852604708849975296,2020-02-14 17:38:56,,city,", ",
19100,-97.3028295,32.5209975,Coach Goodman,852604722183798785,2020-02-14 05:20:03,"Burleson, TX",city,"Burleson, TX",United States
31080,-117.85108899999999,33.842863,Arianna (R-E-AUNA),85260474,2020-04-17 01:38:55,"Anaheim hills, ca",city,"Anaheim, CA",United States
160,-76.89075,-12.040600999999999,Cinthia,852605168151613442,2020-06-03 03:34:13,"Lima, Peru",city,"Ate, Peru",Peru
82,72.57023199999999,23.013959,TOFIK VAKIL,852605383,2020-02-28 05:49:11,,city,"Ahmadabad City, India",India
82,81.8644645,21.2814035,amit shinde,85260568,2020-05-14 05:52:32,Raipur,city,"Raipur, India",India
2,0.141906,35.395182500000004,Jungkook Wife ,852605701075632129,2020-02-28 18:47:29,,city,"Mascara                                                                                             , Algeria",Algrie
21,-45.95881652,-22.91133726,Lis,852605927320670208,2020-03-26 22:14:09,"So Jos dos Campos, Brasil",city,"So Jos dos Campos, Brasil",Brasil
51,-6.247621499999999,53.3549025,Daniel Allentown,852605971,2020-02-14 23:18:45,Mullingar,city,"Dublin City, Ireland",Ireland
205,-0.216108,51.498387,Daniel Allentown,852605971,2020-03-01 01:08:30,Mullingar,city,"Hammersmith, London",United Kingdom
51,-6.247621499999999,53.3549025,Daniel Allentown,852605971,2020-03-05 19:52:32,Mullingar,city,"Dublin City, Ireland",Ireland
35840,-82.55784,27.52232,Andrew S. Tannus,852606002549673984,2020-05-23 16:16:26,"Sarasota, FL",city,"Palmetto, FL",United States
21,-38.49938481,-3.79394035,Ismael Z S Vieira,852606050587086848,2020-04-11 15:31:41,"Fortaleza, Brasil",city,"Fortaleza, Brasil",Brasil
21,-46.5955455,-23.682803,Andr Vitor,852606279168253959,2020-02-15 12:07:41,"So Paulo, Brasil",city,"So Paulo, Brasil",Brasil
186,-3.68433691,40.41672621,luca len,852606330,2020-04-03 11:05:24,Socullamos (Ciudad Real),city,"Madrid, Espaa",Espaa
31080,-118.4119065,34.0207895,amy,852606734371766273,2020-03-11 03:29:35,"San Fernando, CA",city,"Los Angeles, CA",United States
35620,-73.9487755,40.655138,Kestrel Reopelle MD,852606737190408194,2020-03-09 03:46:34,"New York, NY",city,"Brooklyn, NY",United States
9,145.0531355,-37.9725665,Neil Phillips,85260691,2020-02-23 09:18:24,"Box Hill, Melbourne",city,"Melbourne, Victoria",Australia
151,3.3180660000000004,6.590611,CHRISCORDITE ORUNWA,852606916656345088,2020-04-28 11:50:04,Nigeria,city,"Ikeja, Nigeria",Nigeria
119,-96.1333,19.2,:::TeRRy:::,852606997,2020-04-23 01:03:44,"Veracruz, Ver.",city,"Veracruz, Veracruz de Ignacio de la Llave",Mxico
178,27.7905325,-26.159502,Basi,852607274556305408,2020-04-03 14:43:01,South Africa,city,"Kagiso, South Africa",South Africa
200,29.0052225,41.0213205,Osman Paksoy,852607448263401473,2020-02-17 14:43:56,"stanbul, Trkiye",city,"stanbul, Trkiye",Trkiye
186,-0.704231,37.994705,julia ,852608640423006211,2020-05-01 14:56:02,Santiago Bernabu ,city,"Torrevieja, Espaa",Espaa
200,33.782692499999996,41.383971,Seyfullah Gkolu,85260882,2020-03-14 18:40:35,Kastamonu - Cide,city,"Kastamonu, Trkiye",Trkiye
117,58.4641695,23.549159000000003, ,852608922833780736,2020-05-21 21:24:41,"Muscat, Oman",city,"Muscat, Oman",Oman
47900,-77.5311,38.7675855,GENEVOIX PROSPR KATSHOKO MAKANDA.,852609114689728513,2020-05-05 20:12:24,Etats-Unis,city,"Bull Run, VA",Etats-Unis
19100,-97.10526999999999,32.87567,Jose Solis,852609396819546113,2020-04-09 14:31:24,"Euless, TX",poi,First Watch - Glade Road,United States
27140,-90.111231,32.280999,merria,852609418063642624,2020-02-15 01:53:13,With Micah ,city,"Pearl, MS",United States
32820,-89.8494555,34.9563885,that splaa ,852609418063642624,2020-05-25 02:59:46,With Micah ,city,"Olive Branch, MS",United States
211,-66.85642271,10.47733864,J E T T ,85260988,2020-02-27 22:16:50,"Barquisimeto, Lara",city,"Nuestra Seora del Rosario de Baruta, Venezuela",Venezuela
21,-34.93103,-8.04261,equipe tornado,852610275962486784,2020-03-14 10:26:17,,city,"Recife, Brasil",Brasil
88,137.93193405,35.741572399999995,awake of Bolts,85261039,2020-02-15 07:20:02,"San Diego, CA",city, ,
38,-74.01633000000001,5.54398,Sebastian Marroquin,852610722966253569,2020-03-11 19:53:18,"Muzo, Colombia",poi,muzo,Colombia
222,106.9260075,-6.377322,Lucia Ivony W,852610766,2020-04-05 13:11:23,+62,city,"Gunung Putri, Indonesia",Indonesia
82,73.88438199999999,18.520764,Komi ,852610778494586880,2020-02-18 20:41:06,"Pune, India",city,"Pune, India",India
222,110.402635,-7.782842,tukang peta,852610969,2020-03-01 17:43:17,,poi,Royal Ambarrukmo Yogyakarta,Indonesia
186,-8.5100205,43.308244,Carlos Lema,852611059,2020-02-14 21:53:51,"Arteixo, Galicia",city,"Arteixo, Espaa",Espaa
10660,-93.488199,43.892041,Ashley Storby,852611123966861316,2020-05-07 18:19:17,"Lake Mills, IA",poi,"New Richland, MN",United States
8,-64.1833,-31.4,,852611158448234497,2020-02-14 00:24:15,Crdoba Capital ,city,"Crdoba, Argentina",Argentina
164,-8.312043500000001,41.465552,,852611194007547904,2020-02-16 20:57:41,"Guimares, Portugal",city,"Guimares, Portugal",Portugal
175,39.826221999999994,21.422542,3.,852611196473704448,2020-02-26 03:13:53, .,poi,The Holy Mosque |  ,  
31080,-117.918989,33.810485,Ruqshana,852611670727720961,2020-05-09 01:32:49,"California, USA",poi,Disneyland Park,United States
222,110.371141,-7.762658999999999,gojekisme,85261189,2020-02-19 04:53:02,Sedayu,poi,Jembatan Teknik,Indonesia
21,-43.959822499999994,-19.918692,Anna,852611970696175617,2020-02-14 00:26:06,,city,"Belo Horizonte, Brasil",Brasil
88,139.87610800000002,35.691683000000005,@3/1416(^^),852612652173975552,2020-03-09 05:31:25,(^^),city, ,
82,75.8029095,23.229134,Navin Chandravanshi,852612720293810176,2020-02-20 19:53:55,"Pune, India",city,"Ujjain, India",India
178,27.875272,-26.2564215,Veronica Hlongwane,852613693565280256,2020-04-01 01:26:49,"Johannesburg, South Africa",city,"Soweto, South Africa",South Africa
205,-0.8421635000000001,51.274357,Steve Ward,852613776750858241,2020-02-14 00:00:48,"South East, England",city,"Fleet, England",United Kingdom
175,46.685077,24.7219435,Purple Heart only ,852614349852114945,2020-03-16 14:20:56,Riyadh,city,"Riyadh, Kingdom of Saudi Arabia",Kingdom of Saudi Arabia
46520,-157.799589,21.3199435,JALPAK Hawaii,852614655335776256,2020-05-12 06:32:56,"Honolulu, HI",city,"Honolulu, HI",United States
82,79.0327905,20.9882585,Dr.Shubham Sonone,852615249022697472,2020-04-02 17:18:39,"Nagpur, India",city,"Nagpur, India",India
8,-58.37879350000001,-34.832131000000004,Patricio Rivero,852615519597453314,2020-02-15 02:06:46,,city,"Almirante Brown, Argentina",Argentina
21,-43.9387,-19.9191,Micael Fabri,852615532520058882,2020-04-01 17:06:45,"Belo Horizonte, Brasil",city,"Belo Horizonte, Brasil",Brasil
186,-8.44183,42.72831,,852615717140791297,2020-02-24 22:00:58,"Pontevedra, Espaa",city,"A Estrada, Espaa",Espaa
164,-8.3771503,41.5547508,,852615717140791297,2020-02-27 22:04:33,"Pontevedra, Espaa",city,"Braga, Portugal",Portugal
186,-8.827591,41.9374345,,852615717140791297,2020-03-08 20:21:15,"Pontevedra, Espaa",city,"O Rosal, Espaa",Espaa
85,14.7333,36.9167,,852615717140791297,2020-03-18 18:28:24,"Pontevedra, Espaa",city,"Ragusa, Sicilia",Italia
186,-8.7323,42.2117,,852615717140791297,2020-03-22 18:38:22,"Pontevedra, Espaa",city,"Vigo, Espaa",Espaa
85,14.1614,37.5751,,852615717140791297,2020-04-08 21:07:37,"Pontevedra, Espaa",city,"Villarosa, Sicilia",Italia
186,-8.67856347,42.42171587,,852615717140791297,2020-04-22 20:44:20,"Pontevedra, Espaa",city,"Poio, Espaa",Espaa
85,15.55830158,38.19211674,,852615717140791297,2020-06-06 20:44:37,"Galicia, Espaa",city,"Mesina, Sicilia",Italia
