currentGEOID,lon,lat,name,author_Id,created_at,location,place_type,place_full_name,place_country
200,29.0052225,41.0213205,______,754657558636400641,2020-02-15 14:26:24,"stanbul, Trkiye",city,"stanbul, Trkiye",Trkiye
35620,-73.86074,41.163470000000004,Elextranjero,754657702945624064,2020-03-26 01:43:07,"New Rochelle, NY",city,"Ossining, NY",United States
82,77.095086,28.638489500000002,SAMRAT AARYA,754657739155107840,2020-04-12 20:30:19,,city,"New Delhi, India",India
222,106.735279,-6.291329,Torabikacappucino,754657741,2020-05-24 08:20:59,Indonesia,poi,Nuri Bintaro Residence,Indonesia
175,50.038021,26.488116499999997,MANAR SULAIS,754657820,2020-04-20 23:20:18,", ",city,"Sihat, Kingdom of Saudi Arabia",Kingdom of Saudi Arabia
186,-4.5980365,41.591547,Antonio Sevillano,754657881740443648,2020-05-07 08:05:30,"Tudela de Duero, Espaa",city,"Tudela de Duero, Espaa",Espaa
96,47.992792,29.2678,,754658064431734784,2020-02-15 14:31:02,,poi,360 Mall,Kuwait
175,47.5075165,27.830616999999997,,754658064431734784,2020-03-08 21:54:01,,city,"Al Suayra, Kingdom of Saudi Arabia",Kingdom of Saudi Arabia
14460,-71.0565,42.3577,Robert Nichols,75465827,2020-02-15 16:46:46,"Boston, MA",city,"Boston, MA",United States
12100,-74.4292,39.3686,Robert Nichols,75465827,2020-02-15 20:50:27,"Boston, MA",city,"Atlantic City, NJ",United States
14460,-71.0565,42.3577,Robert Nichols,75465827,2020-02-19 03:25:16,"Boston, MA",city,"Boston, MA",United States
33460,-93.2645,44.9774,Robert Nichols,75465827,2020-05-30 04:36:51,"Boston, MA",city,"Minneapolis, MN",United States
14460,-71.075,42.2531,Robert Nichols,75465827,2020-06-07 01:40:03,"Boston, MA",city,"Milton, MA",United States
31140,-85.7554,38.2525,Robert Nichols,75465827,2020-06-07 04:00:52,"Boston, MA",city,"Louisville, KY",United States
14460,-71.075,42.2531,Robert Nichols,75465827,2020-06-07 14:51:36,"Boston, MA",city,"Milton, MA",United States
88,139.768174,35.707702000000005,jasmine,754658456389296128,2020-02-15 13:33:36,DisneySea Arabian Coast,poi,,
82,72.87424399999999,19.174139999999998,Nilesh yadav,754658465663057920,2020-05-17 08:27:19,Mumbai India,city,"Mumbai, India",India
24,-52.829425,47.4826065,Geoff Pevlin,754658662107475968,2020-02-22 00:21:33,Newfoundland and Labrador,city,"St. John's, Newfoundland and Labrador",Canada
200,36.17429,36.222733000000005,Glay Horoz,754658687738929152,2020-02-14 15:40:40,,city,"Hatay, Trkiye",Trkiye
200,29.0052225,41.0213205,Nuretnylmz,754658737319776256,2020-03-22 11:34:52,,city,"stanbul, Trkiye",Trkiye
175,40.1755065,29.896484499999996,ALI Mohammad ALSHEBLI ,754658767522889728,2020-05-11 03:02:22,",   ",city,",   ",  
171,123.277577,9.295242,RUSSIAN MONARCH,754658806940962816,2020-05-27 23:57:36,Principality of Romanov,city,"Dumaguete City, Central Visayas",Republic of the Philippines
82,80.88440750000002,26.8251695,Parth Pandey,754658955196903424,2020-05-15 02:38:16,"New Delhi, India",city,"Lucknow, India",India
35620,-74.499876,40.543797999999995,Brian - SizeCon NJ Feb 2020,754659106615623684,2020-02-15 03:30:39,"Miami, Florida",poi,Radisson Hotel Piscataway-Somerset,United States
33100,-80.14320500000001,26.072584,Brian - SizeCon NJ Feb 2020,754659106615623684,2020-02-18 01:07:32,"Miami, Florida",poi,Fort Lauderdale-Hollywood International Airport (FLL),United States
82,72.87424399999999,19.174139999999998,Harshad Poojary,754659291618041856,2020-02-15 06:43:15,"Mumbai, India",city,"Mumbai, India",India
222,100.370244,-0.913068,Faizaty Haura,754659474913185793,2020-05-28 13:05:14,,city,"Padang Utara, Indonesia",Indonesia
191,8.1392375,47.557353000000006,ShopVersand,754659736809775104,2020-05-03 11:34:41,Schweiz,city,"Mettauertal, Schweiz",Schweiz
73,22.454928,38.8972635,Robin Zetterman,754659914,2020-03-06 13:12:37,"Stockholm, Sverige",city,"Lamia, Greece",Hellas
21,-40.303863,-20.139694,Passado e Futuro 28/02,754660255963971584,2020-02-23 13:17:46,nctg,city,"Serra, Brasil",Brasil
175,43.9595905,26.345051,Tawfeeqa Ahmad,754660413644673024,2020-02-29 12:18:15,  ,city,",   ",  
222,110.357983,-7.8015315,Puput,754660416,2020-02-16 09:53:00,Sidoarjo,city,"Ngampilan, Indonesia",Indonesia
88,127.68948,26.122187,,754660939392135169,2020-04-08 02:24:00,,city, ,
35620,-74.0064,40.7142,ANDERSON NOEL,75466107,2020-03-14 18:34:33,"New York, Ny",city,"Manhattan, NY",United States
88,135.3226995,35.492904,,754661367651504128,2020-04-20 19:09:16,(),city, ,
222,106.808194,-6.3944565,Aps,75466137,2020-03-13 15:30:40,"Bogor, Indonesia",city,"Pancoran Mas, Indonesia",Indonesia
178,28.184066499999997,-25.752605499999998,nonjabulo,754661488867041282,2020-03-25 00:55:46,,city,"Pretoria, South Africa",South Africa
41860,-122.410371,37.809831,Prithvi ,754661551,2020-05-16 23:16:04,,poi,Pier 39,United States
21,-49.261299,-16.642782500000003,Victor,754661631167176704,2020-02-16 12:03:00,"Goinia, Brasil",city,"Goinia, Brasil",Brasil
88,130.27427699999998,33.5983945,Yamaji_,754661744069390336,2020-02-25 05:43:14,,city,  ,
175,50.135174,26.429746999999995,Scorpion Saudi  ,754661744732213248,2020-03-18 07:48:03,"Dammam, Kingdom of Saudi Arabia",poi,Scorpion Window Film,Kingdom of Saudi Arabia
242,120.612349,22.973791000000002,Yang Po-Yen (Joe),754661769558106112,2020-03-03 08:02:13,"Kaohsiung City, Taiwan",city,", ",
200,29.0052225,41.0213205,bedri azman,754662548939665408,2020-02-16 15:41:39,Trkiye,city,"stanbul, Trkiye",Trkiye
82,72.87424399999999,19.174139999999998,vibhu vats,754663092093464576,2020-04-18 08:57:32,,city,"Mumbai, India",India
222,98.654411,3.590314,Eduardo purba,754663173920129024,2020-03-05 00:14:01,"Medan Johor, Indonesia",poi,Sultan Iskandar Muda domestic arrival,Indonesia
85,14.203288500000001,42.454778499999996,vandachia,754663290148687872,2020-03-05 16:08:11,,city,"Pescara, Abruzzo",Italia
186,-0.5094345,39.00148299999999,Evaristo Llorens,754663394,2020-03-10 22:55:27,Xativa,city,"Xtiva, Espaa",Espaa
32820,-89.92202900000002,35.1335205,Akshay Sharma,754664467015892992,2020-02-14 22:31:51,"Memphis, TN",city,"Memphis, TN",United States
36740,-81.511347,28.360864000000003,Akshay Sharma,754664467015892992,2020-02-20 02:49:17,"Memphis, TN",poi,Mikado Steak House,United States
32820,-89.92202900000002,35.1335205,Akshay Sharma,754664467015892992,2020-02-23 22:31:29,"Memphis, TN",city,"Memphis, TN",United States
12060,-84.2801945,34.07334400000001,Akshay Sharma (@),754664467015892992,2020-05-25 16:41:43,"Memphis, TN",city,"Alpharetta, GA",United States
32820,-89.92202900000002,35.1335205,Akshay Sharma (@),754664467015892992,2020-05-28 02:42:48,"Memphis, TN",city,"Memphis, TN",United States
35300,-72.81680250000001,41.4565815,Catherine Sneed,754664552374099968,2020-02-20 03:37:25,"Connecticut, USA",city,"Wallingford, CT",United States
37340,-80.6719535,28.069527500000003,Catherine Sneed,754664552374099968,2020-04-22 15:15:55,"Connecticut, USA",city,"West Melbourne, FL",United States
42340,-81.26872650000001,31.9999955,Catherine Sneed,754664552374099968,2020-05-02 11:12:09,"Melbourne, FL",city,"Henderson, GA",United States
37340,-80.6719535,28.069527500000003,Catherine Sneed,754664552374099968,2020-05-05 10:34:28,"Melbourne, FL",city,"West Melbourne, FL",United States
42340,-81.26872650000001,31.9999955,Catherine Sneed,754664552374099968,2020-05-15 17:18:58,"Melbourne, FL",city,"Henderson, GA",United States
37340,-80.6719535,28.069527500000003,Catherine Sneed,754664552374099968,2020-05-16 22:47:48,"Melbourne, FL",city,"West Melbourne, FL",United States
82,74.179487,20.459986999999998,vishal marathe Sakal,754664855500644352,2020-03-01 11:10:17,Meshi Deola Nashik,poi,"deola, nashik, maharashtra",India
37460,-85.8720485,30.215828,Niki Holder,754664972139966465,2020-05-22 17:54:15,"McDonough, GA",city,"Panama City Beach, FL",United States
119,-100.196134,25.6766035,Nahum LV,75466524,2020-02-19 21:29:06,Somewhere in Mexico,city,"Guadalupe, Nuevo Len",Mxico
120,101.770181,2.9490515,qen,754665410,2020-03-22 13:43:37,Syeiqa punya header,city,"Kajang, Selangor",Malaysia
193,101.3881225,14.5288775,,754665538630975489,2020-02-21 13:42:32,,city,", ",
119,-100.29692,25.615639,Alejandro Santoyo,75466572,2020-03-19 04:53:25,,poi,Cerro del Chupn,Mxico
9,145.0531355,-37.9725665,Tigs,754665848,2020-02-23 10:42:13,"Melbourne, Australia",city,"Melbourne, Victoria",Australia
200,29.0052225,41.0213205,Krat Sezgi,754666207,2020-03-21 06:56:23,Heybeliada stanbul,city,"stanbul, Trkiye",Trkiye
200,36.17429,36.222733000000005,MKA,754666334957473792,2020-03-07 19:01:48,,city,"Hatay, Trkiye",Trkiye
31080,-118.07231750000001,33.830642,Fran Koop Sinclair ,754666448,2020-05-01 16:36:50,,city,"Hawaiian Gardens, CA",United States
13620,-71.12491999999999,44.0539,K.M. Sutton,754666601891389441,2020-02-18 14:56:27,"New York, NY",city,"North Conway, NH",United States
38860,-70.249718,43.654924,K.M. Sutton,754666601891389441,2020-02-21 22:32:53,"New York, NY",city,"Portland, ME",United States
35620,-73.98360729,40.75356409,K.M. Sutton,754666601891389441,2020-03-02 13:24:56,"New York, NY",city,"Manhattan, NY",United States
38860,-70.38527778,43.51361111,K.M. Sutton,754666601891389441,2020-03-19 13:29:30,"New York, NY",city,"Old Orchard Beach, ME",United States
13620,-71.1281,44.0531,K.M. Sutton,754666601891389441,2020-03-29 13:01:20,"New York, NY",city,"North Conway, NH",United States
35620,-73.95185,40.7761,K.M. Sutton,754666601891389441,2020-04-04 14:38:04,"New York, NY",city,"Manhattan, NY",United States
47900,-77.0367,38.8951,K.M. Sutton,754666601891389441,2020-04-10 19:20:51,"New York, NY",city,"Washington, DC",United States
13620,-71.1281,44.0531,K.M. Sutton,754666601891389441,2020-04-12 16:41:47,"New York, NY",city,"North Conway, NH",United States
38860,-70.2167,43.5667,K.M. Sutton,754666601891389441,2020-04-14 16:44:46,"New York, NY",city,"Cape Elizabeth, ME",United States
35620,-73.96611111,40.7825,K.M. Sutton,754666601891389441,2020-04-17 16:36:49,"New York, NY",city,"Manhattan, NY",United States
38860,-70.38527778,43.51361111,K.M. Sutton,754666601891389441,2020-04-25 16:00:34,"New York, NY",city,"Old Orchard Beach, ME",United States
42340,-80.84407945,32.01845608,K.M. Sutton,754666601891389441,2020-04-27 13:00:51,"New York, NY",city,"Tybee Island, GA",United States
13620,-71.1281,44.0531,K.M. Sutton,754666601891389441,2020-04-30 16:03:45,"New York, NY",city,"North Conway, NH",United States
47900,-77.01308727,38.88807662,K.M. Sutton,754666601891389441,2020-05-06 13:10:06,"New York, NY",city,"Washington, DC",United States
13620,-71.1281,44.0531,K.M. Sutton,754666601891389441,2020-05-09 12:47:35,"New York, NY",city,"North Conway, NH",United States
12700,-70.1004,41.2815,K.M. Sutton,754666601891389441,2020-05-21 16:27:41,"New York, NY",city,"Nantucket, MA",United States
38860,-70.38527778,43.51361111,K.M. Sutton,754666601891389441,2020-05-24 22:17:49,"New York, NY",city,"Old Orchard Beach, ME",United States
35620,-73.972216,40.77274259,K.M. Sutton,754666601891389441,2020-05-30 17:59:28,"New York, NY",city,"Manhattan, NY",United States
41740,-117.22762942,32.72119954,K.M. Sutton,754666601891389441,2020-06-01 15:19:45,"New York, NY",city,"San Diego, CA",United States
35620,-73.972216,40.77274259,K.M. Sutton,754666601891389441,2020-06-09 12:53:51,"New York, NY",city,"Manhattan, NY",United States
33340,-88.264829,43.018481,Lisa Selode,754666776911163392,2020-02-22 03:37:54,"Waukesha, WI",poi,Waukesha North Field House,United States
82,76.9167,8.48333,"Sreekumar Sivaraman. MBA, MA",75466749,2020-02-23 12:23:21,Trivandrum,city,"Trivandrum, India",India
13820,-86.760091,33.385555,W2M,754667865601613824,2020-03-23 13:14:42,"Alabama, USA",city,"Hoover, AL",United States
82,74.022051,17.693156,visual,754668277067083776,2020-04-01 20:32:36,"Satara, India",poi,Satara,India
222,110.47807784,-7.36283905,atiecha jona,754668530,2020-02-14 02:10:12,semarang,city,"Argomulyo, Indonesia",Indonesia
21,-35.0235945,-8.109803,Tio Simpathia,754669112928927744,2020-05-27 14:00:58,"Jaboato dos Guararapes, Brasi",neighborhood,"Vista Alegre, Jaboato dos Guararapes",Brasil
82,72.67227600000002,23.215227,Apna Mahi Ayega,754669257502429184,2020-03-22 07:21:47,"Surat, India",city,"Gandhinagar, India",India
160,-75.6400145,-13.5508075,Karla Minerva,75466927,2020-04-13 17:12:00,Peru,city,"Huancano, Peru",Peru
41860,-122.2795215,37.875845500000004,Colton Solis,754669704,2020-02-16 03:51:53,"Berkeley, CA",city,"Berkeley, CA",United States
34900,-122.30626399999998,38.2970715,Colton Solis,754669704,2020-04-19 00:26:13,"San Francisco, CA",city,"Napa, CA",United States
120,103.838094,1.5254035,,754670059,2020-02-14 09:53:58,"Johore, Malaysia",city,"Plentong, Johor",Malaysia
175,39.6540485,24.462089000000002,...,754670130026676225,2020-03-09 06:26:25,  ,city," ,   ",  
175,46.707931,24.815721,  ,754670839,2020-03-01 05:55:26,,poi,     | Sharia & Law College,  
205,-1.2578,51.7519,Joanna Searle,754671121321058304,2020-02-21 11:03:09,"Islip, England",city,"Oxford, England",United Kingdom
12060,-84.28646850000001,33.8028105,Laurie Payne,7546712,2020-04-18 21:19:40,"Georgia, USA",city,"North Decatur, GA",United States
21,-51.12944,-29.695622999999998,Fernando Mller Jr,754671229974482944,2020-03-04 23:32:53,"Estncia Velha, Brasil",poi,Ogroburguer,Brasil
82,80.204751,13.129442,JesusJenetta@Sivaranjani,754671294910599168,2020-02-19 15:41:16,"Chennai, India",city,"Saidapet, India",India
82,77.593659,27.439072999999997,  ,754671320630226944,2020-04-18 12:38:34,,city,"Mathura, India",India
35840,-82.5145755,27.287760499999997,ryosuke,754671350,2020-02-23 23:12:07,,city,"Ridge Wood Heights, FL",United States
85,11.091269500000001,43.8826005,Prosperous Network,754671440637624320,2020-05-29 07:52:31,Italia,city,"Prato, Toscana",Italia
200,29.0052225,41.0213205,Kubilay Pamukcu,754671584531640320,2020-04-05 13:03:16,,city,"stanbul, Trkiye",Trkiye
82,72.87424399999999,19.174139999999998,Manthan K Mehta,754671632,2020-04-01 15:41:25,,city,"Mumbai, India",India
65,3.8742675,43.610396,Clapas'Cistes,754671737636290561,2020-04-25 18:30:51,"Altrad Stadium, Montpellier",city,"Montpellier, France",France
11,-59.644128,13.244852999999999,becca,754671981761626112,2020-03-03 15:39:44,Barbados | ,poi,Cobblers Cove Hotel Saint Peter (Barbados),Barbados
117,58.4641695,23.549159000000003,FaaZFazil,754672057972129792,2020-04-27 09:12:45,"Muscat, Oman",city,"Muscat, Oman",Oman
12060,-84.589732,33.436782,GB,754672429847412736,2020-03-29 12:31:13,Iceland,poi,Target,United States
222,107.054171,-6.3371,kiky,754672604,2020-02-26 14:35:40,Jln. R.Suprapto No.22 ,poi,Graha Asri Residence,Indonesia
82,77.095086,28.638489500000002,DR VP GARG M.Sc. Ph.D.,754672764850667520,2020-02-14 06:00:54,"Keshavpuram New Delhi, India",city,"New Delhi, India",India
175,46.654728000000006,24.793637,Yara,754672848875192320,2020-03-07 13:29:03,"Riyadh, Kingdom of Saudi Arabia",poi,One Square,Kingdom of Saudi Arabia
65,8.708829,41.932738,sandrine,754673059878010880,2020-04-14 12:39:52,"Ajaccio, France",city,"Ajaccio, France",France
222,106.910523,-6.1591025,,75467315,2020-02-28 03:00:39,"Jakarta Timur, DKI Jakarta",city,"Kelapa Gading, Indonesia",Indonesia
82,86.6877795,25.976369000000002,Angad kumar Anand,754673270922833920,2020-04-05 05:55:05,mumbai,city,"Ghailarh, India",India
82,71.774067,22.567284,Shaktisinh Chudasama,754673385796284417,2020-06-08 07:24:29,"Ahmadabad City, India",poi,Limbdi,India
186,-3.8913849999999996,40.524749, ,754673434156756993,2020-04-12 14:38:07,,city,"Las Rozas de Madrid, Espaa",Espaa
186,-0.515521,38.3489055,hasna,754674042125316096,2020-03-02 14:17:08,,city,"Alicante, Espagne",Espagne
26900,-86.1429225,39.7795625,Tony Brehob,75467420,2020-03-13 20:51:56,"scroll back, nothing here",city,"Indianapolis, IN",United States
40140,-117.177343,33.855876,t.vang,754674250728910848,2020-04-24 04:28:17,"Moreno Valley, CA",poi,Lake Perris,United States
35620,-74.066663,40.7180015,Angel Ramos,75467455,2020-02-14 01:47:20,The Garden State,city,"Jersey City, NJ",United States
65,5.4052739999999995,43.2943095,Delphine Fantoba,754674621992009729,2020-03-03 17:12:37,"Marseille, France",city,"Marseille, France",France
186,-8.1261385,42.65795350000001,Leeoo,754674638,2020-02-14 09:07:12,"Laln, Espaa",city,"Laln, Espaa",Espaa
151,8.470568,11.958346,Naseeb,754674648307171328,2020-02-14 23:17:05,Di hub kano state ,city,"Rijiyar Zaki, Nigeria",Nigeria
16300,-91.66562320000001,41.9778795,TMJ-IAR Constr Jobs,75467467,2020-02-15 14:02:17,Cedar Rapids,city,"Cedar Rapids, IA",United States
82,74.99091999999999,12.50233,Ifras Kadirur,754674698,2020-02-25 16:53:26,thalassery,city,"Kasaragod, India",India
200,27.006511,38.4079305,Gamze Demir,754674881904709632,2020-02-16 11:48:03,ar  - bursa - izmir,city,"zmir, Trkiye",Trkiye
24,-79.27256949999999,43.629311,Bianca O,754675062532431873,2020-02-14 03:23:42,"Toronto, Ontario",city,"Toronto, Ontario",Canada
19100,-97.079654,32.931834,Bianca O,754675062532431873,2020-03-06 20:17:11,"Toronto, Ontario",city,"Grapevine, TX",United States
24,-79.616073,43.555244,Bianca O,754675062532431873,2020-03-10 13:49:23,"Toronto, Ontario",city,"Mississauga, Ontario",Canada
21,-49.7132755,-26.089898,Andrade,754675464535412736,2020-06-02 23:54:28,"Rio Negro, Brasil",city,"Rio Negro, Brasil",Brasil
21,-37.100742,-11.0036455,Samuel Palmeira,754675494474448897,2020-04-14 22:04:48,"Sergipe, Brasil",city,"Aracaju, Brasil",Brasil
33,-70.5189175,-33.425400499999995,martingomez,754676683,2020-03-05 23:02:56,,city,"Las Condes, Chile",Chile
88,139.94984,35.44811,,754676748910927873,2020-04-29 13:12:42,,poi,,
24,-73.723025,45.5578305,7uncutBB,754676911750713344,2020-02-24 06:32:26,"Montral, Qubec",city,"Montral, Qubec",Canada
222,106.49319799999999,-6.268336,Nuriska Arisandi,754677074,2020-02-26 08:04:48,Tangerang.IND,city,"Tigaraksa, Indonesia",Indonesia
26620,-86.59005,34.728771,Huntsville Havoc,7546772,2020-03-07 21:56:39,"Huntsville, AL",poi,Von Braun Center,United States
33,-67.66666667,-55.08333333,Johanna Crdenas,754677271059898368,2020-04-11 19:37:20,"Puerto Williams, Chile",city,"Cabo de Hornos, Chile",Chile
22020,-96.8300925,46.8648825,artie,754677310561759232,2020-05-25 07:04:57,donkey kong island,city,"Fargo, ND",United States
33,-70.55934149999999,-33.593537999999995,Escort ChicasHot.cl,754677670844198913,2020-03-13 02:18:27,Chile,city,"Puente Alto, Chile",Chile
15380,-78.80957331,42.76841172,Woody's Ice Cream,754677825496547329,2020-02-17 15:30:39,"Hamburg, NY",city,"Hamburg, NY",United States
82,84.5175142,26.8102452,Chowkidar RAJAT,754677834,2020-03-22 11:32:42,Patna,city,"Bettiah, India",India
205,-0.05,51.4333,Josh Corbett,754677860682567680,2020-04-02 09:36:57,"Hastings, England",city,"Lewisham, London",United Kingdom
88,139.019183,35.243897,,754678152698355712,2020-03-18 11:31:11,,poi, (wakudani),
28,29.155323,-3.35227,Landry Davids,754679065441894400,2020-04-30 16:23:05,Rp. Dem. Du Congo,poi,uvira,Rpublique Dmocratique Du Congo
26900,-86.1429225,39.7795625,Andrea Neal,754679167598206982,2020-02-14 02:48:30,"Indianapolis, IN",city,"Indianapolis, IN",United States
49180,-80.244984,36.0871685,Zack Laws,754679224208912384,2020-02-27 01:04:57,"Winston-Salem, NC",city,"Winston-Salem, NC",United States
222,112.654754,-7.9986095000000015,Vinda Vind,75467975,2020-03-14 22:03:08,around you,city,"Kedungkandang, Indonesia",Indonesia
205,-0.216108,51.498387,Dan Male,754679787168403456,2020-02-22 09:26:09,"London, England",city,"Hammersmith, London",United Kingdom
65,6.081098000000001,45.0972535,Dan Male,754679787168403456,2020-03-05 07:32:59,"London, England",city,"Huez, France",France
205,-3.0468265,55.9389425,Dan Male,754679787168403456,2020-06-03 11:20:18,"London, England",city,"Musselburgh, Scotland",United Kingdom
38,-73.38497000000002,5.4904705,Mabel Avellaneda,754679933365022720,2020-03-24 18:19:49,"Tunja, Colombia",city,"Tunja, Colombia",Colombia
88,138.91716,36.499121,,754680006853300224,2020-02-21 12:24:13,,poi, ,
32860,-91.903835,44.8817265,Jack Schwartz,754680024,2020-03-25 14:17:03,"West Salem, WI",city,"Menomonie, WI",United States
33,-70.53669049999998,-33.4471385,Hansete,754680105277001728,2020-02-14 23:44:58,La Dehesa,city,"La Reina, Chile",Chile
222,112.726863,-7.2583779999999996,Syaiful Anwar,754680205382299648,2020-03-10 03:36:42,Warga Kota Surabaya,poi,Pengadilan Negeri Surabaya,Indonesia
82,84.396886,26.1309935,Vishal Kumar (Abhi),754680522757042176,2020-03-27 07:14:20,"New Delhi, India",city,"Siwan, India",India
171,120.9839865,14.5914565,Jenine Mercene,754680803687227392,2020-02-15 16:30:40,"Pinamalayan, Oriental Mindoro",city,"Manila City, National Capital Region",Republic of the Philippines
113,-3.878459,35.173528000000005,MOO,75468088,2020-02-14 00:42:49,"Ait Youssef Ou Ali, Royaume du",city,"Ait Youssef Ou Ali, Royaume du Maroc",Royaume du Maroc
12420,-97.754724,30.3233455,Council Member Alter,754681171439747072,2020-03-03 18:51:26,"Austin, TX",city,"Austin, TX",United States
203,39.206286,-6.800814,julius kasenene,754681261453676546,2020-03-01 12:35:00,"Dar es Salaam, Tanzania",poi,Ubungo Riverside,Tanzania
186,-4.4240309999999985,36.764878,Javi Gabarrn,754681428877709316,2020-02-20 20:49:51,"Mlaga, Espaa",city,"Mlaga, Espaa",Espaa
49,-78.489075,-0.10771700000000001,Lu,754681436746186752,2020-03-06 18:51:25,La Fortaleza,poi,"Estadio LIGA Deportiva Universitaria - ""Casa Blanca""",Ecuador
8,-58.351764,-34.682640500000005,Lu,754681436746186752,2020-03-07 05:16:53,La Fortaleza,city,"Avellaneda, Argentina",Argentina
31080,-118.4119065,34.0207895,Vonnie (88%),754681668,2020-03-20 16:02:10,Los Angeles,city,"Los Angeles, CA",United States
29820,-115.013557,36.275344,Vonnie (62%),754681668,2020-03-21 17:46:17,Los Angeles,poi,Las Vegas Motor Speedway,United States
31080,-118.4119065,34.0207895,Vonnie (48%),754681668,2020-03-25 16:38:34,Los Angeles,city,"Los Angeles, CA",United States
15100,-96.7847265,44.291864,MSUM XC/TF,754681701205352449,2020-02-15 00:10:29,"Moorhead, MN",city,"Brookings, SD",United States
22020,-96.75137600000001,46.866878,MSUM XC/TF,754681701205352449,2020-02-21 21:42:48,"Moorhead, MN",poi,Scheels Field @ Alex Nemzek Stadium,United States
82,79.1912125,23.900564499999998,IRFAN KHAN PATHARIA,754681716019695617,2020-02-27 13:28:35,pathariya ,city,"Patharia, India",India
34980,-86.791549,36.200008000000004,Mr. Bardot,754681788639932416,2020-06-01 15:49:40,"Nashville, TN",city,"Nashville, TN",United States
88,130.990115,33.885318,,754681819241381888,2020-03-24 23:36:42,,poi, ,
119,-96.2293965,19.183953,Adolfo Arce,754681956,2020-04-21 21:38:46,Mxico,city,"Veracruz, Veracruz de Ignacio de la Llave",Mxico
120,101.60992457,3.06924836,Anuar Azizi,754682911245291520,2020-02-15 14:31:10,"Kuala Lumpur, Malaysia",city,"Damansara, Selangor",Malaysia
119,-103.335882,20.676652,Raul Cevallos vargas,754682948859768832,2020-04-14 14:48:34,"Jalisco, Mxico",city,"Guadalajara, Jalisco",Mxico
40140,-117.21792,33.921924000000004,Boxy,754683014,2020-02-14 21:17:54,,city,"Moreno Valley, CA",United States
171,121.68450700000001,18.2708535,Nuts ,754683212283060224,2020-02-17 08:11:36,Republic of the Philippines,city,"Camalaniugan, Cagayan Valley",Republic of the Philippines
32540,-95.775292,34.92317850000001,Scott Smith ,754683355,2020-02-23 02:10:51,"McAlester, OK",city,"McAlester, OK",United States
19100,-96.7349005,33.06124250000001,Scott Smith ,754683355,2020-03-02 01:45:11,"McAlester, OK",city,"Plano, TX",United States
32540,-95.775292,34.92317850000001,Scott Smith ,754683355,2020-03-16 02:14:25,"McAlester, OK",city,"McAlester, OK",United States
21,-43.441578,-22.911421500000003,Alexandre Teixeira,75468387,2020-03-22 18:36:48,Quintal dos Teixeiras,city,"Rio de Janeiro, Brazil",Brazil
222,106.79190449999999,-6.1618445,Diana Hirdes,75468392,2020-03-14 12:20:09,,city,"Grogol Petamburan, Indonesia",Indonesia
193,101.690039,15.447348000000002,Warak_mee,754683944327520256,2020-03-02 16:33:47,,city,", ",
171,120.987307,14.551236,Sed Kit Man Es,754684098635935744,2020-02-15 17:30:47,"Quezon City, National Capital Region",poi,World Trade Center,Republic of the Philippines
88,140.771838,41.776284999999994,,754684099818729472,2020-05-01 01:47:59,,poi, ,
186,-4.78226,37.87875,Ana Flrez d Quione,754684130,2020-03-24 18:38:57,"Andaluca, Espaa",city,"Crdoba, Espaa",Espaa
211,-67.3263785,10.22719373,LuisOxigeno,75468422,2020-03-15 12:46:21,Torre de Ravenclaw,city,"La Victoria, Venezuela",Venezuela
38,-74.24367099999999,4.2622835,LuisOxigeno,75468422,2020-03-24 01:13:00,Torre de Ravenclaw,city,"Bogot, D.C., Colombia",Colombia
21,-46.225711,-23.9548165,.,754684235936653312,2020-03-02 18:11:10,"Guaruj, Brasil",city,"Guaruj, Brasil",Brasil
88,130.38794950000002,33.57973,,754684731908689922,2020-03-16 13:52:40,  ,city,  ,
120,101.618119,3.202814,harichandran,754684931217854465,2020-02-15 14:30:40,To fuck,poi,,Malaysia
8,-62.05573149999999,-38.8726535,Francisco,754684987660795904,2020-02-15 17:20:34,Punta Alta Buenos Aires ,city,"Coronel de Marina Leonardo Rosales, Argentina",Argentina
171,121.0627355,14.683012,Drix Llarena,754685075392835584,2020-02-16 11:48:04,,city,"Quezon City, National Capital Region",Republic of the Philippines
11500,-85.7623545,33.7964445,@TheReal_Dsean,754685318268411904,2020-02-14 00:48:10,"Phenix City, AL",city,"Jacksonville, AL",United States
88,127.8927965,26.467883500000003,Adir Loya,754685342,2020-02-14 02:01:41,"Kin-cho, Okinawa",city,"Kin-cho, Okinawa",Japan
72,144.80098850000005,13.522667000000002,Adir Loya,754685342,2020-04-12 19:20:36,"Kin-cho, Okinawa",city,"Tumon, USA",United States
222,112.1540605,-7.7228509999999995,yuanaa,754685973846306816,2020-04-22 13:41:52,,city,"Plemahan, Indonesia",Indonesia
205,-3.2030084999999997,55.943195499999995,ClimateActionScot,754686447811166208,2020-03-07 12:06:17,"Scotland, United Kingdom",city,"Edinburgh, Scotland",United Kingdom
21,-49.109626500000005,-26.872810499999996,busna : (,754686474600218624,2020-04-08 04:25:37,"Blumenau, Brasil",city,"Blumenau, Brasil",Brasil
26420,-95.416247,29.773740000000004,Roman De La Cruz,754686553281015808,2020-03-19 06:39:36,"Houston, TX",poi,Quarantine,United States
120,100.2873965,5.3667565,Orked,754687256363802625,2020-03-06 12:21:15,,city,"Mukim 13 (Paya Terubong), Pulau Pinang",Malaysia
24,-123.070225,49.3156065,Jessica ,75468734,2020-04-27 01:35:55,North Vancouver ,city,"North Vancouver, British Columbia",Canada
21,-46.59088595,-23.49660271,/\/\ Michelzinho ,754687654608994304,2020-04-15 13:27:28,"Rio de Janeiro, Brasil",city,"So Paulo, Brasil",Brasil
35620,-73.8494415,40.8503475,Pharoah Bueller,754687805582966785,2020-03-20 03:12:41,"Bronx, NY",city,"Bronx, NY",United States
37980,-75.1814775,39.829877,IB Coordinators,754688185486245888,2020-02-15 18:46:21,"Upper Marlboro, MD",city,"Thorofare, NJ",United States
91,36.863620000000004,-1.2748635,,754688330,2020-02-14 08:00:17,Quenia,city,"Nairobi, Kenya",Kenya
205,-2.166615,52.520736,LleyS ,754688462,2020-03-01 15:11:46,"Staffordshire, UK.",poi,Himley Hall,United Kingdom
96,48.032724,29.327757000000002, ,754688472368160768,2020-02-20 12:30:29,|Kuwait|,poi,Health Sciences Centre - KU,Kuwait
35620,-74.184848,40.734494,,754689049319710721,2020-05-29 18:46:43,NJ 973,city,"Newark, NJ",United States
120,101.2957565,4.278534499999999,aiman,754689110527225856,2020-02-27 04:54:44,,city,"Batang Padang, Perak",Malaysia
82,85.29486949999999,26.514492500000006,Bajrangee Singh,754689254370967552,2020-02-17 07:00:47,", , ",city,"Sheohar, India",India
88,134.493842,34.127503000000004,,754689564,2020-02-26 12:22:25,,city, ,
193,101.57693499999999,14.673898000000001,wi,754689615928229888,2020-02-15 13:03:04,"Bangkok, Thailand",poi,My Ozone,Thailand
24,-79.7595915,43.724971000000004,Adonis Bosso,75468965,2020-04-26 19:00:53,,city,"Brampton, Ontario",Canada
17140,-84.56090400000001,39.4040615,Danny Adams,754689661029810176,2020-05-03 02:17:36,"Hamilton, OH",city,"Hamilton, OH",United States
200,29.0052225,41.0213205,A Y  E ,754689927015727104,2020-02-15 13:52:56,Elaz - stanbul,city,"stanbul, Trkiye",Trkiye
85,17.33532339,40.85585134,Tenuta GEMI,754689957864804353,2020-02-14 18:37:09,"Monopoli, Puglia",city,"Monopoli, Puglia",Italia
21,-43.68046219,-22.93324937,Gustavo,754690182931214336,2020-05-20 16:56:03,"Rio de Janeiro, Brasil",city,"Rio de Janeiro, Brasil",Brasil
40380,-77.45473249999999,43.2320245,Jim Grabowski,75469032,2020-02-14 02:29:22,,city,"Webster, NY",United States
38240,-79.4999095,35.208003000000005,Vicki,754690702794223616,2020-05-22 03:52:10,,city,"Taylortown, NC",United States
38,-76.67783299999998,3.4212985000000002,Apoyo Area 20,754690753184620544,2020-02-17 16:09:45,"Cali, Colombia",city,"Cali, Colombia",Colombia
16980,-87.610837,41.698703,HOT CITY BOY,754690935229911042,2020-05-13 06:04:23,"Chatham, Chicago",poi,Metra - 107th Street,United States
200,29.0052225,41.0213205,Emre,754691130147672065,2020-04-04 02:35:19,"stanbul, Trkiye",city,"stanbul, Trkiye",Trkiye
82,78.471129,17.38654,Anji Cheguvera,754691200595156992,2020-02-24 07:05:25,,poi,Nampally Exhibition Grounds,India
35620,-74.26299,40.7913595,Tristan Murphy,754691293851357185,2020-03-31 01:14:00,"West Orange, NJ",city,"West Orange, NJ",United States
19380,-84.3717905,39.622087,Daniel,754691678611599360,2020-02-22 13:41:24,"Ohio, USA",city,"Germantown, OH",United States
18140,-82.985772,39.9946835,Maurice Clark,75469171,2020-03-27 14:27:09,,city,"Columbus, OH",United States
41700,-98.5406515,29.417501,Linda Jurado,754691774640066560,2020-05-07 03:03:01,Texas,city,"San Antonio, TX",United States
193,100.64881168,13.79871519,  ,754691982904086528,2020-02-17 15:53:34,,city,", ",
21,-43.3658,-23.0,dorriz ,754692147828391936,2020-02-22 16:40:52,Monumental de Nuez,city,"Rio de Janeiro, Brasil",Brasil
31080,-117.92413,34.06792,cellin ,754692147828391936,2020-04-12 00:01:55,Rio da iluso,city,"West Covina, CA",Estados Unidos
21,-43.35390828,-22.82642892,cellin,754692147828391936,2020-04-15 21:40:40,Rio da iluso,city,"Rio de Janeiro, Brasil",Brasil
21,-43.31091371,-22.85014598,Leila Pamela Resantony,754692298496217088,2020-02-24 16:18:59,"Castro, Chile",city,"Rio de Janeiro, Brasil",Brasil
33,-73.762,-42.48015,Leila Pamela Resantony,754692298496217088,2020-06-04 22:42:50,"Castro, Chile",city,"Castro, Chile",Chile
200,35.28488,37.002826500000005,M.U. ,754692387272855552,2020-02-23 14:35:37,"Adana, Trkiye",city,"Adana, Trkiye",Trkiye
21,-43.23960448,-22.99077551,Sebastio Souza ,75469246,2020-05-30 00:26:09,,city,"Rio de Janeiro, Brasil",Brasil
171,122.21774099999999,18.407239,belll,754692541337919488,2020-03-12 06:11:14, | danville ,city,"Santa Ana, Cagayan Valley",Republic of the Philippines
26420,-95.18046,30.05091,Natalie Jones,75469257,2020-03-31 09:23:29,TX,city,"Houston, TX",United States
88,139.810111,35.980464000000005,,754692821756485632,2020-02-14 04:49:43,,city, ,
171,121.08234499999999,14.5833065,mikkay ,754692975758680064,2020-02-14 04:10:41,"Cainta, Rizal",city,"Pasig City, National Capital Region",Republic of the Philippines
41980,-66.058368,18.384165499999998,clau,754693469042466817,2020-03-24 20:23:04,la buena,city,"San Juan, USA",United States
175,49.9945455,26.353591499999997,  ,754693556191784960,2020-02-19 20:27:24,,city,",   ",  
88,135.4838255,34.678121999999995,5kz,754693657278631936,2020-04-20 05:55:17,,city,  ,
88,135.48163899999997,34.858789,Yozora@ grookster,75469394,2020-02-14 13:37:10,,city,"Minoo-shi, Osaka",Japan
186,-5.8195475000000005,37.08450600000001,francisco fernandez,754694148,2020-02-16 19:04:11, Andalucia Sevilla Utrera,city,"Utrera, Espaa",Espaa
205,-2.23348,53.4569525,Maksat Damir uulu,75469443,2020-02-27 18:32:29,Bishkek,city,"Manchester, England",United Kingdom
82,77.095086,28.638489500000002,shariful azam,754694582659579904,2020-02-18 09:41:43,,city,"New Delhi, India",India
31080,-117.67096516,33.59647539,David Eugene Andrews,754694664729407488,2020-03-19 18:00:20,"California, USA",city,"Mission Viejo, CA",United States
205,-4.3948625,55.8006515,Nicola Anderson,754694826,2020-03-24 20:47:03,"Barrhead, Glasgow",city,"Barrhead, Scotland",United Kingdom
200,40.5863955,37.1960925,nursecil,754695199692054528,2020-03-23 20:53:18,,city,"Kzltepe, Trkiye",Trkiye
200,40.997475,40.484047,,754695435772633089,2020-03-22 10:32:22,Erzurum,poi,Ispir,Trkiye
82,72.78910450000002,21.171369,Aniruddh Singh,754695457457135616,2020-02-23 20:15:21,"San Francisco, CA",city,"Surat, India",India
34980,-86.7837,36.1651,Jason Raybin,754695589,2020-02-29 21:22:26,,city,"Nashville, TN",United States
37980,-75.1651,39.9527,Jason Raybin,754695589,2020-06-01 01:00:01,,city,"Philadelphia, PA",United States
21,-40.298320000000004,-20.333045000000002,Ana Luiza Ralil ,754695686180970497,2020-05-13 17:53:31,"Vitria, Brasil",poi,Clnica So Clemente,Brasil
21,-43.441578,-22.911421500000003,larissa,754695883619381248,2020-05-21 20:09:31,"Centro, Rio de Janeiro",city,"Rio de Janeiro, Brasil",Brasil
71,10.687977499999999,52.341184000000005,CCS Labs,754695985109012482,2020-03-04 09:24:40,"Paderborn, Germany",city,"Lehre, Deutschland",Germany
21,-42.7365505,-22.521039,filha de Zeus,754696094852997124,2020-05-17 23:59:18,"Rio de Janeiro, Brasil",city,"Cachoeiras de Macacu, Brasil",Brasil
88,130.5971865,33.852013,,754696267784073217,2020-05-31 12:01:31, ,city, ,
65,-1.5607395,47.2381615,TSA : Ouvrons le champ des possibles,754696550933200896,2020-02-14 11:16:10,"Nantes, France",city,"Nantes, France",France
193,100.2860225,13.552293,Taqula,754697117801734144,2020-02-27 14:10:49,,city,", ",
21,-41.9396195,-18.795445,Jhonatan Almeida ,75469728,2020-02-14 16:59:31,"Governador Valadares, Brasil",city,"Governador Valadares, Brasil",Brasil
69,-0.048405000000000004,5.661803,RUFFHEARTZ,754697901385912320,2020-04-21 02:04:57,"Tema, Ghana",poi,Crisberry,Ghana
38920,-96.634916,28.618365,  ,754697934,2020-06-01 14:29:30,"Texas, USA",city,"Port Lavaca, TX",United States
95,127.22441450000001,37.227869500000004,,754698115068768256,2020-05-02 11:41:06,   x,city, ,
200,30.1562155,36.303790500000005,Ahmet Bozgun,754698253602590721,2020-05-04 09:49:57,,city,"Finike, Trkiye",Trkiye
16980,-88.14251150000003,41.519556,Elafriz Geral,75469840,2020-02-16 07:32:13,"Chicago, IL",city,"Joliet, IL",United States
200,35.28488,37.002826500000005,Ramazan OUL,754698475862945792,2020-04-09 16:12:17,,city,"Adana, Trkiye",Trkiye
88,139.76270231,35.67110044, #51okumura,75469867,2020-03-08 07:55:28,,city, ,
88,133.678167,34.567762,mug,754699845030383616,2020-02-14 11:42:36, ,poi,mug,
82,72.87424399999999,19.174139999999998,#__,75469987,2020-02-16 18:37:45,"Pratapgarh, India",city,"Mumbai, India",India
200,30.381503,40.7592495,Burak'Tutar,754699887376232449,2020-03-16 17:17:34,"Sakarya, Trkiye",city,"Sakarya, Trkiye",Trkiye
82,76.32095,32.21663,Lhagyari Namdol,754699946272718849,2020-05-28 13:09:26,"Himachal Pradesh, India",city,"Dharmsala, India",India
71,9.1175755,48.9541435,Abdou Baldeh,754700214552956929,2020-05-30 12:39:33,,city,"Bietigheim-Bissingen, Deutschland",Germany
24,-79.9437475,43.523123,Naveen Sharma,75470033,2020-03-11 00:39:00,"Wanawadi, Pune",city,"Milton, Ontario",Canada
21,-53.568565500000005,-23.9559075,P A T R I C I A  M E D E I R O S,754700525329911808,2020-03-16 16:05:12,"Cafezal do Sul, Brasil ",city,"Cafezal do Sul, Brasil",Brasil
19660,-81.219179,29.525946,Eugene Muscillo,754700677549551617,2020-04-30 20:03:56,Long Island New York,city,"Palm Coast, FL",United States
151,8.114968,6.32453,Defender ,754700820894126080,2020-04-23 08:20:51,"New York, USA",poi,Cosmilla,Nigeria
37340,-80.649699,28.117874,J'Alego Kaugagi,754700934790389761,2020-02-14 10:21:08,"Siaya, Kenya",city,"Melbourne, FL",United States
160,-77.0291,-12.1193,Alerta Empresarial TV,754700940108820485,2020-04-10 03:42:18,Peru,city,"Miraflores, Peru",Peru
88,131.06317003,34.41953524,MasaakiNakano,754700978801172480,2020-05-05 05:21:53,,city, ,
88,138.53079071,36.76630956,,754701669280079872,2020-02-23 03:15:45,,city, ,
222,107.576881,-6.971480000000001,HimeDan(D.N.R),75470168,2020-02-15 13:49:08,Anywhere else but here,poi,Indomaret,Indonesia
19100,-96.7617535,32.819858499999995,Joshua,754701817573892096,2020-05-31 03:22:00,"Dallas, TX",city,"Dallas, TX",United States
41180,-90.5812485,38.651687,Lauren C Dominicci,75470183,2020-02-25 23:00:16,St Louis MO,city,"Chesterfield, MO",United States
222,106.8510905,-6.256264,ilmi.ai,754702254,2020-02-19 12:43:48,Jakarta,city,"Pancoran, Indonesia",Indonesia
21,-43.3697645,-22.7854705,MK,754702304411025409,2020-02-17 21:55:28,021,city,"So Joo de Meriti, Brasil",Brasil
19100,-97.11477049999999,33.202495500000005,$yd,754702457721098241,2020-03-05 04:36:31,hell,city,"Denton, TX",United States
24,-123.123581,49.257639000000005,$yd,754702457721098241,2020-03-13 02:43:42,hell,city,"Vancouver, British Columbia",Canada
21,-42.543348,-19.3913215,Vitoria Alice,754702583122522112,2020-02-14 13:37:50,"Ipatinga, Brasil",city,"Santana do Paraso, Brasil",Brasil
88,141.2257055,43.0934355,,754702651816759296,2020-02-18 02:44:42, ,city,  ,
88,136.687116,36.506127, ,754702652940836865,2020-04-09 06:27:29,,city, ,
200,32.941329499999995,39.9220105,Hasan Sen,754702883883483137,2020-02-16 14:47:39,"Ankara, Trkiye",city,"Mamak, Trkiye",Trkiye
173,129.12357550000002,61.47803100000001,  ???,754703058999934976,2020-03-01 11:54:05,", ",city,", ",
200,27.006511,38.4079305,Emel Glge,754703096123625472,2020-03-20 08:25:58,,city,"zmir, Trkiye",Trkiye
71,9.8199725,50.8272365,M  ,754703127283134464,2020-02-20 11:13:46,"Bad Hersfeld, Deutschland",city,"Schenklengsfeld, Deutschland",Deutschland
24,-79.361797,43.647191,Sara Yong,75470341,2020-02-28 02:53:08,"Toronto, Canada",poi,Sidewalk Labs / 307,Canada
88,140.410418,39.193599,III,754703466765750272,2020-02-23 03:05:31,,poi, ,
33460,-93.2620465,44.9706105,Rebel Child,754704027179515904,2020-02-14 01:49:39,"Minneapolis, MN",city,"Minneapolis, MN",United States
88,141.10242184,39.00091475,(,754704507796230144,2020-03-07 02:50:36,,city, ,
21,-44.0838565,-19.891169,Lendro lmeid,754704548783124480,2020-04-13 16:57:04,"Belo Horizonte, Brasil",city,"Contagem, Brasil",Brasil
161,74.3584865,31.5318195,Asif Iqbal,754704606836523008,2020-03-08 17:46:45,"Lahore, Pakistan",city,"Lahore, Pakistan",Pakistan
222,110.747837,-7.559585,Zulvan A Damanik,754704829,2020-02-21 19:34:08,Pematangsiantar  Solo ,city,"Kartosuro, Indonesia",Indonesia
186,-6.0339975,39.026625,Alba Cordero,754704873074094080,2020-02-15 03:42:27,"Extremadura, Espaa",city,"Santa Amalia, Espaa",Espaa
205,-2.442918,53.056805000000004,Jason Barnett,754704901792489472,2020-02-17 12:59:59,"England, United Kingdom",poi,Playworld,United Kingdom
65,2.1806259999999997,48.8718625,THO,754704905743441920,2020-02-14 09:28:56,Germany,city,"Rueil-Malmaison, France",France
71,7.8748285000000005,48.56356649999999,THO,754704905743441920,2020-02-18 01:21:47,Germany,city,"Kehl, Deutschland",Germany
175,39.578835,24.48414,Bin kAmiS.,754704951620857856,2020-05-08 09:49:21,  ,poi,Masjid Al-Qiblatain |  ,  
175,39.2541285,21.5857105,Omar ,754704954,2020-02-15 22:57:18,"Jeddah,saudi arabia",city,"Jeddah, Kingdom of Saudi Arabia",Kingdom of Saudi Arabia
88,139.7317415,35.8337305,,754705198874931200,2020-02-26 22:45:55,,city, ,
96,47.950497999999996,29.337149,Amsha,754705361790177281,2020-02-20 09:11:52,  ,poi,  _  , 
35620,-73.9487755,40.655138,CA$H,75470543,2020-03-12 00:17:42,"Brooklyn, NY",city,"Brooklyn, NY",United States
12060,-84.43310600000001,33.7671945,CA$H,75470543,2020-06-09 15:32:53,,city,"Atlanta, GA",United States
65,2.347003,48.8588335,Alexis Leclerc--Dalmet,754705675,2020-02-14 14:20:22,"Joinville-le-Pont, France",city,"Paris, France",France
46520,-157.8255,21.27831,Palm Springsteen,754705687314333696,2020-02-20 18:07:51,"Los Angeles, CA",city,"Honolulu, HI",United States
161,73.0833,31.4167,Palm Springsteen,754705687314333696,2020-02-24 17:30:45,"Los Angeles, CA",city,"Lyallpur, Pakistan",Pakistan
205,-0.0967082,51.53282539999999,Palm Springsteen,754705687314333696,2020-03-22 14:52:46,"Los Angeles, CA",city,"Hackney, London",United Kingdom
31080,-118.2445,34.0564,Palm Springsteen,754705687314333696,2020-05-18 18:58:41,"Los Angeles, CA",city,"Los Angeles, CA",United States
205,-1.2301575,52.924443999999994,Tonybrown,754705700576751617,2020-03-22 18:03:08,"Beeston, England",city,"Beeston, England",United Kingdom
200,43.3593375,38.5146485,Necmettinyolcuda,754705704729079808,2020-03-23 15:54:43,"Van, Trkiye",city,"Van, Trkiye",Trkiye
26420,-95.158435,29.651967,7,754705744210067456,2020-05-17 16:18:36,,poi,The Home Depot,United States
82,77.54972463,29.95481788,ANAND_MANPREET_,754706005582237696,2020-02-18 16:05:41,Yamunanagar,city,"Saharanpur, India",India
175,50.202212,26.303903000000002,,754706152529731584,2020-05-28 12:19:58,,poi,,  
21,-48.2916695,-15.745667999999998,Daniel Craig doing a heavy southern accent,754706173421559808,2020-04-19 04:12:39,"guas Lindas de Gois, Brasil",city,"guas Lindas de Gois, Brasil",Brasil
200,29.0052225,41.0213205,Gke oban,754706229826555904,2020-04-14 11:14:37,"Almus, Tokat",city,"stanbul, Trkiye",Trkiye
193,100.687606,13.764534,SmileTiffany,754706368536293377,2020-02-14 00:14:54,", ",city,", ",
58,14.503552,50.275784,SunWay - zaluzie,754706538,2020-02-17 20:08:34,Praha,city,"Libi, esk republika",esk republika
205,-0.9025645,51.4525875,Mark ,754706678,2020-04-15 22:14:14,"Reading, England",city,"Woodley, England",United Kingdom
82,86.025902,25.754593,chandanbharti,754706809,2020-03-22 11:43:46,rosera,city,"Rosera, India",India
82,72.877655,19.075982999999997,Shrenik,754707017038761984,2020-03-28 20:07:27,"Mumbai, India",poi,Mumbai,India
14860,-73.4409395,41.1562815,KyleTM,754707052841304066,2020-06-04 01:28:49,"Connecticut, USA",city,"Norwalk, CT",United States
193,100.1711715,6.514964,Fadli Kevs,754707242931200001,2020-02-14 13:20:23,North Borneo,city,"Kurong Batang, Perlis",Malaysia
120,100.2247085,6.4391315,Fadli Kevs,754707242931200001,2020-02-18 00:54:08,North Borneo,city,"Jejawi, Perlis",Malaysia
193,100.1711715,6.514964,Fadli Kevs,754707242931200001,2020-02-23 15:10:46,North Borneo,city,"Kurong Batang, Perlis",Malaysia
120,100.17089399999999,6.447021,Fadli Kevs,754707242931200001,2020-02-23 16:03:11,North Borneo,city,"Wang Bintong, Perlis",Malaysia
193,100.1711715,6.514964,Fadli Kevs,754707242931200001,2020-02-23 16:05:57,North Borneo,city,"Kurong Batang, Perlis",Malaysia
120,100.17089399999999,6.447021,Fadli Kevs,754707242931200001,2020-02-23 16:08:25,North Borneo,city,"Wang Bintong, Perlis",Malaysia
193,100.1711715,6.514964,Fadli Kevs,754707242931200001,2020-02-23 16:09:16,North Borneo,city,"Kurong Batang, Perlis",Malaysia
120,100.17089399999999,6.447021,Fadli Kevs,754707242931200001,2020-02-23 16:13:57,North Borneo,city,"Wang Bintong, Perlis",Malaysia
193,100.1711715,6.514964,Fadli Kevs,754707242931200001,2020-02-23 16:15:16,North Borneo,city,"Kurong Batang, Perlis",Malaysia
120,100.17089399999999,6.447021,Fadli Kevs,754707242931200001,2020-02-23 16:17:07,North Borneo,city,"Wang Bintong, Perlis",Malaysia
193,100.1711715,6.514964,Fadli Kevs,754707242931200001,2020-02-23 16:49:03,North Borneo,city,"Kurong Batang, Perlis",Malaysia
120,100.17089399999999,6.447021,Fadli Kevs,754707242931200001,2020-03-05 12:40:29,North Borneo,city,"Wang Bintong, Perlis",Malaysia
193,100.1711715,6.514964,Fadli Kevs,754707242931200001,2020-03-06 05:16:12,North Borneo,city,"Kurong Batang, Perlis",Malaysia
120,100.408455,6.4720565,Fadli Kevs,754707242931200001,2020-03-19 12:13:37,North Borneo,city,"Sungai Laka, Kedah",Malaysia
162,21.06179,52.2328355,wingate,754707594674049024,2020-03-29 18:01:05,"Cobea, Espaa",city,"Warszawa, Polska",Polska
222,110.34348899999999,-7.970964499999999,fakboi,754707642786848768,2020-05-14 11:11:39,"Kulon Progo, Yogyakarta",city,"Pundong, Indonesia",Indonesia
88,139.697377,35.528017,,754707689247125504,2020-02-16 03:16:58,,poi,CLUB CITTA',
88,139.72847109,35.7331563,,75470778,2020-02-22 02:14:00,#,city, ,
205,-0.14893599999999999,51.500091999999995,UFO Recordz,754708326303272960,2020-05-20 18:53:13,SALADIN - Rock To The Rhythm ,city,"London, England",United Kingdom
178,30.689437,-29.7633395,UFO Recordz,754708326303272960,2020-05-21 09:13:36,SALADIN - Rock To The Rhythm ,city,"Drummond, South Africa",South Africa
205,-0.14893599999999999,51.500091999999995,UFO Recordz,754708326303272960,2020-05-29 09:52:29,PvssyCat - 'Watch Me Dance' ,city,"London, England",United Kingdom
178,30.689437,-29.7633395,UFO Recordz,754708326303272960,2020-06-02 10:05:44,PvssyCat - 'Watch Me Dance' ,city,"Drummond, South Africa",South Africa
171,125.7988175,7.423638, ,754708569325379584,2020-02-15 06:08:02,kenneths heart,city,"City of Tagum, Davao Region",Republic of the Philippines
119,-97.916772,22.270295,Alan Mora,754708591332855812,2020-02-27 05:32:02,"Mxico, Tampico",city,"Tampico, Tamaulipas",Mxico
85,14.7,37.03333333,Francesco Scollo,754708627,2020-03-10 14:40:14,Chiaramonte Gulfi,city,"Chiaramonte Gulfi, Sicilia",Italia
205,-0.28394,54.209506000000005,Lauren,754708634421125120,2020-03-08 11:21:26,,poi,Filey Seafront,United Kingdom
88,140.426806,35.534121,@,754708795540897792,2020-02-26 16:27:12, ,city, ,
178,29.910904,-23.0480485,Teboo,754708838,2020-03-05 11:31:25,058,city,"Makhado, South Africa",South Africa
119,-99.208364,19.199485,Felipe Olmedo,754709271766368256,2020-03-29 03:12:30,,city,"Tlalpan, Distrito Federal",Mxico
200,30.7863025,38.70073,Cengiz Ceylan,754710298670628864,2020-05-24 14:49:08,,city,"obanlar, Trkiye",Trkiye
65,-1.4755254999999998,49.511963,Bruno PCdN,754710306631323649,2020-02-17 13:39:01,"Manche, Basse-Normandie",city,"Valognes, France",France
21,-46.65278578,-23.56454468,Buba,75471043,2020-02-14 21:31:45,"So Paulo, Brasil",city,"So Paulo, Brasil",Brasil
43300,-96.77537,34.097176,karina,754710723993833473,2020-04-17 00:26:28,,poi,First Stop,United States
200,28.994315000000004,41.039590000000004,Muhammet Yldz,754710737818378241,2020-05-16 23:37:12,"stanbul, Trkiye",poi,Vodafone Park,Trkiye
12060,-84.4703885,33.6312775,granny jojo ,754711000100794368,2020-03-18 17:52:36,"Florida, USA",city,"College Park, GA",United States
33100,-80.075358,26.788677500000002,granny jojo ,754711000100794368,2020-03-22 08:06:05,"Florida, USA",city,"Riviera Beach, FL",United States
12060,-84.43310600000001,33.7671945,Ashley Hindsman,754711748662456320,2020-06-09 22:01:51,"Georgia, USA",city,"Atlanta, GA",United States
222,107.0604445,-6.2201165000000005,per,754711832,2020-03-13 08:38:36,,city,"Tambun, Indonesia",Indonesia
82,76.974691,28.368525,Kartik Lohia,754711858423140352,2020-03-25 07:12:35,"Gurgaon, India",city,"Gurgaon, India",India
33100,-80.134058,25.79056,J,754711893877542912,2020-03-02 01:29:27,"Miami, FL",poi,Museum of Illusions Miami,United States
96,48.12758689,29.14814499,M,754711915801239556,2020-02-21 11:58:10,Kuwait,city,"  ,  ", 
9,145.7169445,-16.880526500000002,TOM ME NEV,754711963,2020-02-15 01:45:06,"Trinity Beach, Cairns",city,"Cairns, Queensland",Australia
35620,-73.00576550000001,40.879379,Robert Clemente,754712026853871617,2020-03-30 22:31:34,"Terryville, NY",city,"Coram, NY",United States
85,9.819905,45.758959999999995,Liuke,754712076384366592,2020-02-28 19:25:23,,city,"Albino, Lombardia",Italia
82,77.4233395,28.773568,Ankit,75471256,2020-03-22 12:17:00,Ghaziabad,city,"Ghaziabad, India",India
82,79.4942495,17.882444500000002,Subramanyam Sharma,754712591096750082,2020-05-07 05:54:42,,city,"Warangal-Hamamkonda, India",India
82,77.3508815,28.3312135,Amit Kumar,754712623514542080,2020-05-02 16:56:10,"Faridabad, India",city,"Faridabad, India",India
21,-54.7498015,-29.10175,gilvana,754712730209226752,2020-02-14 02:29:39,"Santiago, Rio Grande do Sul ",city,"Santiago, Brasil",Brasil
205,-2.1081755,57.1890395,Carol Milne,754712735208931328,2020-02-25 06:54:12,"Scotland, United Kingdom",city,"Bridge of Don, Scotland",United Kingdom
178,18.457432999999998,-33.93533,Connie van Staden,754713457979686912,2020-02-21 04:40:36,,poi,DoubleTree by Hilton,South Africa
80,19.260798,47.4309,Zsfia Wolford,754713539798036480,2020-03-23 12:53:41,"Glasgow, Scotland",poi,Budapest Liszt Ferenc International Airport (BUD),Magyarorszg
88,130.97350799999998,34.142483,,754713658643447811,2020-03-01 22:04:35,,city, ,
9,151.21725603,-33.88212476,Peter Black,754714,2020-02-29 08:51:57,"Brisbane, Australia",city,"Sydney, New South Wales",Australia
38900,-122.69639099999999,45.411248,Steph Dorado,75471403,2020-04-18 00:20:51,,city,"Lake Oswego, OR",United States
200,29.0052225,41.0213205,Hakki,754714057,2020-03-17 09:35:36,TRKYE,city,"stanbul, Trkiye",Trkiye
205,-1.4938255,51.7875995,TV Lock & Safe,754714184206655488,2020-06-01 09:18:31,Oxfordshire,city,"Witney, England",United Kingdom
186,-3.7719226999999997,37.7898875,Jos Ramn Mesa,754714273,2020-05-11 16:24:08,"JanAndaluca, Espaa(SPAIN)",city,"Jan, Espaa",Espaa
82,79.4942495,17.882444500000002,Padidela Swarochish Rao,754714339341369346,2020-05-07 14:09:39,"Warangal-Hamamkonda, India",city,"Warangal-Hamamkonda, India",India
82,75.1685545,18.805765,Anil Vanve,754714549895372801,2020-03-27 13:25:47,"Kopar Khairane, Navi Mumbai",city,"Ashti, India",India
71,6.776177000000001,51.429628,Fabian,754715006,2020-03-06 07:17:33,Deutschland,poi,Duisburg Hauptbahnhof,Deutschland
175,39.2541285,21.5857105,qasem (hala madrid),754715018,2020-02-19 22:21:03,  ,city,",   ",  
82,73.910077,18.5081615,DU,754715252323856384,2020-04-23 05:24:53,,city,"Haveli, India",India
175,46.2145085,24.4694175,# #,754715329696239616,2020-04-08 10:57:31,,city,",   ",  
178,28.184066499999997,-25.752605499999998,Papa Zaye,754715343361347584,2020-05-02 15:20:37,Pretoria,city,"Pretoria, South Africa",South Africa
200,28.900127,40.3651165,FLZ AVUOLU,754715556,2020-04-15 19:28:12,"Eitim, Mudanya",city,"Mudanya, Trkiye",Trkiye
31080,-117.890736,33.973046000000004,Lisa Rojas,754715773440921602,2020-03-19 04:43:33,"Pasadena, CA",city,"Rowland Heights, CA",United States
12540,-119.025163,35.3469015,Donovan Foster,754716102073004034,2020-04-13 18:47:02,"Bakersfield, CA",city,"Bakersfield, CA",United States
16700,-80.17241,32.999978999999996,Jeremey Washington,754716267068559360,2020-05-30 20:08:49,"Summerville, SC",city,"Summerville, SC",United States
88,139.795942,35.852584, ,754716346093412354,2020-02-14 02:24:09,  4-10-13 SH1F,poi, ,
16980,-87.732013,41.8335845,Warren Ng,754716386404872192,2020-02-15 05:44:19,Hong Kong,city,"Chicago, IL",United States
35620,-74.06378699999998,40.778489,Warren Ng,754716386404872192,2020-02-27 17:08:53,Hong Kong,city,"Secaucus, NJ",United States
21,-43.441578,-22.911421500000003,Lua vai ,754716485587759104,2020-02-14 01:14:44,,city,"Rio de Janeiro, Brasil",Brasil
21,-42.139657,-22.781072,P,754716690206842880,2020-02-14 03:52:42,,city,"So Pedro da Aldeia, Brasil",Brasil
91,36.863620000000004,-1.2748635,Big baby,754716836814524416,2020-02-15 00:21:16,+254,city,"Nairobi, Kenya",Kenya
152,6.980639,52.996396499999996,Annelies Groenhof,754717014,2020-02-25 15:33:04,,city,"Stadskanaal, Nederland",Nederland
175,39.15073696,21.57655434,,754717408460439552,2020-02-16 09:14:18,,city,"Jeddah, Kingdom of Saudi Arabia",Kingdom of Saudi Arabia
200,39.7140255,40.9691995,Hafsa Sultan,754717555638632448,2020-03-10 17:22:58,Trkiye Trabzon,city,"Trabzon, Trkiye",Trkiye
82,72.87364000000001,19.412201,Omkar Dhenge,754717962230169600,2020-05-02 16:10:05,,poi,Tungareshwar,India
21,-43.441578,-22.911421500000003,Vick ,754718420239777793,2020-02-14 02:03:08,Ap de Bangu ,city,"Rio de Janeiro, Brasil",Brasil
175,40.193527,29.953415000000003,,754718593036718080,2020-02-16 04:58:43,,poi,Cost Cafe,  
200,29.0052225,41.0213205,Demirhan TURHAN,754718697219100672,2020-03-28 09:49:45,"Kozyata, stanbul",city,"stanbul, Trkiye",Trkiye
9,150.931975,-33.848244,GLAY ALKAN,754719336,2020-02-17 11:40:51,,city,"Sydney, New South Wales",Australia
9,152.9931965,-27.382143,Gemma Lissa,754719377061064704,2020-03-04 15:49:15,"Brisbane, Queensland",city,"Brisbane, Queensland",Australia
151,3.38638032,6.45922125,Mainto Oladimeji,754719442328838145,2020-05-04 04:49:21,Ikorodu Lagos Nigeria,city,"Lagos, Nigeria",Nigeria
36740,-81.393653,28.664803499999998,Paulo,754719473215627264,2020-02-14 03:28:50,,city,"Altamonte Springs, FL",United States
222,110.322879,-7.809987,Imbir,754719518,2020-02-19 10:11:13,dihatimu ,poi,Fakultas Pertanian UMY,Indonesia
205,-1.4580289999999998,55.0280095,@wacfcladies,754719696776269824,2020-02-22 22:25:06,North Shields,city,"Whitley Bay, England",United Kingdom
31080,-118.1632765,34.685827,toastie,754719834257043457,2020-03-02 04:56:10,"California, USA",city,"Lancaster, CA",United States
200,32.680235,39.9300615,ALEY,754719834953441280,2020-03-21 21:30:51,K,city,"Etimesgut, Trkiye",Trkiye
222,106.8233,-6.1803,WIRDA,754719859,2020-05-27 11:40:33,Jekardah,city,"Tanah Abang, Indonesia",Indonesia
21,-43.1079295,-22.1203545,Joo Vitor Cardoso,754720039023050753,2020-05-05 19:18:13,"Trs Rios, Brasil",city,"Trs Rios, Brasil",Brasil
151,3.39583,6.45306,Zee Express,754720056806928385,2020-02-25 08:05:15,"Lagos, Nigeria",city,"Lagos, Nigeria",Nigeria
9,150.931975,-33.848244,John Apotsis,75472028,2020-02-14 06:18:40,"Sydney, New South Wales",city,"Sydney, New South Wales",Australia
88,139.114379,36.269934,@,754720280451223552,2020-02-24 00:54:50, ,poi,   (),
24,-79.3872,43.648,Cxldxne,75472041,2020-02-19 16:01:12,You gotta cross the border,city,"Toronto, Ontario",Canada
9,145.0422836,-37.8895005,Cxldxne,75472041,2020-04-05 00:50:00,You gotta cross the border,city,"Melbourne, Victoria",Australia
24,-79.3872,43.648,Cxldxne,75472041,2020-04-15 09:38:36,You gotta cross the border,city,"Toronto, Ontario",Canada
178,27.875272,-26.2564215,Monde_Bee,754720510479663104,2020-05-07 19:01:56,"Johannesburg, South Africa",city,"Soweto, South Africa",South Africa
151,3.5996725,6.497681,Raezy Kliq,754721023,2020-04-03 16:14:51,"Lagos, Nigeria",city,"Addo, Nigeria",Nigeria
28580,-80.434003,25.109363,Peyton Matocha,754721291844870145,2020-02-16 03:46:34,"Houston, TX  Miami, FL",city,"Key Largo, FL",United States
33100,-80.2333285,25.7823535,Peyton Matocha,754721291844870145,2020-03-06 23:03:39,"Houston, TX  Miami, FL",city,"Miami, FL",United States
57,14.0,48.0,Ing. Michael Eder,754721397323206656,2020-03-19 10:32:12,sterreich,city,"Pettenbach, sterreich",sterreich
151,3.48527014,6.62563662,Uwadia Victor,754721630946025472,2020-05-22 11:39:58,"Lagos, Nigeria",city,"Ikorudu, Nigeria",Nigeria
171,125.117439,7.0426435000000005,Bevy,754722066734067712,2020-02-17 15:17:22,"Kidapawan City, Soccsksargen",city,"Kidapawan City, Soccsksargen",Republic of the Philippines
191,6.143025499999999,46.204758,En Marche! Suisse,754722283864911872,2020-02-20 19:21:00,,city,"Geneva, Switzerland",Switzerland
65,3.9132849999999997,47.529886,En Marche! Suisse,754722283864911872,2020-03-17 08:44:38,,city,"Etaule, France",France
82,83.1097,17.79148,Tarun Goutham,754722463,2020-02-14 13:51:59,,city,"Anakapalli, India",India
35620,-73.9685415,40.780709,malaika sa,754722612,2020-05-09 11:23:14,,city,"Manhattan, NY",United States
200,30.381503,40.7592495,Enes Vural,754722691,2020-02-18 20:40:59,"Serdivan, Sakarya",city,"Sakarya, Trkiye",Trkiye
50,31.404156,31.052739000000003,Mariam Elbaz,754722994849800192,2020-03-27 19:18:37,Egypt,poi, ,Egypt
26620,-86.611411,34.7060265,Nickk w. 2 k's ,754723475131101184,2020-05-11 03:34:16,$outhside Montgomery,city,"Huntsville, AL",United States
33860,-86.24472850000002,32.364145,Nickk w. 2 k's ,754723475131101184,2020-06-11 07:15:35,$outhside Montgomery,city,"Montgomery, AL",United States
186,2.1412275000000003,41.392657,FUCKERMATE BACKSTAGE,754723614495236096,2020-03-04 18:36:35,"Barcellona, Spagna",city,"Barcellona, Spagna",Spagna
193,100.369407,13.7821895,OwL-TeE/\ThAnA,754723711081549824,2020-06-02 01:37:57,,city,", ",
82,77.095086,28.638489500000002,Nagarjuna.Cheruvu,754724059309408256,2020-03-26 06:36:51,chippagiri,city,"New Delhi, India",India
82,77.095086,28.638489500000002,Akhlak Ahmad Khan (  ),754724184,2020-03-15 13:29:20,"New Delhi, India",city,"New Delhi, India",India
38420,-90.472532,42.739692,Becky Ference,75472422,2020-03-07 16:02:25,"Minnesota, USA",city,"Platteville, WI",United States
33460,-93.2620465,44.9706105,Lauryn,754724245960138752,2020-02-14 17:11:51,,city,"Minneapolis, MN",United States
82,86.008985,20.369460500000002,Uttam Kumar Sahoo,754724474566676480,2020-06-09 09:51:46,amarda road,city,"Cuttack, India",India
26420,-95.5852975,29.768210000000003,Haley Mota,754724693022642176,2020-02-26 02:17:35,,neighborhood,"Memorial, Houston",United States
21,-43.441578,-22.911421500000003,Renata Pires,754724732143034368,2020-02-14 02:46:09,"Rio de Janeiro, Brasil",city,"Rio de Janeiro, Brasil",Brasil
152,4.7,52.3,VVD Haarlemmermeer,754724845,2020-03-12 11:04:15,In de Haarlemmermeer,poi,Haarlemmermeer,Nederland
38,-76.49608,3.364182,Martha Cruz,754724994089967617,2020-03-24 17:10:10,,city,"Candelaria, Colombia",Colombia
8,-61.9746345,-33.742277,Sol ,754725016449810432,2020-03-29 02:45:49,,city,"Venado Tuerto, Argentina",Argentina
65,4.8783970000000005,46.3069105,Claudine Auclair,754725343,2020-02-25 08:11:27,,city,"Replonges, France",France
119,-100.640491,25.8057225,EDITH GONZALEZ,75472538,2020-03-03 23:58:34,,city,"Garca, Nuevo Len",Mxico
171,121.0069495,14.5328815,Gem-Gem,75472579,2020-02-14 21:13:00,PALAWAN..,city,"Pasay City, National Capital Region",Republic of the Philippines
173,47.5061265,42.964722,,754726291,2020-04-12 23:17:31,,city,", ",
186,-8.627279,42.428228999999995,Alberto Faublak,75472631,2020-02-16 14:36:10,CARACAS,city,"Pontevedra, Espaa",Espaa
21,-50.9007225,-29.391982000000002,alini,754726364251557888,2020-02-14 17:49:27,"Gramado, Brasil",city,"Gramado, Brasil",Brasil
88,139.7091805,35.701657,@,75472641,2020-02-28 16:43:45,,city, ,
222,101.4412555,0.5090020000000001,Ezha Ihfazatul K.,754726644,2020-02-28 10:33:46,"Riau,Indonesia",city,"Senapelan, Indonesia",Indonesia
65,3.0715885,50.628974,juicy,754726662944743426,2020-02-21 16:02:45,"Lille, France",city,"Lille, France",France
42660,-122.22725600000001,47.720553,Shenlan,754726786659856386,2020-05-30 03:56:03,"Seattle, WA",city,"Inglewood-Finn Hill, WA",United States
18580,-97.40333000000001,27.771568,Rafael Silva,75472690,2020-02-18 15:48:42,"Corpus Christi, TX",poi,Metropolitan Elementary School of Design,United States
88,130.555749,31.522809000000002,,754726910882557952,2020-03-16 15:44:05, ,city, ,
47900,-77.303701,38.861374,Milton Zuniga nmls#1692530,754727178,2020-03-05 20:11:17,"Fairfax, VA",city,"Fairfax, VA",United States
200,28.7837,41.0012,Demir Doan Tmen,754727333702008836,2020-05-09 20:04:52,"stanbul, Trkiye",city,"stanbul, Trkiye",Trkiye
21,-49.109626500000005,-26.872810499999996,oCorrea,754727361682272256,2020-02-15 23:15:58,"Blumenau, Brasil",city,"Blumenau, Brasil",Brasil
82,77.597645,12.971117,Balaji,754727364878217220,2020-04-17 10:05:37,"Jaya Nagar, Bengaluru South",city,"Bengaluru, India",India
119,-90.05469649999999,20.8395455,Giuliani Quintal,754727611020943360,2020-02-17 17:06:09,"Yucatn, Mxico",city,"Kinchil, Yucatn",Mxico
38,-75.619213,6.270883,Yan Carlos,754727883449442305,2020-04-08 00:28:32,"Medelln, Colombia",city,"Medelln, Colombia",Colombia
200,32.8183815,39.8889765,Zmrt KIRCAN,754727998335619072,2020-04-28 15:34:09,,city,"Ankara, Trkiye",Trkiye
222,124.8699435,1.4732610000000002,Flyinggooners,754728270,2020-03-06 15:21:35,"Manado Sulut, Indonesia",city,"Wenang, Indonesia",Indonesia
24,-123.103501,49.273309999999995,GreySungila,754728327215058944,2020-02-15 23:29:05,"Puyallup, WA",poi,Science World at TELUS World of Science,Canada
200,40.5863955,37.1960925,Sultan ZEN,754728433666711552,2020-03-25 15:04:50,"Mardin, Trkiye",city,"Kzltepe, Trkiye",Trkiye
18140,-82.881943,39.968866999999996,,754728506509123584,2020-02-15 21:18:43,"Ohio, USA",city,"Whitehall, OH",United States
42660,-122.2054375,47.306631,Prada Bae,754728847229149185,2020-05-19 05:29:57,Seattle,city,"Auburn, WA",United States
47260,-76.50780850000002,37.090301000000004,Lady Pirates WBB,754728921938231296,2020-04-08 23:26:03,"Hampton, VA",city,"Newport News, VA",United States
175,36.614784,28.39854,,754728986811432960,2020-02-25 17:40:51,  ,city,",   ",  
222,110.504521,-7.7713405,Lilik wijayanto,754729003,2020-04-27 11:53:37,"Prambanan, Klaten",city,"Prambanan, Indonesia",Indonesia
205,-0.0929105,51.5144805,Alex Daniel,754729134253834241,2020-02-26 17:29:21,"London, England",city,"City of London, London",United Kingdom
50,31.274146000000002,29.958844,Abdelrahman,754729272,2020-03-06 14:03:26,Maadi,poi,Cairo American College,Egypt
222,110.248102,-7.731335499999999,san,754729962918125568,2020-02-17 14:32:44,sleman,city,"Minggir, Indonesia",Indonesia
171,120.88452450000001,14.9631555,Gillian,754730072,2020-03-01 15:10:41,rainbow,city,"Baliwag, Central Luzon",Republic of the Philippines
162,18.690839999999998,54.360944999999994,Magda Kobry,754730301411164160,2020-02-14 05:41:28,"Gdask, Polska",city,"Gdask, Polska",Polska
200,29.4044435,38.664602,Gani Alp ALKA,754730402,2020-04-13 21:25:11,,city,"Uak, Trkiye",Trkiye
33,-71.587663,-33.591743,Ral Navarrete,754730571025289217,2020-04-06 12:57:31,,poi,Barrio Industrial,Chile
88,138.41483200000002,34.951857000000004,,754730683,2020-03-06 09:06:08,15307 ,poi, ,
40140,-117.22866,33.78602,LaGareCoffeeRoasters,754730950878040064,2020-02-19 22:34:28,"Perris, CA",city,"Perris, CA",United States
24,-79.616073,43.555244,David Nguyen Wonderful Future World,75473131,2020-05-04 10:21:17,"Mississauga,Ontario",city,"Mississauga, Ontario",Canada
82,74.91668,31.68175,myrjsana,754731393003954178,2020-05-02 07:16:12,India,city,"Amritsar, India",India
119,-103.3115,20.6389,irene rodriguez,75473142,2020-02-16 01:44:31,"Guadalajara, Mex",city,"Tlaquepaque, Jalisco",Mxico
88,134.044431,34.330346,@,754731602899460100,2020-02-15 13:49:21,,poi, (Ritsurin Garden),
31080,-118.4119065,34.0207895, ...WHOI$OD,754731825654665216,2020-02-14 02:45:05,"California, USA",city,"Los Angeles, CA",United States
8,-58.748464500000004,-34.7028055,Luk,754732524367122436,2020-02-14 19:16:59,Libertad,city,"Merlo, Argentina",Argentina
21,-51.17865870000001,-29.807103700000003,Eliane Dos Santos,754732605883420673,2020-05-02 21:25:03,"Sapucaia do Sul, Brasil",city,"Sapucaia do Sul, Brasil",Brasil
186,-4.413329,36.718204,,754732755024478208,2020-02-26 19:43:02,"Mlaga, Espaa",poi,Muelle Uno,Espaa
33100,-80.307064,25.976124,We Seen't It!,754732800729755648,2020-02-14 03:15:32,"Fort Lauderdale, FL",city,"Miramar, FL",United States
186,-3.7695875,40.328899,franRbP,754732832,2020-02-22 13:57:02,"Legans, Madrid.",city,"Legans, Espaa",Espaa
186,-15.459848999999998,28.103013,Nauzet,754733161519706112,2020-03-30 23:51:35,"Las Palmas de Gran Canaria, Es",city,"Las Palmas de Gran Canaria, Espaa",Espaa
222,106.6778875,-6.2026825,CucuEyang,754733228,2020-02-18 19:49:36,,city,"Cipondoh, Indonesia",Indonesia
200,27.838919500000006,37.83980250000001,eralp,754734037504237569,2020-02-14 10:40:31,"Marmaris, Trkiye",city,"Aydn, Trkiye",Trkiye
234,-14.393676000000001,26.1658495,Issam yassin,754734081276047361,2020-02-21 15:49:24,"Layoune, Royaume du Maroc",city,"Boujdour, Royaume du Maroc",Royaume du Maroc
200,39.36412,40.915565,ATTEminikkk,754734137236451328,2020-05-30 11:25:02,,poi,Ondoroz Yaylas,Trkiye
33100,-80.336827,25.776168,:),754734163220103168,2020-05-15 05:15:40,,poi,Gold Coast Christian Camp,United States
82,73.11277836,19.17159542,Raj Singh Rajput,754734330,2020-03-31 22:53:01,"Mumbai, India",city,"Kalyan Dombivali, India",India
178,31.153928000000004,-23.94848,Matimba,754734372910145536,2020-02-22 03:47:49,,city,"Phalaborwa, South Africa",South Africa
178,28.24308,-26.085862,Klass Savage,754734558,2020-05-14 19:52:27,South Africa,city,"Kempton Park, South Africa",South Africa
151,3.3524415000000003,7.154428,AmJuwonLo,754734742835265536,2020-02-14 18:50:44,"Abeokuta, Nigeria",city,"Abeokuta, Nigeria",Nigeria
222,95.3190915,5.560735500000001,udahyudisium,754734822,2020-03-15 16:06:43,Pinggiran PT AAF,city,"Kuta Raja, Indonesia",Indonesia
41860,-122.2286855,37.791994,Christian Casillas,754735061614759936,2020-02-14 10:38:35,"Oakland, CA",city,"Oakland, CA",United States
41940,-122.08144250000001,37.396853,Christian Casillas,754735061614759936,2020-02-15 01:01:54,"Oakland, CA",city,"Mountain View, CA",United States
41860,-122.22972,37.8225715,Christian Casillas,754735061614759936,2020-02-16 02:49:07,"Oakland, CA",city,"Piedmont, CA",United States
41940,-122.08144250000001,37.396853,Christian Casillas,754735061614759936,2020-02-19 04:08:44,"Oakland, CA",city,"Mountain View, CA",United States
41860,-122.43597849999999,37.7706565,Christian Casillas,754735061614759936,2020-02-20 20:50:12,"Oakland, CA",city,"San Francisco, CA",United States
41940,-122.08144250000001,37.396853,Christian Casillas,754735061614759936,2020-02-21 22:05:09,"Oakland, CA",city,"Mountain View, CA",United States
41860,-122.2286855,37.791994,Christian Casillas,754735061614759936,2020-02-23 18:52:28,"Oakland, CA",city,"Oakland, CA",United States
41940,-122.08144250000001,37.396853,Christian Casillas,754735061614759936,2020-02-25 04:30:43,"Oakland, CA",city,"Mountain View, CA",United States
41860,-122.2286855,37.791994,Christian Casillas,754735061614759936,2020-02-25 16:04:35,"Oakland, CA",city,"Oakland, CA",United States
41940,-122.08144250000001,37.396853,Christian Casillas,754735061614759936,2020-02-28 02:41:30,"Oakland, CA",city,"Mountain View, CA",United States
41860,-122.22972,37.8225715,Christian Casillas,754735061614759936,2020-02-28 18:34:39,"Oakland, CA",city,"Piedmont, CA",United States
41940,-122.08144250000001,37.396853,Christian Casillas,754735061614759936,2020-03-01 01:23:40,"Oakland, CA",city,"Mountain View, CA",United States
41860,-122.43597849999999,37.7706565,Christian Casillas,754735061614759936,2020-03-04 02:25:27,"Oakland, CA",city,"San Francisco, CA",United States
41940,-122.14403,37.414371,Christian Casillas,754735061614759936,2020-03-06 04:13:10,"Oakland, CA",city,"Palo Alto, CA",United States
41860,-122.0857755,37.64127050000001,Christian Casillas,754735061614759936,2020-03-07 08:10:41,"Oakland, CA",city,"Hayward, CA",United States
41940,-122.08144250000001,37.396853,Christian Casillas,754735061614759936,2020-03-08 21:03:17,"Oakland, CA",city,"Mountain View, CA",United States
41860,-122.0857755,37.64127050000001,Christian Casillas,754735061614759936,2020-03-11 03:20:20,"Oakland, CA",city,"Hayward, CA",United States
41940,-122.08144250000001,37.396853,Christian Casillas,754735061614759936,2020-03-11 21:57:43,"Oakland, CA",city,"Mountain View, CA",United States
41860,-122.22972,37.8225715,Christian Casillas,754735061614759936,2020-03-13 16:51:55,"Oakland, CA",city,"Piedmont, CA",United States
41940,-122.08144250000001,37.396853,Christian Casillas,754735061614759936,2020-03-14 03:08:09,"Oakland, CA",city,"Mountain View, CA",United States
41860,-122.22972,37.8225715,Christian Casillas,754735061614759936,2020-03-14 17:17:34,"Oakland, CA",city,"Piedmont, CA",United States
21,-43.408733000000005,-22.674533,mari,754735134490886144,2020-02-27 15:27:12,"Rio de Janeiro, Brasil",poi,Stio Floresta Encantada,Brasil
186,-5.59366,42.59863,DoloresSonAmores,754735482337169408,2020-05-07 09:09:30,Sagron Mis,poi,Donner Kebab,Espaa
193,100.58502702,13.78118052,,754735729,2020-02-26 14:00:35,,city,", ",
211,-66.930644,10.483539,simon alberto,75473618,2020-02-14 21:18:32,"10.507688,-66.901334",city,"Caracas, Venezuela",Venezuela
175,43.563329,26.198179999999997,   ,754736243263598592,2020-04-06 19:04:06,  ,city,"Al Bukairiyah, Kingdom of Saudi Arabia",Kingdom of Saudi Arabia
19820,-82.42589361,42.97884853,A Slice of Heaven,75473662,2020-02-20 03:33:31,"Chesterfield, MI",city,"Port Huron, MI",United States
33100,-80.08967343,26.68684994,A Slice of Heaven,75473662,2020-06-09 16:30:21,"Chesterfield, MI",city,"West Palm Beach, FL",United States
200,34.580785999999996,36.7911585,yusuf kenan okul,754736894,2020-03-26 12:35:04,"Mezitli, Mersin",city,"Yeniehir, Trkiye",Trkiye
200,29.0052225,41.0213205,Necati Serbest,75473691,2020-02-16 18:30:03,"Beikta, stanbul",city,"stanbul, Trkiye",Trkiye
175,46.685077,24.7219435,     ,754737086641602560,2020-02-17 05:40:05,",   ",city,",   ",  
175,46.685077,24.7219435,Alhanouf.,754737324618084352,2020-02-16 08:09:23,Kingdom of Saudi Arabia,city,"Riyadh, Kingdom of Saudi Arabia",Kingdom of Saudi Arabia
40220,-79.95791,37.2744885,Nabeehah bint Brown,754737370608599040,2020-03-14 21:33:59,,city,"Roanoke, VA",United States
205,-0.47672,51.640620500000004,Lucy Gwynne-Evans,754737385406140416,2020-03-04 12:37:44,"England, United Kingdom",city,"Rickmansworth, East",United Kingdom
178,18.867002,-33.878089,IOL Lifestyle,754737392,2020-02-27 11:39:50,South Africa,poi,The Gate Restaurant,South Africa
96,48.084932,29.263298,SA,754737514460610562,2020-02-20 14:47:20,,poi,Miss Platinum Gym,Kuwait
96,48.080389000000004,29.238840999999997,AM,754737869042937856,2020-05-24 05:42:28,Kuwait,poi,Aladan block 7,Kuwait
49,-78.81666667,-1.46666667,Christian Merchan,754738302,2020-02-17 04:05:51,"Belleville, NJ",city,"Guano, Ecuador",Ecuador
21,-42.2508595,-8.330540500000001,Z,754738525602537472,2020-03-24 02:52:19,"Teresina, Brasil",city,"So Joo do Piau, Brasil",Brasil
21,-43.441578,-22.911421500000003,S E T T H ,75473854,2020-02-14 10:23:04,Rio de Janeiro,city,"Rio de Janeiro, Brasil",Brasil
171,125.4432615,7.317582499999999,iamjess_08,754738597090037760,2020-05-08 19:13:06,"Davao City, Davao Region",city,"Davao City, Davao Region",Republic of the Philippines
88,139.810157,35.6450615,,75473862,2020-02-19 15:42:23,,city, ,
178,30.8856895,-29.971378,Dr Sizwe Luthuli,754738665314811906,2020-02-14 21:26:14,"Durban, South Africa",city,"Umlazi, South Africa",South Africa
37980,-75.71401999999999,39.83850999,Lynn Roberts,75473874,2020-03-02 14:09:00,i'm here.,city,"Kennett Square, PA",United States
35620,-73.9685415,40.780709,David Aaron Hahn,754738837822312448,2020-02-25 13:07:32,"Manhattan, NY",city,"Manhattan, NY",United States
21,-43.803105,-22.879409,Everton,754739278245232640,2020-04-23 02:05:28,,city,"Itagua, Brasil",Brasil
82,72.87424399999999,19.174139999999998,Sachin,754740127260377092,2020-05-06 16:44:45,"Mumbai, India",city,"Mumbai, India",India
88,139.4723315,35.75792350000001,,754740127520350208,2020-03-02 12:38:43,,city, ,
200,27.2163105,38.4637604,Huseyin Sadic,754740131911897088,2020-05-06 12:39:57,,city,"zmir, Trkiye",Trkiye
203,39.229303,-6.876761999999999,KING LEOPARD III ( Leopardo Ngetwa),754740179697594369,2020-04-26 15:01:33,"Dar es Salaam, Tanzania",poi,Mwisho Wa Lami Bus Station,Tanzania
82,72.87424399999999,19.174139999999998,Navneet goud,754740210609614848,2020-05-15 01:58:18,"Maharashtra, India",city,"Mumbai, India",India
119,-89.3616395,21.25045,Ray Vivas,75474079,2020-06-07 01:11:48,,city,"Dzemul, Yucatn",Mexico
88,135.44021049999998,34.551635499999996,,75474089,2020-02-19 23:34:10,  ,city,  ,
119,-99.2115105,19.4299345,Diego A. Ramos Meja,754741262,2020-03-02 23:07:18,,city,"Miguel Hidalgo, Distrito Federal",Mxico
88,139.6345155,35.636514,Ryu9846,75474163,2020-02-14 12:11:19,,city, ,
193,100.628344,13.7254145, ,754742004,2020-04-11 10:34:26,,city,", ",
242,121.565941,23.980464,"Huang,Min-Hong",754742253529145344,2020-03-19 20:11:55,", ",poi,,
222,106.89145,-6.3330255,Afrida Damayanti,75474252,2020-02-20 22:44:14,Indonesia,city,"Ciracas, Indonesia",Indonesia
151,7.181069,9.1982875,papa's gurl ,754742561806413828,2020-06-10 12:36:41,Nigeria,city,"Suleja, Nigeria",Nigeria
19100,-96.9709515,32.6428745,Horny...,754742687593410560,2020-02-14 00:19:39,Pleasant grove,neighborhood,"Duncanville - Cedar Hill, Dallas",United States
43340,-93.66637800000001,32.5246725,DickPleaser,754742687593410560,2020-02-29 15:56:55,"Dallas, TX",city,"Bossier City, LA",United States
19100,-96.7617535,32.819858499999995,DickPleaser,754742687593410560,2020-03-04 04:01:45,"Dallas, TX",city,"Dallas, TX",United States
186,-2.441854,42.4745165,centrosostenibleRioj,754743054,2020-02-27 08:54:12,Logroo,city,"Logroo, Espaa",Espaa
35620,-74.214139,40.766601,woodson,754743144252575744,2020-03-16 15:21:42,United States,city,"East Orange, NJ",Etats-Unis
82,77.30340600000001,19.162146,  (),754743502240710656,2020-02-23 17:10:38,"Pune, India",poi,"Nanded, Maharashtra",India
205,-0.0875781,51.5135756,Damon Powell,75474397,2020-02-25 15:38:14,,city,"City of London, London",United Kingdom
205,-1.5186514999999998,52.411913,Jjf,754744300563488768,2020-02-15 12:35:19,,city,"Coventry, England",United Kingdom
24,-115.5688185,51.177144,Manu Verma,754744542058930176,2020-02-24 22:17:55,"Oxford, England",city,"Banff, Alberta",Canada
205,-1.2334334999999998,51.75428599999999,Manu Verma,754744542058930176,2020-03-10 13:08:21,"Oxford, England",city,"Oxford, England",United Kingdom
200,28.920664,41.0746465,Aye Akyol,754744607334887424,2020-04-23 18:11:30,,neighborhood,"Yeilpnar, stanbul",Trkiye
50,31.384466999999997,31.040364,   ,754744711299141636,2020-02-28 09:32:02,"Port Said, Egypt",poi,Mansoura | ,Egypt
222,106.93708000000001,-6.32325,cornelius silaban,75474490,2020-06-06 12:09:41,Indonesia,city,"Pondokgede, Indonesia",Indonesia
186,-3.7035075,40.4777945,IU del distrito de RETIRO (Madrid),754744960939876353,2020-02-28 20:12:52,"Madrid, Comunidad de Madrid",city,"Madrid, Espaa",Espaa
19100,-96.77439100000001,32.986424,Seth Cano  ,754745024844140544,2020-06-11 15:44:03,"Dallas, Texas",poi,GameStop,United States
178,28.060613,-26.058708,This guy,754745228494512128,2020-04-04 15:23:56,,city,"Sandton, South Africa",South Africa
21,-46.5955455,-23.682803,Gloria Moreira,754745296542924800,2020-03-25 04:08:44,,city,"Sao Paulo, Brazil",Brazil
9,135.0,-30.0,BreyFuentesFilms,754745568,2020-06-03 23:30:27,"Adelaide, South Australia",neighborhood,"Outback, Roxby Downs",Australia
175,39.2541285,21.5857105, ,754745738,2020-02-22 12:58:39,,city,",   ",  
37460,-85.2366135,30.774341999999997,tay,754746252592549889,2020-02-25 20:25:58,,city,"Marianna, FL",United States
186,0.0334635,38.791272000000006,Sofa Carrizo ,754746413347643392,2020-03-15 09:44:08,"Alicante, Espaa",city,"Pedreguer, Espaa",Espaa
222,109.92547749999999,-6.9780240000000004,teguh samudro,754746762,2020-02-14 06:01:06,"Central Java, Ambarawa",city,"Limpung, Indonesia",Indonesia
205,-0.0601675,51.5476445,Prison Bag,754746896418213889,2020-05-06 13:40:59,,city,"Hackney, London",United Kingdom
65,2.33287,48.911783,,754746911408652288,2020-04-17 05:47:19,,city,"Saint-Ouen, France",France
15380,-78.76463150000002,43.00911650000001,Jan Wopperer,754747,2020-02-20 02:16:25,"Buffalo, NY",city,"Amherst, NY",United States
91,36.708234499999996,-1.3770995000000001,WAZIMU_MKUU,754747738810683392,2020-06-03 19:13:32,"Rongai, Kenya",city,"Ngong, Kenya",Kenya
205,-6.65348,54.349090000000004,The Craic'd Pot Coffee House,754747750412091392,2020-05-31 10:02:33,"Armagh, Northern Ireland",city,"Armagh, Northern Ireland",United Kingdom
91,36.863620000000004,-1.2748635,bismackmusyoki,754747873628196865,2020-06-05 12:45:37,,city,"Nairobi, Kenya",Kenya
120,101.690659,3.0642635,Alvin Lim,75474797,2020-03-20 09:04:00,Kuala Lumpur,city,"Petaling, Wilayah Persekutuan Kuala Lumpur",Malaysia
12060,-84.38715119,33.82181612,Dubbs,754747978410299392,2020-04-06 22:13:20,"Atlanta, GA",city,"Atlanta, GA",United States
34940,-81.7123585,25.9413035,Dubbs,754747978410299392,2020-05-15 21:10:04,"Atlanta, GA",city,"Marco Island, FL",United States
2,-0.6297515,35.682718,chouarfia,754748052548837377,2020-05-24 17:30:46,Oran                          ,city,"Oran                                                                                                , Algeria",Algrie
22860,-93.1852495,31.1057345,,754748731,2020-04-19 04:27:13,Louisiana,city,"Fort Polk North, LA",United States
21,-48.3585835,-19.0043915,"DotadoUdi 88,6K",754748743036067840,2020-02-24 00:36:31,"Minas Gerais, Brasil",city,"Uberlndia, Brasil",Brasil
8,-58.85741850000001,-34.451336999999995,ulises,754748989564657665,2020-04-14 03:15:50,"Pilar, Argentina",city,"Pilar, Argentina",Argentina
44700,-121.436217,37.72335,,754749033495666688,2020-02-22 04:21:05,i dont like bri,city,"Tracy, CA",United States
71,8.686753,50.114571000000005,Juli,754749074440585216,2020-03-22 17:05:24,"Frankfurt am Main, Hessen",poi,Konstablerwache,Germany
222,111.4667,-7.864919,Zack,754749282,2020-04-15 12:32:59,Jogjakarta,city,"Ponorogo, Indonesia",Indonesia
21,-49.253168,-25.46203,Dudinha Moreno,754749670388273157,2020-02-16 15:50:55,"So Jos dos Pinhais, Brasil",poi,Usina 5,Brasil
205,-3.2030084999999997,55.943195499999995,Kirsten Murray,754750078888341504,2020-02-14 23:14:29,"Edinburgh, Scotland",city,"Edinburgh, Scotland",United Kingdom
128,4.5689595,51.018511,sofie,754750130801303552,2020-03-15 12:04:19,,city,"Bonheiden, Belgi",Belgi
88,140.06790800000002,35.62453,YASU,754750477112217600,2020-03-06 21:52:24,  ,city,  ,
21,-48.65528,-26.89961,Dionatan Lencina,754750564819427329,2020-03-21 11:18:58,onde o Grmio estiver,city,"Navegantes, Brasil",Brasil
82,80.88440750000002,26.8251695,Amit verma,754750671849680896,2020-05-09 08:46:13,,city,"Lucknow, India",India
21,-44.722149,-23.349705,Anaa,754750811972993026,2020-02-25 19:32:26,"Aparecida, Brasil",poi,"Pousada Do Pele, Trindade, RJ",Brasil
119,-99.2480095,19.318042000000002,Gaby,754750822529892352,2020-03-04 21:41:06,,city,"lvaro Obregn, Distrito Federal",Mxico
113,-6.7426710000000005,33.9830635,AGENT 49,754750936136949760,2020-02-14 12:20:37,"Rabat, Rabat - Sal - Zemmour ",city,"Hssaine, Royaume du Maroc",Morocco
82,78.3825,17.517,Rajesh Sahu,754751234641371136,2020-05-23 11:09:02,"Hyderabad, India",poi,Post Office,India
173,37.744378999999995,55.688008999999994,Schnappi,754751630524973056,2020-03-21 17:41:58,", ",poi, ,
200,32.510724,37.870034, ,754751789887524864,2020-03-14 18:31:45,,city,"Konya, Trkiye",Trkiye
82,88.1329425,25.00834,Arghyadeep Das,754751796598411264,2020-04-08 14:51:55,"English Bazar, India",city,"English Bazar, India",India
21,-40.650258,-19.7283195,Zoneira ,754751804634726401,2020-02-15 04:43:01,vv / ifst,city,"So Roque do Cana, Brasil",Brasil
96,47.963225,29.3247565,Sarah AlBanaa,754751855155089408,2020-03-07 17:08:35,,city,"Al Khaldiya, Kuwait",Kuwait
96,48.064601,28.562773999999997,.  ,754751959614296065,2020-03-06 20:21:01, ,poi,Al-wafrah | , 
171,125.4432615,7.317582499999999,OldeizZzz,754751992761679873,2020-02-14 01:11:14,221B Baker Street ,city,"Davao City, Davao Region",Republic of the Philippines
222,115.15767683,-8.683549900000001,Jacob Gatot Surarjo,75475281,2020-02-19 03:50:16,Jkt - Ubud,city,"Kuta, Indonesia",Indonesia
21,-43.277097999999995,-22.893117,.,754752855614033920,2020-02-23 02:32:50,exausta,poi,Praa Ava,
42660,-122.3306025,47.614816999999995,Anthony Ramirez II,7547532,2020-02-14 14:08:00,"Bronx, NY",city,"Seattle, WA",United States
35620,-73.888233,40.854198,Anthony Ramirez II,7547532,2020-02-17 14:17:05,"Bronx, NY",poi,The Bronx Beer Hall,United States
36420,-97.552161,35.4828435,Anthony Ramirez II,7547532,2020-03-14 12:41:15,"Bronx, NY",city,"Oklahoma City, OK",United States
35620,-73.8494415,40.8503475,Anthony Ramirez II,7547532,2020-03-15 13:32:31,"Bronx, NY",city,"Bronx, NY",United States
36420,-97.552161,35.4828435,Anthony Ramirez II,7547532,2020-03-24 13:28:32,"Bronx, NY",city,"Oklahoma City, OK",United States
35620,-73.8494415,40.8503475,Anthony Ramirez II,7547532,2020-03-25 13:14:22,"Bronx, NY",city,"Bronx, NY",United States
88,139.14912099999998,35.254017499999996,Anthony Ramirez II,7547532,2020-03-30 14:02:30,"Bronx, NY",city,"Odawara-shi, Kanagawa",Japan
35620,-73.8494415,40.8503475,Anthony Ramirez II,7547532,2020-03-31 13:01:51,"Bronx, NY",city,"Bronx, NY",United States
36420,-97.552161,35.4828435,Anthony Ramirez II,7547532,2020-04-20 12:54:09,"Bronx, NY",city,"Oklahoma City, OK",United States
35620,-73.8494415,40.8503475,Anthony Ramirez II,7547532,2020-04-21 13:22:11,"Bronx, NY",city,"Bronx, NY",United States
14460,-71.0887125,42.3136695,Anthony Ramirez II,7547532,2020-05-12 12:35:09,"Bronx, NY",city,"Boston, MA",United States
35620,-73.888233,40.854198,Anthony Ramirez II,7547532,2020-05-15 12:39:25,"Bronx, NY",poi,The Bronx Beer Hall,United States
36420,-97.975903,35.522607,Anthony Ramirez II,7547532,2020-05-25 13:09:56,"Bronx, NY",city,"El Reno, OK",United States
35620,-73.8494415,40.8503475,Anthony Ramirez II,7547532,2020-05-26 12:56:46,"Bronx, NY",city,"Bronx, NY",United States
200,40.21988399999999,40.255324,Harun Reit ASAN,754753485892161536,2020-02-23 16:36:42,,city,"Bayburt, Trkiye",Trkiye
88,139.04770000000002,37.177157,,754753932522422272,2020-02-14 21:30:03,,city, ,
82,88.502579,22.563368,Hitesh Goenka,754754051070423041,2020-04-04 16:24:21,"Pune, India",city,"Bidhan Nagar, India",India
205,-4.095619,50.507271,Karen Jones,754754094,2020-03-10 22:43:47,"Horrabridge, England",city,"Horrabridge, England",United Kingdom
82,72.57023199999999,23.013959,Shail Shah,754754189914312704,2020-03-24 17:17:06,Ahmedabad,city,"Ahmadabad City, India",India
96,48.09668606,29.13593787,,754754295761870849,2020-06-10 18:33:01,,city,"Hadiya, Kuwait",Kuwait
82,72.87424399999999,19.174139999999998,Prashant Kondi,75475443,2020-04-09 03:07:21,"Mumbai, India",city,"Mumbai, India",India
175,39.2541285,21.5857105,  ,754754503929393152,2020-05-13 13:13:34, /  ,city,"Jeddah, Kingdom of Saudi Arabia",Kingdom of Saudi Arabia
200,32.841937,40.000465999999996,-NaZeyy-,754754755478560768,2020-02-14 08:59:44,"Ankara, Trkiye",city,"Keiren, Trkiye",Trkiye
205,-3.022129,53.7998515,Maria Lee,754754773455368192,2020-02-16 21:04:36,"Blackpool, England",city,"South Shore, England",United Kingdom
205,1.2730815,52.641482999999994,Richard Lewis Evans,754754808112906241,2020-04-06 07:12:07,"England, United Kingdom",city,"Norwich, England",United Kingdom
200,29.308912,40.490369,emy set,754754897996836864,2020-03-30 12:01:44,,poi,Orhangazi Meydan,Trkiye
33100,-80.3046625,25.857732000000002,Medley Police,754755008,2020-02-14 16:25:46,"7777 NW 72 Ave. Medley, FL.",city,"Hialeah, FL",United States
40060,-77.35736499999999,37.6233055,Britt,754755818331906048,2020-02-14 15:55:12,"Ashland, VA",city,"Mechanicsville, VA",United States
41420,-123.02901499999999,44.935084,Omar Edmison,754756480247615489,2020-02-14 16:30:23,"Salem, OR",city,"Salem, OR",United States
38900,-122.630908,45.536402,Omar Edmison,754756480247615489,2020-02-20 14:11:36,"Salem, OR",city,"Portland, OR",United States
41420,-123.02901499999999,44.935084,Omar Edmison,754756480247615489,2020-02-25 17:13:49,"Salem, OR",city,"Salem, OR",United States
186,-3.7035075,40.4777945,Joseeeeee,754756789,2020-02-15 21:28:37,,city,"Madrid, Espaa",Espaa
205,-0.159403,51.5424365,fc kapstadt,754757137,2020-02-26 09:36:36,Hartleyvale Stadium,city,"Camden Town, London",United Kingdom
178,18.4890615,-34.1216575,fc kapstadt,754757137,2020-02-27 13:32:18,Hartleyvale Stadium,city,"Cape Town, South Africa",South Africa
21,-43.596945500000004,-22.9018419,Monica Alves ,754757199092736000,2020-02-20 21:23:17,"Rio de Janeiro, Brasil",city,"Rio de Janeiro, Brasil",Brasil
151,3.3386055,6.4931125000000005,Agboti Hero,754757210320805889,2020-03-16 11:50:56,"Lagos, Nigeria",city,"Lagos, Nigeria",Nigeria
186,-7.037386,39.3383915,Reme B.,754757226607378433,2020-03-30 16:28:55,"San Vicente de Alcntara, Espa",city,"San Vicente de Alcntara, Espaa",Espaa
82,85.834653,20.239102,Detour Odisha,754757787721150464,2020-05-28 07:30:34,"Bhubaneshwar, India",poi,Bindusagar Lake,India
33100,-80.22420326,26.13786718,S T I K K,754757989861560320,2020-02-19 04:28:04,Da dale,city,"Lauderhill, FL",United States
26420,-95.277322,29.666294,ju$tin,754758022333947904,2020-03-28 15:35:35,witmygirl,poi,At Work,United States
19740,-104.9220935,39.713563,Khem Suthiwan,75475808,2020-04-17 03:53:17,"Denver, CO",city,"Denver, CO",United States
71,7.1081984,50.7019264,DZNE_de,754758247,2020-02-14 10:05:07,Bonn,city,"Bonn, Deutschland",Deutschland
171,121.0393165,14.2994805,,754758471522725889,2020-02-18 02:43:40,@Janjalanyys ,city,"Carmona, Calabarzon",Republic of the Philippines
151,7.422322500000001,10.511245,Mahmud diggi,754758527273594881,2020-04-27 12:22:55,"Kaduna, Nigeria",city,"Kaduna, Nigeria",Nigeria
200,36.5527095,40.320624,sakip,754758529106542592,2020-02-15 13:26:48,,city,"Tokat, Trkiye",Trkiye
82,77.550599,28.499759,Vinit Pratap Singh,75475884,2020-03-22 05:26:59,"Greater Noida, India",city,"Greater Noida, India",India
21,-40.303863,-20.139694,sunflower,754759122889957376,2020-03-30 19:08:25,"Serra, Brasil",city,"Serra, Brasil",Brasil
82,77.095086,28.638489500000002,Dheeraj Tandon,754759167852810241,2020-03-23 13:56:10,"Jahangirpuri, New Delhi",city,"New Delhi, India",India
85,7.6757855,45.072872499999995,Manolo Chirico,754759244,2020-05-31 18:51:22,Torino,city,"Torino, Piemonte",Italia
24,-72.38417749999998,46.3214315,GUY LEVASSEUR,754759730,2020-02-22 16:40:01,"BCANCOUR , Qubec",city,"Bcancour, Qubec",Canada
34180,-119.3025115,47.1208365,Judy Brady,75476011,2020-02-26 19:51:40,Kansas,city,"Moses Lake, WA",United States
200,35.28488,37.002826500000005,Matmazel Bra,754760189895647233,2020-04-18 22:53:19,"Adana, Trkiye",city,"Adana, Trkiye",Trkiye
38,-75.619213,6.270883,Nanda,75476038,2020-03-22 23:15:21,,city,"Medelln, Colombia",Colombia
34820,-78.878866,33.703390500000005,Trisha,754760700288000000,2020-03-19 16:16:36,"Myrtle Beach, SC",city,"Myrtle Beach, SC",United States
18140,-82.985772,39.9946835,Abbie Thompson,754761196478328832,2020-03-03 13:38:07,"Columbus Ohio, USA",city,"Columbus, OH",United States
82,88.352242,22.6127055,Amit Kumar Sharma,754761360911634432,2020-02-14 07:19:34,Kolkata ,city,"Kolkata, India",India
21,-43.446886000000006,-22.8025775,Anderson Luiz,75476148,2020-06-07 05:10:04,,city,"Mesquita, Brasil",Brasil
31080,-118.48042,34.022688,aaliyah ,754761623672205317,2020-05-16 04:25:46,You aint shit,city,"Santa Monica, CA",United States
33100,-80.11290349999999,26.533486,soph,754761643,2020-02-24 02:08:34,,city,"Boynton Beach, FL",United States
186,-3.5530885000000003,40.428678999999995,AM,75476197,2020-02-17 14:44:40,Saturno,city,"Coslada, Espaa",Espaa
178,31.064557500000003,-29.7345555,teejay,75476202,2020-02-14 04:37:00,"Umhlanga, South Africa",city,"Umhlanga, South Africa",South Africa
161,67.17028049999999,24.8364355,Dr Imran Usmani,754762189,2020-04-13 00:45:48,"Sindh, Pakistan",city,"Goth Sabro, Pakistan",Pakistan
205,-0.882951,52.238853999999996,Max Murray,754762545563656192,2020-03-20 09:36:52,"Northampton, England",city,"Northampton, England",United Kingdom
151,3.5018455000000004,6.441530500000002,Faya man,754762565490765824,2020-04-01 10:26:14,"Lagos, Nigeria",city,"Victoria Island, Nigeria",Nigeria
42660,-122.23299999999999,47.6266,Toni Page CBBain,754762600139718656,2020-02-25 21:59:21,"Kirkland, WA",city,"Medina, WA",United States
37980,-75.0228875,39.83687000000001,CherB ,754762622084546560,2020-03-03 00:58:16,State of NJ born & raised,city,"Hi-Nella, NJ",United States
205,-6.4872335,54.3967635,Godfrey,754762785528176640,2020-04-03 23:13:39,,city,"Drumnasoo, Northern Ireland",United Kingdom
186,-3.3656230000000003,40.496023,Laura Fernndez,754762877739892736,2020-02-14 13:26:36,Madrid ,city,"Alcal de Henares, Espaa",Espaa
175,46.685077,24.7219435, 11,754763206258745344,2020-02-28 14:34:02,,city,",   ",  
171,124.4733135,11.3291735,Jappet Alicer,754763299,2020-02-23 00:56:01,Cebu City,city,"Leyte, Eastern Visayas",Republic of the Philippines
222,107.5366,-6.8838,Oktavianus R.Manjoe,754763351851307008,2020-03-19 06:37:10,"Bandung, Jawa Barat",city,"Cimahi Tengah, Indonesia",Indonesia
21,-43.879661,-19.79768,Juanita Goncalves,754763585029607424,2020-03-04 18:47:05,Santa Luzia,poi,Lupus Alimentos,Brasil
41980,-66.14052050000001,18.116260999999998,Julin Soto,754763603341828097,2020-05-02 01:49:54,"Puerto Rico, USA",city,"Monte Llano, USA",United States
222,108.44286399999999,-7.3284294999999995,Moch Fikri,754763906,2020-02-24 08:34:34,Ciamis,city,"Cijeungjing, Indonesia",Indonesia
120,101.52463603,3.06970176,Ikmal Ikram,754763971,2020-02-14 13:23:27,Bandar Shah Alam,city,"Petaling Jaya, Selangor",Malaysia
175,39.6540485,24.462089000000002, ,754764096797638656,2020-05-23 00:46:47, ,city," ,   ",  
120,101.46101986,3.10899311,,754764308253319168,2020-02-29 04:42:58,,city,"Bukit Raja, Selangor",Malaysia
200,32.510724,37.870034,Ali Akarsu,754764310744825856,2020-05-29 21:10:30,"Mula, Trkiye",city,"Konya, Trkiye",Trkiye
51,-6.247621499999999,53.3549025,cancerihanna,75476493,2020-02-17 19:15:07,,city,"Dublin City, Ireland",Irlanda
222,106.837755,-6.293493,MASBUN,75476504,2020-05-11 05:40:02,"Bogor, Indonesia.",city,"Pasar Minggu, Indonesia",Indonesia
38060,-112.1246765,33.5528625,veronica everheart,754765106941001728,2020-02-14 02:52:23,"Phoenix, AZ",city,"Phoenix, AZ",United States
49,-79.62191700000001,0.8070495,Ivn E. Flores,75476512,2020-04-13 02:49:59,Ecuador,city,"Esmeraldas, Ecuador",Ecuador
200,29.0052225,41.0213205,Ayse Ckn,754765238789169152,2020-02-18 00:06:04,,city,"stanbul, Trkiye",Trkiye
88,139.815545,35.715131,,754765762020069377,2020-03-07 21:34:20,2.5,city, ,
200,28.999812,41.08328,Ula Yurtseven,754765885315964928,2020-05-27 13:25:47,"Massachusetts, USA",poi,Bykdere Caddesi,Trkiye
88,127.768627,26.303551000000002,comfy,754765929829969920,2020-02-21 12:47:33,"Tokyo, Japan",poi,Ocean Breeze Restaurant & Bar,Japan
200,42.11958,38.411961,Neriman ALTUN,754766476884803584,2020-04-23 10:55:24,,city,"Bitlis, Trkiye",Trkiye
82,88.34891,22.502779999999998,Rj shelee,75476655,2020-03-10 02:55:48,City of JOY,city,"Kolkata, India",India
178,24.763833,-28.745686,Duke of Kimberley,754766815,2020-04-10 14:37:21,"Northern Cape,Kimberley",city,"Kimberley, South Africa",South Africa
151,3.357624,6.483104,Timitubor,754767055895793664,2020-02-21 12:01:52,"Lagos, Nigeria",poi,Tolaram group,Nigeria
200,33.53667,39.845613,Mustafa KURTOLU,754767134199279616,2020-05-07 22:34:26,,city,"Krkkale, Trkiye",Trkiye
39820,-122.377554,40.592326,ksapp,75476714,2020-05-31 05:28:21,in my head,poi,Sundial Bridge,United States
88,139.543121,35.7362125,,754767245931196416,2020-06-10 00:23:31,,city, ,
178,28.009696999999996,-26.283306,IG: @gocksdarapper_,754767363644485632,2020-04-29 12:01:25,Polokwane ,poi,Klipriviersberg Nature Reserve,South Africa
88,140.426806,35.534121,@,75476751,2020-04-03 04:06:57,,city, ,
65,-0.371959,49.184634499999994,Adelaide,754767558700662784,2020-02-17 22:36:19,"Caen, France",city,"Caen, France",France
171,119.9736595,16.1596065,Jessy,754767691,2020-05-30 10:03:05,Architecture  SLU,city,"Alaminos City, Ilocos Region",Republic of the Philippines
18700,-123.27934350000001,44.5692455,cali,754767852805107712,2020-02-14 08:11:46,"Corvallis, OR",city,"Corvallis, OR",United States
186,-5.1124565,36.461186,Bonny Gombert,754768031172202496,2020-03-29 19:41:11,"Marbella, Spain",city,"Estepona, Spain",Spain
38900,-122.678249,45.518237,pdxpopnow,7547682,2020-02-18 19:17:38,"Portland, Oregon",city,"Portland, OR",United States
90,35.869455,32.013341, ,754768423654129664,2020-02-18 17:42:20,Kuwait,poi,Starbucks,  
21,-34.883392,-7.117533,Henrique Fox,754768474359132160,2020-02-25 19:00:09,"Joo Pessoa, Brasil",poi,Praa Baro do Rio Branco,Brasil
128,4.0733855000000005,50.94709450000001,Fleur,754768716,2020-02-14 14:58:55,Belgium,city,"Aalst, Belgi",Belgium
47900,-77.418002,39.4320365,kencel,754768717226147840,2020-04-24 00:14:38,Search And Destroy On NukeTown,city,"Frederick, MD",United States
24,-116.21688200000001,51.417719,Tiffany Chow,75476890,2020-02-14 18:29:15,"Richmond, British Columbia",poi,The Fairmont Chateau Lake Louise,Canada
8,-63.24790600000001,-32.41044,,754768924781207552,2020-02-17 02:59:50,Argentina,city,"General San Martn, Argentina",Argentina
205,-3.172068,51.478796,han 1975,754769426596126720,2020-02-23 23:58:46,she/her,poi,Motorpoint Arena Cardiff,United Kingdom
33100,-80.369153,25.8256435,  ,754770549352562689,2020-02-14 08:23:41,Kuwait | Miami | Morgantown,city,"Doral, FL",United States
41980,-66.058368,18.384165499999998,  ,754770549352562689,2020-02-28 17:53:35,Kuwait | Miami | Morgantown,city,"San Juan, USA",United States
172,-66.0116515,18.4408955,  ,754770549352562689,2020-03-01 14:06:04,Kuwait | Miami | Morgantown,city,"Isla Verde, USA",United States
33100,-80.2333285,25.7823535,  ,754770549352562689,2020-03-02 02:05:13,Kuwait | Miami | Morgantown,city,"Miami, FL",United States
21340,-106.403015,31.817228000000004,  ,754770549352562689,2020-04-30 14:08:52,Kuwait | Miami | Morgantown,poi,Airport Road,United States
19100,-97.079654,32.931834,  ,754770549352562689,2020-04-30 21:23:42,Kuwait | Miami | Morgantown,city,"Grapevine, TX",United States
96,47.99945099999999,29.2747135,  ,754770549352562689,2020-05-01 18:10:41,Kuwait | Miami | Morgantown,city,"Zahra, Kuwait",Kuwait
13140,-94.12863349999999,30.086918,B Cole ,754770684623015936,2020-02-14 23:07:24,,city,"Beaumont, TX",United States
119,-99.65569258,19.29010009,DANIEL PEA (punks),75477070,2020-02-22 18:45:54,toluca estado de mexico,city,"Toluca, Mxico",Mxico
88,139.46074963,35.89527331,waku,754770708,2020-02-14 08:48:02,,city, ,
-9999,-103.00586650000001,42.82884900000001,Elijah Myles,754770745717174276,2020-02-25 02:12:01,"California, USA",city,"Chadron, NE",United States
31080,-118.34613799999998,33.914068,Elijah Myles,754770745717174276,2020-03-23 04:46:36,"California, USA",city,"Hawthorne, CA",United States
82,91.55975749999999,26.259671,Chandan Pandey,754770820942204928,2020-04-06 04:07:40,"Guwahati, India",city,"Guwahati, India",India
200,27.896022,39.649682,rfan Fazl Kurban,754770998436761600,2020-03-31 13:43:41,,city,"Balkesir, Trkiye",Trkiye
24,-73.723025,45.5578305, ,75477106,2020-02-14 00:45:14,Canada,city,"Montral, Qubec",Canada
151,7.0312755000000005,4.82463,benson praise,754771195,2020-04-22 15:47:07,Owerri nigeria,city,"Port Harcourt, Nigeria",Nigeria
82,77.597645,12.971117,GUNA,75477124,2020-03-27 04:22:13,Bangalore,city,"Bengaluru, India",India
151,7.424094,9.073663999999999,SKB ,754771444547063808,2020-04-12 18:14:14,,city,"Abuja, Nigeria",Nigeria
200,32.619817,40.081285,Alaattin Orkun Ezgin,754771516462620673,2020-05-06 12:24:37,"Ankara, Trkiye",poi,4.Ana Jet F-16 Simlasyon Merkezi,Trkiye
24,-114.07841,51.043440000000004,POTENT,75477157,2020-03-03 15:28:45,Canada,city,"Calgary, Alberta",Canada
175,46.685077,24.7219435,  ,754772038695391232,2020-05-19 21:47:37,,city,",   ",  
47900,-77.0143985,38.898603,NMIdemocrats,754772195344285696,2020-03-08 13:22:02,Mariana Trench,city,"Washington, DC",United States
40140,-117.58565800000001,33.859093,Bob Rhodes,75477233,2020-02-15 18:13:08,"San Diego, CA",city,"Corona, CA",United States
41740,-117.10498899999999,32.810012,Bob Rhodes,75477233,2020-02-27 23:20:40,"San Diego, CA",city,"San Diego, CA",United States
200,28.3556,40.2137,Hasan Gleryz,754772351737327620,2020-04-15 19:17:09,"Bursa, Trkiye",city,"Karacabey, Trkiye",Trkiye
151,7.422322500000001,10.511245,Excellency,754772407831986177,2020-04-14 19:08:58,Excellencys castle ,city,"Kaduna, Nigeria",Nigeria
222,115.2261395,-8.705967999999999,,754772996,2020-03-13 05:31:16,Indonesia,city,Indonesia,Indonesia
175,39.6540485,24.462089000000002,mohammed,754773030,2020-02-14 22:51:26,,city," ,   ",  
19100,-96.439486,32.7372485,Andy Curtis,754773207912058880,2020-02-19 23:17:09,"Forney, TX",city,"Forney, TX",United States
29780,-104.675584,34.927876,Andy Curtis,754773207912058880,2020-03-12 19:04:22,"Forney, TX",city,"Santa Rosa, NM",United States
19100,-96.439486,32.7372485,Andy Curtis,754773207912058880,2020-03-14 23:20:55,"Forney, TX",city,"Forney, TX",United States
200,32.8183815,39.8889765,hea80,754773383406116864,2020-02-15 16:41:00,,city,"Ankara, Trkiye",Trkiye
205,-5.0243725,54.904504,Richard Gibb,754773391681417216,2020-04-17 19:55:03,"Stranraer, Scotland",city,"Stranraer, Scotland",United Kingdom
200,32.8183815,39.8889765,Seymen YILMAZ,754773410354520064,2020-04-12 20:08:17,,city,"Ankara, Trkiye",Trkiye
82,72.87424399999999,19.174139999999998,Chirag Gala,75477354,2020-02-15 18:39:40,,city,"Mumbai, India",India
21,-44.0023865,-22.9809335,OTO PATAMAR,754773735878586369,2020-03-14 11:41:52,Green Coast,city,"Mangaratiba, Brasil",Brasil
8,-64.1980255,-31.4154565,  Z  ,754773765792358400,2020-02-25 03:00:17,"Crdoba, Argentina",city,"Crdoba, Argentina",Argentina
119,-99.1614805,19.380613,Larry.Atta,75477391,2020-03-19 15:58:50,chilangolandia,city,"Benito Jurez, Distrito Federal",Mexico
16300,-91.586972,42.038363000000004,DC Murphy,75477392,2020-03-26 09:29:17,Marion ,city,"Marion, IA",United States
200,29.073317,41.014821999999995,Mustafa ZDEMR,754773991,2020-02-14 09:38:29,"Konya, Trkiye",poi,stanbul Ticaret Odas Marmara Anadolu mam Hatip Lisesi,Trkiye
200,32.680235,39.9300615,Ahmet Can Karabulut,754774205477052416,2020-02-28 14:36:02,,city,"Etimesgut, Trkiye",Trkiye
39740,-75.9250215,40.3341185,Nikki,754774214029303809,2020-02-15 17:39:16,"Reading, PA",city,"Reading, PA",United States
21,-58.7838775,-3.1354735000000002,,754774260305039360,2020-04-12 21:52:32, ,city,"Itacoatiara, Brasil",Brasil
38900,-122.62443,45.5270445,Skyler,754774411689897984,2020-06-02 05:53:12,"Eugene, OR",neighborhood,"Laurelhurst, Portland",United States
65,6.1734505,48.68805, ,754774464114593792,2020-02-18 12:57:55,"Alsace, France",city,"Nancy, France",France
21,-42.139657,-22.781072,maria ,754774558855618560,2020-02-14 15:24:55,"So Pedro da Aldeia, Brasil",city,"So Pedro da Aldeia, Brasil",Brasil
151,12.4241915,9.257031,Franklin,754775022980456448,2020-02-15 09:22:05,"Yola, Nigeria",city,"Yola, Nigeria",Nigeria
119,-98.1542665,19.0322295,Pai Mei,75477504,2020-05-22 00:05:27,Entre Puebla y Cholula,city,"Puebla, Mxico",Mxico
35620,-74.53037950000001,40.5525515,Junior Acua,754775089770557440,2020-02-18 00:33:34,"Pereira, Colombia",city,"South Bound Brook, NJ",Estados Unidos
38,-75.6123815,4.811547,Junior Acua,754775089770557440,2020-02-25 13:50:22,"Pereira, Colombia",city,"Santa Rosa de Cabal, Colombia",Colombia
200,29.0052225,41.0213205,Asuman Kabata,754775127343128577,2020-02-14 16:00:52,,city,"stanbul, Trkiye",Trkiye
96,48.0452355,29.2948815, ,754775202614153217,2020-04-01 15:24:19,The morgue  ,city,"Bayan, Kuwait",Kuwait
71,6.8143080000000005,51.238447,Krzysztof Wysocki,754775327742779397,2020-04-02 17:03:51,,city,"Dsseldorf, Deutschland",Deutschland
152,4.904053500000001,52.354728,Krzysztof Wysocki,754775327742779397,2020-04-08 18:02:58,,city,"Amsterdam, Nederland",Nederland
71,8.15119,50.049124,Krzysztof Wysocki,754775327742779397,2020-04-12 18:02:32,,city,"Walluf, Deutschland",Deutschland
128,3.714385,51.1428115,Krzysztof Wysocki,754775327742779397,2020-06-10 19:37:03,,city,"Evergem, Belgi",Belgi
10740,-106.632718,35.117002500000005, Aisaak D.L.,754775413507764224,2020-05-10 00:59:15,21 be/boi ,city,"Albuquerque, NM",United States
175,39.8016865,21.389833000000007,RAT,754775607129538561,2020-02-14 10:00:16,Kingdom of Saudi Arabia,city,"Makkah Al Mukarrama, Kingdom of Saudi Arabia",Kingdom of Saudi Arabia
21,-51.48205,-30.082578499999997,rosane eibs vieira,754775627492909056,2020-03-14 01:52:01,Eldorado Do Sul Rgdo Sul Brasi,city,"Eldorado do Sul, Brasil",Brasil
200,35.700922,38.71683,Bar YCESOY,754775810314240004,2020-03-21 19:50:51,"Kayseri, Trkiye",poi,Grpnar,Trkiye
200,36.560718,36.256963,Ali hsan Hazrlar,754775954,2020-06-06 21:34:19,,poi,Suphi imen camii,Trkiye
50,33.791037,31.139032, ,754775991076151296,2020-04-15 11:54:47,"North Sinai, Egypt",poi,El Arish Beach,Egypt
42200,-119.8286955,34.439463,diamond heart,75477622,2020-02-16 17:51:56,,city,"Goleta, CA",United States
29820,-115.13516499999999,36.060964500000004,diamond heart,75477622,2020-03-02 01:14:10,,city,"Paradise, NV",United States
31080,-118.1940255,33.938045,diamond heart,75477622,2020-03-03 00:13:34,,city,"South Gate, CA",United States
42200,-119.8550785,34.421639,diamond heart,75477622,2020-03-03 20:06:14,,city,"Isla Vista, CA",United States
31080,-118.1940255,33.938045,diamond heart,75477622,2020-05-06 16:01:36,,city,"South Gate, CA",United States
42200,-119.8286955,34.439463,diamond heart,75477622,2020-05-11 07:58:23,,city,"Goleta, CA",United States
