currentGEOID,lon,lat,name,author_Id,created_at,location,place_type,place_full_name,place_country
19740,-104.9220935,39.713563,Suzie,820707181133701123,2020-02-24 00:00:18,"Colorado, USA",city,"Denver, CO",United States
21,-42.8294125,-22.932913,Kerouac,820707264,2020-02-25 00:14:08,"Ipanema, Rio de Janeiro",city,"Maric, Brasil",Brasil
21,-43.322942,-22.847717000000003,,820708347259326467,2020-04-29 16:14:30,,poi,Monte de Iraj,Brasil
162,21.988685,50.005453,Ewa,820708356969168897,2020-02-14 08:42:25,"Rzeszw, Polska",city,"Rzeszw, Polska",Polska
175,46.685077,24.7219435,Nujood Alowais,820708454,2020-04-18 04:16:44,Riyadh.,city,",   ",  
17460,-81.6314405,41.385772499999995,Vinay Varadan,820708479845404673,2020-04-18 01:26:11,"Cleveland, OH",city,"Independence, OH",United States
8,-58.393364500000004,-34.6038445,Nico Cucaro,820708598,2020-02-17 20:59:36,Castelar,city,"Ciudad Autnoma de Buenos Aires, Argentina",Argentina
205,-0.2631405,51.5651955,Angel,820708600914055168,2020-02-15 00:29:31,"New York, NY",city,"Brent, London",Reino Unido
85,9.1593365,45.461345,Angel,820708600914055168,2020-02-19 05:01:51,"New York, NY",city,"Milo, Lombardia",Itlia
65,2.347003,48.8588335,Angel,820708600914055168,2020-02-24 11:43:37,"New York, NY",city,"Paris, France",Frana
35620,-73.9487755,40.655138,Angel,820708600914055168,2020-03-09 16:10:21,"New York, NY",city,"Brooklyn, NY",Estados Unidos
205,-1.852607,50.742268,BournemouthforEurope #FBPE,820708631532466177,2020-02-19 23:20:31,"Bournemouth, England",city,"Bournemouth, England",United Kingdom
40900,-121.375689,38.6040335,frankie,820708897488977920,2020-03-20 04:49:11,cali,city,"Arden-Arcade, CA",United States
205,-1.247061,51.609358,ilikecatsnmusic    #ivotedlabour,820709220119093249,2020-03-05 15:03:31,"South East, England",city,"Didcot, England",United Kingdom
33100,-80.3046625,25.857732000000002,Daniel Perez,820709277354655749,2020-03-27 00:17:42,"Miami, FL",city,"Hialeah, FL",United States
38060,-112.1246765,33.5528625,Jon-Michael Salter,820709488957132800,2020-03-18 11:58:02,"El Paso, TX",city,"Phoenix, AZ",United States
21340,-106.4174305,31.793368,Jon-Michael Salter,820709488957132800,2020-04-27 19:14:34,"El Paso, TX",city,"El Paso, TX",United States
30,117.26142,31.842177000000003,Osman Jama,820709531080622085,2020-03-11 12:46:05,"Anhui, People's Republic of China",poi, University of Science and Technology of China,People's Republic of China
46660,-83.074637,31.036336,Lindsay Gutierrez,820709569760546817,2020-04-09 21:11:24,Georgia - native Okie,city,"Lakeland, GA",United States
205,-1.3149375,51.7423235,John Street,82071003,2020-02-19 08:28:33,"Cumnor, England",city,"Cumnor, England",United Kingdom
21,-34.9708665,-7.795802,The Midnight Gospel,820710049073004544,2020-06-05 17:48:26,"Recife, Brasil",city,"Igarassu, Brasil",Brasil
35620,-74.2586235,40.748984,Matt Servitto,820710128,2020-03-09 20:03:30,"South Orange, NJ",city,"South Orange, NJ",United States
96,48.098507,29.166905,F A R A H ,820710151242076160,2020-02-18 17:30:48,Kuwait,poi,American College of the Middle east(ACM),Kuwait
200,29.0052225,41.0213205,F A R A H ,820710151242076160,2020-03-01 05:09:19,Kuwait,city,"stanbul, Trkiye",Turkey
205,-5.928413,54.59586899999999,LiLY,820710201192017924,2020-02-17 17:49:15,Gallifrey,city,"Belfast, Northern Ireland",United Kingdom
55,-89.3158035,13.626873499999999,Guillermo Marroqun,820710432,2020-02-15 22:32:27,"Antiguo Cuscatlan, El Salvador",city,"Antiguo Cuscatlan, El Salvador",El Salvador
31140,-85.72234549999999,38.195555,Clover,820710529,2020-04-03 23:17:03,,city,"Louisville, KY",United States
12540,-119.025163,35.3469015,Richie ,820710931,2020-02-19 00:26:30,,city,"Bakersfield, CA",United States
46060,-111.135516,32.3880115,katherina marchese,820711195,2020-02-16 00:16:48,"Tucson, AZ",city,"Marana, AZ",United States
96,47.741395000000004,29.103845,,820711250707574784,2020-03-02 11:39:59, ,poi,, 
205,-0.6013885,51.350292,Ellie Beagley,82071162,2020-02-19 21:06:53,"Chobham, England",city,"Chobham, South East",United Kingdom
178,28.217089,-25.9975615,Nhleko Logic Gajeni,820711765814218752,2020-02-22 07:19:31,"Tembisa, South Africa",city,"Tembisa, South Africa",South Africa
173,73.40781263,61.34023136,Denis Vanichkin,82071185,2020-03-02 23:35:38,,city,", ",
175,41.687540000000006,27.508333500000003,,820712357202657281,2020-02-21 10:28:36,Hail,city,",   ",  
38,-74.24367099999999,4.2622835,Andrea ,820712565344968705,2020-02-19 00:45:52, Lejos de mis dolos ,city,"Bogot, D.C., Colombia",Colombia
29700,-99.454676,27.532077,Mando Ortiz,820712809147277312,2020-02-28 13:26:11,,city,"Laredo, TX",United States
82,76.78942108,30.77863693,Anil joshi,820713326,2020-03-10 10:18:04,"Chandigarh, India",city,"Mohali, India",India
22420,-83.71890400000002,43.1045435,Kimi Wilson,820713632791142401,2020-04-17 12:49:10,,city,"Beecher, MI",United States
21,-43.441578,-22.911421500000003,Mille,820713682741186560,2020-04-28 19:15:48,em outro patamar ,city,"Rio de Janeiro, Brasil",Brasil
37340,-80.797505,28.621032,IN THE COOLER,820713818074583041,2020-04-04 10:38:52,"Oviedo, FL",poi,A. Max Brewer Memorial Bridge,
35620,-73.8311875,40.6708795,WheelFood,820713861242376192,2020-04-24 02:20:05,"New York, NY",city,"Queens, NY",United States
205,-0.278464,51.390063,Oliver Harwood-Allen,820713873187733504,2020-02-22 16:08:42,"Kingston upon Thames, London",city,"Kingston upon Thames, London",United Kingdom
33100,-80.19641200000002,25.911113,98_milhs,820714013315203072,2020-05-23 23:40:30,United States,city,"Golden Glades, FL",United States
26420,-95.4464865,29.838495,Jaye Bee,820714146585079809,2020-02-14 13:22:08,"Houston, TX",city,"Houston, TX",United States
19100,-96.7617535,32.819858499999995,Jaye Bee,820714146585079809,2020-02-16 18:06:19,"Houston, TX",city,"Dallas, TX",United States
26420,-95.4464865,29.838495,Jaye Bee,820714146585079809,2020-02-18 06:17:15,"Houston, TX",city,"Houston, TX",United States
82,79.6563199,21.17119,Sarvesh Yada,820714554678280194,2020-05-22 15:12:48,"Bhandara, India",city,"Bhandara, India",India
38900,-122.630908,45.536402,Xxcelerate,820714575091748864,2020-04-20 20:05:35,"Portland, OR",city,"Portland, OR",United States
21,-48.76867035,-26.61882578,Anderson,82071472,2020-05-17 21:48:03,Blumenau/SC,city,"So Joo do Itaperi, Brasil",Brasil
15540,-73.0822495,44.50181600000001,Tylo Ren,82071489,2020-02-14 12:19:27,"Vermont, USA",city,"Essex Junction, VT",United States
40860,-72.97371700000001,43.6057225,Tylo Ren,82071489,2020-02-16 14:08:56,"Vermont, USA",city,"Rutland, VT",United States
15540,-73.0822495,44.50181600000001,Tylo Ren,82071489,2020-02-17 11:23:59,"Vermont, USA",city,"Essex Junction, VT",United States
12740,-72.5850645,44.273787,Tylo Ren,82071489,2020-03-13 19:58:21,"Vermont, USA",city,"Montpelier, VT",United States
49340,-71.76174350000001,42.189619500000006,Tylo Ren,82071489,2020-03-14 03:54:45,"Vermont, USA",city,"Millbury, MA",United States
14460,-70.683829,41.9315925,Tylo Ren,82071489,2020-03-14 15:05:16,"Vermont, USA",city,"Plymouth, MA",United States
15540,-73.0822495,44.50181600000001,Tylo Ren,82071489,2020-03-15 11:39:24,"Vermont, USA",city,"Essex Junction, VT",United States
41980,-66.15903449999999,18.114361,TommyBichote,820715205500010496,2020-02-14 02:23:24,Puerto Rico,city,"Cayey, Puerto Rico",United States
25020,-66.16521949999999,17.998948499999997,TommyBichote,820715205500010496,2020-03-01 15:03:15,Puerto Rico,city,"Pozo Hondo, Puerto Rico",United States
41980,-66.15903449999999,18.114361,TommyBichote,820715205500010496,2020-03-01 22:43:08,Puerto Rico,city,"Cayey, Puerto Rico",United States
37980,-75.3867,40.2794,Wayne Frick,820715250,2020-05-15 22:55:02,,city,"Harleysville, PA",United States
205,-0.0601675,51.5476445,,820715272126525440,2020-02-28 14:07:18,,city,"Hackney, London",Storbritannien
21,-40.109235,-19.34151,Bia,820715274425012226,2020-04-24 22:30:04,"Linhares, Esprito Santo ",city,"Linhares, Brasil",Brasil
35620,-74.0064,40.7142,Qareena Ahsan,820715292,2020-06-02 14:29:44,"New York, USA",city,"Manhattan, NY",United States
15380,-78.85356300000002,42.8962295,Nell ,820715861614833664,2020-03-09 23:39:22,"Buffalo, NY",city,"Buffalo, NY",United States
200,35.152559000000004,42.021626,Duygu,82071588,2020-02-14 14:38:50,Sinop ,poi,Sinop Sahili,Trkiye
175,40.4908105,21.38543,,820716473568137217,2020-04-21 19:01:10,,city,",   ",  
37980,-75.75609850000002,39.67909349999999,Gene Coleman II,820716656,2020-02-14 17:25:06,"Montclair, NJ",city,"Newark, DE",United States
35620,-74.26299,40.7913595,Gene Coleman II,820716656,2020-03-19 00:01:17,"Montclair, NJ",city,"West Orange, NJ",United States
37980,-75.75609850000002,39.67909349999999,Gene Coleman II,820716656,2020-03-22 05:04:21,"Montclair, NJ",city,"Newark, DE",United States
205,-0.189289,51.4108755,Ailish Cleary-Vertullo,820716667445637120,2020-02-16 09:43:18,"London, UK",city,"Merton, London",United Kingdom
21,-40.2452325,-3.883402,Melim__mylover ,820716711511031809,2020-02-15 04:33:52,sobral - CE,city,"Sobral, Brasil",Brasil
88,130.439438,33.5816955,@343642,82071731,2020-02-14 14:56:53,,city,  ,
21,-50.6213465,-21.142682500000003,j me irritou dai tahhhhh,820717327738093571,2020-02-16 19:36:05,"Centro, Araatuba",city,"Araatuba, Brasil",Brasil
35620,-74.0647,40.7114,Sandra Varaques,820717351150686208,2020-04-08 08:49:55,"New York, USA",city,"Jersey City, NJ",United States
23540,-82.3302695,29.6731715,Barbara McCarthy,820717393303441408,2020-03-08 14:59:18,,city,"Gainesville, FL",United States
65,5.933468,43.13664,Carlita ,820717397028044800,2020-02-16 07:56:06,"Toulon, France",city,"Toulon, France",France
41180,-89.81327300000002,38.518271500000004,Kathleen Pierre,820717700,2020-04-21 16:35:14,GA,city,"Mascoutah, IL",United States
35620,-73.9685415,40.780709,Sungani,820717717,2020-04-29 20:43:31,NYU Zoom,city,"Manhattan, NY",United States
17140,-84.49753299999999,39.094909,B,820717717502263297,2020-02-23 20:15:49,,poi,Newport On The Levee Riverfront,United States
34860,-94.6493115,31.6139415,Jill Compton,820717872,2020-02-18 22:09:12,,city,"Nacogdoches, TX",United States
35620,-73.9487755,40.655138,SNART RIGHTS,820718196772614144,2020-02-22 13:38:43,she/they,city,"Brooklyn, NY",United States
18140,-82.40765300000002,40.079697,Fudruckers Liberation Force,820718196772614144,2020-05-03 18:22:38,she/they,city,"Newark, OH",United States
82,77.053717,28.600307,Tamal Manna,820718516982648832,2020-03-23 12:09:27,India,poi,Dwarka sector 5,India
21,-43.441578,-22.911421500000003,Paty Fiel,820718689125302273,2020-02-14 10:35:21,,city,"Rio de Janeiro, Brasil",Brasil
16980,-87.732013,41.8335845,CJ Gardiner,820718784671584257,2020-02-14 15:18:21,"Chicago, IL",city,"Chicago, IL",United States
47900,-77.06280849999997,38.778085,CJ Gardiner,820718784671584257,2020-03-03 17:39:21,"Chicago, IL",city,"Belle Haven, VA",United States
16980,-87.732013,41.8335845,CJ Gardiner,820718784671584257,2020-03-10 04:22:14,"Chicago, IL",city,"Chicago, IL",United States
47900,-77.06280849999997,38.778085,CJ,820718784671584257,2020-03-14 23:21:25,"Chicago, IL",city,"Belle Haven, VA",United States
82,75.107275,33.795445,Emm Ell,820718917333225472,2020-03-31 15:56:00,"Bijbehara, Jammu And Kashmir",city,"Bijbehara, Jammu And Kashmir",
88,135.4869155,34.6969417,,82071897,2020-04-24 05:36:13,,city,  ,
49,-80.091193,-2.512995,Jennifer,820719164,2020-03-04 12:17:34,Ecuador,city,"Guayaquil, Ecuador",Ecuador
24,-75.80014150000001,45.248791,Stephen Hoogenraad,820719194,2020-02-20 12:21:20,Barrhaven and Lac Bernard,city,"Ottawa, Ontario",Canada
17460,-81.710278,41.483610999999996,#AYOY,820719248486047744,2020-04-12 03:00:20,"Cleveland, OH",city,"Cleveland, OH",United States
21,-50.5308625,-18.4533595,Jeovana Gomes,820719490388361218,2020-04-12 18:59:28,,city,"Quirinpolis, Brasil",Brasil
12580,-76.3503525,39.4180585,Collin Brown,820719617958178816,2020-03-07 04:25:35,,city,"Joppatowne, MD",United States
14460,-71.0609635,42.171127,Germaine Dublin,820719713483366400,2020-02-20 03:29:19,"594 Columbia Road, Dorchester",city,"Randolph, MA",United States
24,-122.33264750000001,49.0556806,Ellie Koyander,82072000,2020-02-14 05:24:48,England,city,"Abbotsford, British Columbia",Canada
82,74.5107235,26.4454915,@Mahipal Kaswa,820720088,2020-02-14 20:13:18,Ajmer city rajasthan india ,city,"Ajmer, India",India
8,-66.330479,-33.2978785,Juuu,820720113406054401,2020-02-14 02:26:10,"San Luis, Argentina",city,"San Luis, Argentina",Argentina
65,4.8335145,43.9406905,OLIVIA RICCARDI ,820720129164115968,2020-05-09 20:41:21,"Rochefort-du-Gard, France",city,"Avignon, France",France
41860,-122.43597849999999,37.7706565,ita pupu,820720136,2020-02-19 16:54:45,,city,"San Francisco, CA",United States
100,23.71855,56.65984,Marmelde Deko,820720206012153857,2020-02-27 14:44:41,"Riga, Latvia",city,"Jelgava, Latvija",Latvija
200,29.016602000000002,41.067547,Ouz,820720736948092929,2020-05-14 14:55:02,,poi,Zorlu PSM,Trkiye
205,-4.2417515,55.85830249999999,,820720922541826048,2020-02-20 02:36:57,"Oman,Glasgow.",city,"Glasgow, Scotland",United Kingdom
117,58.4641695,23.549159000000003,,820720922541826048,2020-03-21 13:32:03,"Oman,Glasgow.",city,"Muscat, Oman",Oman
19740,-104.98360001,39.7391,Andrea Berrios,820721330379247621,2020-02-23 01:17:42,"Denver, CO",city,"Denver, CO",United States
88,136.5017345,35.1608395,YAMA,820721426583797760,2020-03-29 01:03:12,,city, ,
200,30.381503,40.7592495,Hill STL,820721530883739648,2020-04-05 22:19:27,Trkiye,city,"Sakarya, Trkiye",Trkiye
21,-49.261299,-16.642782500000003,Tulkas,820721571774038017,2020-02-22 04:30:41,"Goinia, Brasil",city,"Goinia, Brasil",Brasil
21,-46.5955455,-23.682803,Marcio-pezao,820721636261457920,2020-02-20 01:38:57,"So Paulo,",city,"So Paulo, Brasil",Brasil
31080,-118.4119065,34.0207895,faviola rocha,820721917,2020-02-24 06:27:48,"los angeles, CA",city,"Los Angeles, CA",United States
205,-3.1980475,51.6510725,Dale Ian,820722078018142208,2020-04-19 12:38:40,"Blackwood, Wales",city,"Pontllanfraith, Wales",United Kingdom
44140,-72.67532165,42.33136892,IJROCK  on Valley Free Radio ,820722584157388800,2020-02-16 02:44:20,"Northampton, MA",city,"Northampton, MA",United States
222,106.944926,-6.1848725,Anas,82072259,2020-03-04 09:12:40,,city,"Cakung, Indonesia",Indonesia
171,120.9831935,15.488908499999999,RON,82072274,2020-02-22 07:56:36,"Cabanatuan City, Nueva Ecija",city,"Cabanatuan, Central Luzon",Republic of the Philippines
30780,-92.25715,34.788087,VicRic,820723448,2020-04-15 22:02:44,"Little Rock, AR",city,"North Little Rock, AR",United States
8,-58.442643,-34.604315,Andrea,820723462654357504,2020-03-23 00:18:58,,city,"Ciudad Autnoma de Buenos Aires, Argentina",Argentina
151,7.5103,6.4527,kingsley ucity ogoke,820723476,2020-04-13 17:51:16,"nationwide, Nigeria ",city,"Enugu, Nigeria",Nigeria
205,-2.915427,53.4198785,wilsonkate,820723582804299779,2020-03-27 16:58:01,she/her,city,"Liverpool, England",United Kingdom
82,73.10611725,18.97772731,SURAJ MISHRA,82072367,2020-06-05 18:12:39,"Navi Mumbai, India",city,"Panvel, India",India
41700,-98.46406400000001,29.491477000000003,Alamo Heights Soccer,820723928914132993,2020-02-15 20:53:38,"Alamo Heights, TX",poi,Harry B. Orem Stadium,United States
175,46.685077,24.7219435,Ngozi,820724481933144064,2020-02-15 04:54:03,In my fantasy world,city,"Riyadh, Kingdom of Saudi Arabia",Kingdom of Saudi Arabia
161,73.0768205,33.712430999999995,Faheem Qureshi,820724543157366784,2020-04-18 16:54:34,Pakistan,city,"Islamabad, Pakistan",Pakistan
31080,-118.1074395,34.010186499999996,Valdez Professional Multi Services,820725525949747200,2020-02-29 20:56:12,"Montebello, CA",city,"Montebello, CA",United States
65,2.347003,48.8588335,Mohammad Fouladi,820725595814461441,2020-02-28 08:27:29,"Paris, France",city,"Paris, France",France
200,30.741047,36.924088,Serdar Cokun,820725831433646084,2020-02-14 08:44:48,,poi,Mart Sebze Meyve Ltd Sti,Trkiye
205,-0.1091815,51.5469265,Victoria Davis,82072589,2020-02-17 09:56:33,London,city,"Islington, London",United Kingdom
186,2.16939,41.40397,Victoria Davis,82072589,2020-03-03 22:58:13,London,city,"Barcelona, Spain",Spain
205,-0.1094,51.5141,Victoria Davis,82072589,2020-06-02 09:50:35,London,city,"City of London, London",United Kingdom
151,7.422322500000001,10.511245,Abu Ahmad,820725925,2020-02-15 10:53:35,"Kaduna, Nigeria",city,"Kaduna, Nigeria",Nigeria
82,72.3894655,23.6111175,Aazam Khan Pathan,820726372268175365,2020-02-14 00:54:47,,neighborhood,"Police Head Quarter Area, Mahesana",India
205,-4.3948625,55.8006515,Kirsty Robson,820726408590852096,2020-02-19 17:01:01,Glasgow,city,"Barrhead, Scotland",United Kingdom
200,32.9054875,39.97281750000001,Ankara Tanker Su,820726499150065665,2020-03-20 08:41:02,"Ankara, Trkiye",city,"Altnda, Trkiye",Trkiye
222,106.85102450000001,-6.565969,Amelia Meidyawati,82072664,2020-05-06 11:28:00,"T: -6.183757,106.787883",city,"Kedunghalang, Indonesia",Indonesia
21,-43.317139000000005,-22.987513,157Vrus,820726970170347521,2020-06-02 17:32:09,"Rio de Janeiro, Brasil",poi,Itanhang,Brasil
26420,-95.9901755,30.083158,Eazy-E,820727850210889728,2020-02-14 01:36:09,PVAMU  SATX,city,"Prairie View, TX",United States
41700,-98.5406515,29.417501,Eazy-E,820727850210889728,2020-03-20 02:08:13,PVAMU  SATX,city,"San Antonio, TX",United States
26420,-95.9901755,30.083158,Eazy-E,820727850210889728,2020-03-25 17:37:14,PVAMU  SATX,city,"Prairie View, TX",United States
41700,-98.5406515,29.417501,Eazy-E,820727850210889728,2020-04-12 04:40:39,PVAMU  SATX,city,"San Antonio, TX",United States
28500,-99.1620375,30.0386925,Eazy-E,820727850210889728,2020-05-02 20:21:32,PVAMU  SATX,city,"Kerrville, TX",United States
41700,-98.5406515,29.417501,Eazy-E,820727850210889728,2020-05-03 01:08:27,PVAMU  SATX,city,"San Antonio, TX",United States
26420,-95.9901755,30.083158,Eazy-E,820727850210889728,2020-05-05 23:02:57,PVAMU  SATX,city,"Prairie View, TX",United States
41700,-98.5406515,29.417501,Eazy-E,820727850210889728,2020-05-08 17:44:57,PVAMU  SATX,city,"San Antonio, TX",United States
18580,-97.04355600000001,28.074525,Eazy-E,820727850210889728,2020-05-27 00:02:24,PVAMU  SATX,city,"Fulton, TX",United States
41700,-98.5406515,29.417501,Eazy-E,820727850210889728,2020-05-28 20:42:24,PVAMU  SATX,city,"San Antonio, TX",United States
26420,-95.0653755,29.4566145,Eazy-E,820727850210889728,2020-06-05 01:04:26,PVAMU  SATX,city,"Dickinson, TX",United States
41700,-98.5406515,29.417501,Eazy-E,820727850210889728,2020-06-06 03:09:28,PVAMU  SATX,city,"San Antonio, TX",United States
36740,-81.3515035,28.333446999999996,Patricia Fahlbush I.,820727851494293509,2020-05-17 16:08:57,milwaukee wis,city,"Buenaventura Lakes, FL",United States
13140,-93.70124200000001,30.127478999999997,lae,820728410708307968,2020-04-06 02:56:53,,poi,Louisiana / Texas State Line,United States
73,23.15,37.6333,Michael Printzos,82072884,2020-03-02 14:58:11,,city,"Epidavros, Greece",Hellas
175,40.321507000000004,20.1630495,              MBS,820728912892329985,2020-03-14 18:35:22," ,   ",city,",   ",  
21,-49.2884605,-25.4952495, Cadu ,820729291562487808,2020-02-18 02:12:59,"Rio de Janeiro, Brasil",city,"Curitiba, Brasil",Brasil
222,110.1229405,-7.885196,Heni Putri Wardhani,820729466,2020-03-04 03:09:10,Yogyakarta,city,"Wates, Indonesia",Indonesia
31460,-120.063829,36.9637405,dominique,820729593740992512,2020-02-22 07:03:24,,city,"Madera, CA",United States
38,-75.560285,5.056934,Juan Andrs Pineda Ramrez,820730102879309825,2020-05-19 15:33:51,"Manizales, Colombia",city,"Manizales, Colombia",Colombia
65,2.30002215,48.85497561,LUCAS KOBZINSKI,820730199679598593,2020-04-30 20:59:31,Brazil,city,"Paris, France",France
88,138.83848600000002,35.079140499999994,,820730340,2020-03-18 14:23:06,,city, ,
164,-9.3605895,38.835553999999995,rafa,820730398099570690,2020-02-14 00:24:15,2735,city,"Sintra, Portugal",Portugal
33100,-80.321611,25.912833,John,820730437702139906,2020-02-18 15:17:55,MIA,city,"Miami Lakes, FL",United States
33460,-93.283703,44.724949,Liss Beth,820730529272172544,2020-02-24 02:01:04,,poi,Buck Hill Ski & Snowboard,Estados Unidos
45300,-82.2877255,27.838539500000003,Corliss Ann Shelton,820730630585679872,2020-02-17 15:19:34,,city,"Boyette, FL",United States
152,4.684829,52.3004295,Michal vWvV,82073079,2020-03-29 12:09:02,,city,"Haarlemmermeer, Nederland",The Netherlands
21380,-96.187228,38.411349,laura beatriz ,820731557543628800,2020-02-14 01:32:05,620,city,"Emporia, KS",United States
19740,-104.949845,39.9054745,laura beatriz,820731557543628800,2020-03-12 15:08:40,,city,"Thornton, CO",United States
22660,-105.06394250000001,40.5641905,laura beatriz,820731557543628800,2020-03-14 03:48:53,,city,"Fort Collins, CO",United States
21380,-96.187228,38.411349,laura beatriz,820731557543628800,2020-03-17 00:59:12,,city,"Emporia, KS",United States
41180,-90.090907,38.4473115,The Geis Clan,820731691,2020-02-21 18:48:26,"Mascoutah, IL",city,"Millstadt, IL",United States
36540,-95.916891,41.286898,Frank C Corcoran,820731865757716480,2020-02-29 20:14:05,,city,"Carter Lake, IA",United States
205,-3.2030084999999997,55.943195499999995,Steve Winters,82073194,2020-02-20 16:28:25,"Edinburgh, Scotland",city,"Edinburgh, Scotland",United Kingdom
178,27.968098,-26.2761385,Just A City Girl,820731990609686528,2020-05-06 12:23:57,"Johannesburg, South Africa",city,"Johannesburg, South Africa",South Africa
21,-42.139657,-22.781072,flow didico,820732102786289666,2020-03-16 02:56:20,Instituto TDM,city,"So Pedro da Aldeia, Brasil",Brasil
39300,-71.46396800000001,41.768938,liz kettelle realtor,82073221,2020-02-23 13:13:22,Rhode Island,city,"Cranston, RI",United States
29820,-115.13516499999999,36.060964500000004,Vashoden,820732377219538945,2020-02-25 00:58:01,"Las Vegas, NV",city,"Paradise, NV",United States
21,-43.351507,-22.798842,Al-QAEDA,820732530097799173,2020-03-05 23:49:30,+55021,poi,Kinoplex,Brasil
21,-48.776234,-26.442722999999997,duda,820732602118262784,2020-02-18 01:34:54,"Coronel Fabriciano, Brasil",city,"Araquari, Brasil",Brasil
128,4.261149,50.548918,  saw herself in the mirror,820732877176500225,2020-04-02 09:04:46, ,city,"Seneffe, Belgique",Belgique
242,120.628502,22.3218435,Hikari,820732886,2020-03-07 14:33:15,,city,", ",
38,-74.849933,10.958072999999999,Heyner,820732941840027648,2020-02-14 13:57:39,"Barranquilla, Colombia",city,"Barranquilla, Colombia",Colombia
119,-100.3652735,25.8073145,Martin Portillo,820733093531254787,2020-03-04 04:44:34,"Nuevo Len, Mxico",city,"General Escobedo, Nuevo Len",Mxico
19100,-96.835249,33.1501395,Audrey Griffis,820733186707599360,2020-02-28 05:45:56,"Texas, USA",city,"Frisco, TX",United States
19660,-81.072903,29.186622999999997,Matt,820733308179017728,2020-02-16 17:36:33,,poi,Daytona International Speedway,United States
28580,-81.092926,24.714244,Matt,820733308179017728,2020-02-18 23:09:54,,poi,"Keys Fisheries, Market & Marina",United States
14460,-71.0887125,42.3136695,Matt,820733308179017728,2020-02-29 13:57:34,,city,"Boston, MA",United States
12100,-74.438102,39.354244,Matt,820733308179017728,2020-03-05 20:32:04,,poi,Boardwalk Hall,United States
37980,-74.98507599999998,39.7109935,Matt,820733308179017728,2020-03-05 22:08:29,,city,"Williamstown, NJ",United States
28580,-81.092926,24.714244,Matt,820733308179017728,2020-06-06 21:23:42,,poi,"Keys Fisheries, Market & Marina",United States
41500,-121.82506000000001,36.6258065,The Shorty McWeiner,820733683971854338,2020-02-14 07:43:51,"Monterey, CA",city,"Seaside, CA",United States
16980,-88.20823949999998,42.2804555,America Jane,820733716213497856,2020-02-14 02:14:48,United States,city,"Island Lake, IL",United States
31080,-118.40898999999999,34.0060125,Brooke Powell,820733745149792257,2020-02-14 14:26:39,"California, USA",city,"Culver City, CA",United States
51,-6.2357200000000015,53.494598,gaurav juneja,82073415,2020-02-14 11:42:13,"Dublin City, Ireland",city,"Fingal, Ireland",Ireland
38900,-122.663105,45.528749,Oscarrr,820734522387873792,2020-03-09 00:56:12,Five Star Athletics,poi,Oregon Convention Center,United States
39900,-119.82718200000001,39.512436,Oscarrr,820734522387873792,2020-03-12 04:52:08,Five Star Athletics,city,"Reno, NV",United States
37980,-75.117998,40.0048655,Lois Maisano,820734655,2020-03-09 15:20:29,"South Philadelphia, Pa.",city,"Philadelphia, PA",United States
119,-98.1542665,19.0322295,Julio Cesar Prez,820734667657777154,2020-03-04 08:46:38,"Puebla, Mxico",city,"Puebla, Mxico",Mxico
16220,-106.330781,42.830259000000005,Candace,820734865096196097,2020-02-24 15:19:25,United States,city,"Casper, WY",United States
18660,-76.17692,42.599418,Shmacked Cstate,820734969781878785,2020-02-26 01:03:11,"Cortland, NY",city,"Cortland, NY",United States
35620,-73.9685415,40.780709,glutenfree brain cell,820735159938990080,2020-02-14 01:47:12,"New York, NY",city,"Manhattan, NY",United States
186,-4.779514,41.6693305,CCOO RENAULT ESPAA,820735211541565442,2020-02-14 15:28:17,Espaa,city,"Valladolid, Espaa",Espaa
16980,-88.23252,42.03042,MRKN Freshy,820735222253842432,2020-04-10 15:07:46,Chicago,poi,Midas,United States
71,8.515778,50.041376,Joachim Sittig,820735232236195841,2020-04-12 13:11:48,,poi,Landebahn Nordwest,Deutschland
193,100.117925,14.47037,Wannajak Jaikaewdang,820735314,2020-03-22 14:36:21,,city,"Suphan Buri, Thailand",Thailand
19820,-83.239231,42.520202000000005,Patty Maey,820735414231322624,2020-02-26 23:38:04,,city,"Beverly Hills, MI",United States
200,28.9152271,40.22389807,Zafer Polat Koyuncu,82073564,2020-02-21 12:44:28,www.mcw.com.tr,city,"Nilfer, Trkiye",Trkiye
85,9.1593365,45.461345,Brunablu1#facciamorete #facciamoEuropa sardine,820735728686661633,2020-02-24 04:40:29,"Milano, Lombardia",city,"Milano, Lombardia",Italia
205,-0.29743,51.514752,Justina Gilbert,82073577,2020-02-23 15:49:48,London,city,"Ealing, London",United Kingdom
8,-68.850505,-32.886098,Telma,820735782,2020-02-17 21:51:04,"Paran, Argentina",city,"Mendoza, Argentina",Argentina
88,131.34639049999998,31.893178499999998,,82073590,2020-02-17 22:42:57,,city, ,
151,3.4866989999999998,6.429949,God's Own,820736115296436224,2020-05-20 05:56:19,"Lagos, Nigeria",poi,Elegushi Beach,Nigeria
36740,-81.471266,28.437481,Tim Howland,820736148326809601,2020-02-28 04:55:16,"Connecticut, USA",poi,Howl at the Moon,United States
31080,-118.0435245,33.850885500000004,Lisa Lee,820736310101114880,2020-02-14 01:39:27,"Orange County, CA, USA",city,"La Palma, CA",United States
205,0.961908,52.8531245,Jade Hoyte,820736472714199041,2020-02-16 16:48:21,"England, United Kingdom",city,"Barney, England",United Kingdom
120,100.210986,6.5116879999999995,;,820736742978224128,2020-03-14 11:39:22,Malaysia,poi,Padang Melangit,Malaysia
186,2.18494316,41.379003999999995,Luke Murphy,820736857503920132,2020-02-14 19:05:34,"Cubelles, Espaa",city,"Barcelona, Spain",Spain
21,-48.478899,-27.609691,,820736934603554822,2020-02-14 05:13:14,,city,"Florianpolis, Brasil",Brasil
21,-54.900923999999996,-18.938436,Biel Samer ,820737183569084416,2020-02-25 17:55:51,"Mato Grosso do Sul, Brasil",poi,Balnerio - Quedas D'agua,Brasil
21,-60.02544,-3.12846,Ed ,820737675326095361,2020-03-19 19:16:21,,city,"Manaus, Brasil",Brasil
21,-48.45979749999999,-1.2729295,Daniel cardoso,820737972,2020-05-10 18:23:58,Belm-Pa,city,"Belm, Brasil",Brasil
65,6.083726,45.8616545,Vnus.,820738009041616897,2020-03-12 17:07:08,"Nice, France",city,"Seynod, France",France
225,54.384388,24.496591,Sithara,820738215804096512,2020-02-24 15:03:42,,poi,Bodylines - Health and Fitness Club,United Arab Emirates
85,12.3267,45.4386,GeorgiaSunray,82073840,2020-03-14 11:52:37,,city,"Venice, Veneto",Italy
48,-70.4348565,18.9413565,Nicoli,820738466,2020-02-29 21:55:35,Domi ,city,"Bonao, Dominican Republic",Dominican Republic
21,-48.3585835,-19.0043915,KrlMan,820738489419464706,2020-02-19 22:58:45,,city,"Uberlndia, Brasil",Brasil
21,-47.361569,-22.5917645,Rafa veteranizou,820738519748530176,2020-02-18 11:24:38,"Limeira, Brasil",city,"Limeira, Brasil",Brasil
19100,-98.039463,32.814754,Samantha ashley,820738681971625984,2020-04-29 03:08:45,"Mineral Wells, TX",poi,Lake Mineral Wells State Park,United States
41700,-98.5406515,29.417501,MsCardenas,820739531238416385,2020-02-16 16:37:07,"San Antonio, TX",city,"San Antonio, TX",United States
88,133.91638799999998,34.700883000000005, ,820739954573602816,2020-03-01 03:00:16,921-16,poi,,
151,7.424094,9.073663999999999,Onaghise teddy,820739970218528769,2020-03-09 20:44:54,,city,"Abuja, Nigeria",Nigeria
21380,-96.187228,38.411349,Charlie Suenram,820740047418851329,2020-02-15 13:36:09,"Edmond, OK",city,"Emporia, KS",United States
36420,-97.455741,35.695221999999994,Charlie Suenram,820740047418851329,2020-05-04 22:51:42,"Edmond, OK",city,"Edmond, OK",United States
186,2.064897,41.46726200000001,Montse Mateo,820740365632360448,2020-04-23 12:55:22,"Sant Cugat del Valls, Espaa",city,"Sant Cugat del Valls, Espaa",Espaa
24,-122.818486,49.111519,GOLDEN BOY,820740457361600512,2020-02-14 20:01:29,"Vancouver, British Columbia",city,"Surrey, British Columbia",Canada
119,-101.27577,19.652724,Alejandro L Garca Tinajero,820740678447599616,2020-02-29 13:59:07,"Guadalajara, Jalisco",city,"Morelia, Michoacn de Ocampo",Mxico
38,-74.801261,11.020648,Lizz Lpez,820740716,2020-02-24 22:05:03,,poi,Batalla de flores,Colombia
12820,-91.766469,32.467763500000004,Antterrious McDonald,820741160088072193,2020-02-18 16:42:36,"Rayville, LA",city,"Rayville, LA",United States
36740,-81.3417295,28.6001855,TooTrealTrev,820741244,2020-02-24 01:48:15,,city,"Winter Park, FL",United States
128,4.470875,50.469775,Judith,820742167631118336,2020-02-16 21:06:47, la salle + ,poi,Brussels South Charleroi Airport (CRL),Belgique
51,-6.247621499999999,53.3549025,Judith,820742167631118336,2020-02-17 02:02:26, la salle + ,city,"Dublin, Irlande",Irlande
19820,-83.1480435,42.579003,Tammy Gilbert,820742258,2020-02-21 18:21:16,,city,"Troy, MI",United States
29620,-84.57293349999999,42.827637,Tammy Gilbert,820742258,2020-03-07 17:21:46,,city,"DeWitt, MI",United States
19820,-83.157747,42.507218,Tammy Gilbert,820742258,2020-03-07 22:14:30,,city,"Royal Oak, MI",United States
85,12.381694,45.404160499999996,chia ,820742509102071809,2020-02-14 09:53:31,venice,city,"Venezia, Veneto",Italia
27260,-81.7134323,30.0982094,Vanity Pups,820742526,2020-03-20 20:43:41,"Jacksonville, Florida",city,"Fleming Island, FL",United States
9,150.931975,-33.848244,Scarecrow,82074261,2020-02-14 01:55:53,Australia,city,"Sydney, New South Wales",Australia
82,77.29542099999999,28.6659575,Manan Ahuja,82074282,2020-04-05 15:40:48,"Delhi, India",city,"New Delhi, India",India
96,47.903620000000004,29.324081,,820743152,2020-03-08 09:55:03,"The Capital, Kuwait",poi,    ,Kuwait
33100,-80.20960699999999,26.190534,@STEBANTIMOTO#10,820743751,2020-03-23 15:27:00,FL,poi,University of Miami,Etats-Unis
31080,-118.4119065,34.0207895,Gulia Child,820743774305275904,2020-05-30 19:53:54,,city,"Los Angeles, CA",United States
175,43.9595905,26.345051,,820743872653434882,2020-05-31 22:21:41,  ,city,",   ",  
222,107.555251,-6.888509,Hilman Nur Hakim,820743906,2020-03-04 20:47:50,"Bandung, Jawa Barat",poi,Mahligai Puteri Berlian (Mitsubishi Motors),Indonesia
8,-60.74699449999999,-32.749032,Leandro Carreo,820744214241832962,2020-02-14 21:48:41,"San Lorenzo, Argentina",city,"San Lorenzo, Argentina",Argentina
37980,-75.28282200000002,40.1103345,The Gnome Investigator RicMtheGM,820744411,2020-02-19 22:18:40,"Magnolia, Ohio",city,"Plymouth Meeting, PA",United States
35620,-73.8311875,40.6708795,The Gnome Investigator RicMtheGM,820744411,2020-02-20 23:43:44,"Magnolia, Ohio",city,"Queens, NY",United States
19380,-84.09250300000001,39.864239000000005,The Gnome Investigator RicMtheGM,820744411,2020-02-25 19:22:05,"Magnolia, Ohio",city,"Huber Heights, OH",United States
15940,-81.382695,40.885188,The Gnome Investigator RicMtheGM,820744411,2020-02-27 16:31:32,"Magnolia, Ohio",city,"North Canton, OH",United States
22660,-105.0911994,40.5541398,Pelicanlakesweddings,820744598347726848,2020-02-16 02:37:28,"Windsor, CO",city,"Fort Collins, CO",United States
14500,-105.11888,39.92758,Pelicanlakesweddings,820744598347726848,2020-02-16 18:48:01,"Windsor, CO",city,"Broomfield, CO",United States
24540,-104.8994,40.4568,Pelicanlakesweddings,820744598347726848,2020-03-19 19:44:40,"Windsor, CO",city,"Windsor, CO",United States
171,121.74643300000001,13.9985725,daph_oabelp,820744733605568512,2020-04-12 16:30:29,"Tayabas,Quezon",city,"Pagbilao, Calabarzon",Republic of the Philippines
119,-99.5799145,19.251530499999998,Rey Antonio Mejia Mi,820744819827965952,2020-02-16 03:00:15,,city,"Metepec, Mxico",Mxico
16980,-87.99780799999998,42.0119315,Kari Bruce,820745041,2020-04-07 00:13:20,"Villa Park, IL",city,"Elk Grove Village, IL",United States
21,-48.772193,-25.795313500000002,Lipe Auguxto,820745078150991873,2020-05-03 22:20:06,"Joinville, Brasil",city,"Guaratuba, Brasil",Brasil
24,-113.49261750000001,53.5558195,Tom Shorten,820745112040787968,2020-02-17 21:20:17,,city,"Edmonton, Alberta",Canada
21,-43.434917999999996,-22.7572035,Nay,820745250323005441,2020-03-06 23:06:12,na sua ,neighborhood,"Califrnia, Nova Iguau",Brasil
222,106.834852,-6.2213485,Reza Shaputra,82074591,2020-02-18 12:32:26,,city,"Setia Budi, Indonesia",Indonesia
186,-4.6269,36.5371,SaKo,820746125435174917,2020-03-14 12:20:59,"Fuengirola, Spain",city,"Fuengirola, Espaa",Espaa
45300,-82.717093,28.24853,Port Richey Lou,820746187854794752,2020-02-14 11:23:42,Port Richey,city,"New Port Richey, FL",United States
171,120.9839865,14.5914565,Beverly Yu,82074634,2020-02-14 00:07:58,,city,"Manila City, National Capital Region",Republic of the Philippines
128,3.30496961,50.82424102,Pieter Vanraes,82074644,2020-02-17 11:39:07,"T: 51.200317,3.559822",city,"Kortrijk, Belgi",Belgi
28020,-85.56568850000001,42.29052400000001,Alexa,820747046,2020-03-23 03:00:13,"Clarklake, Mi ",city,"Kalamazoo, MI",United States
205,-1.7009105,50.97828,Axell ,820747211147333634,2020-02-29 14:57:56,W gisell,city,"Lover, England",United Kingdom
23420,-120.4601825,36.859925,Axel,820747211147333634,2020-03-17 20:57:14,In my girls guts,city,"Firebaugh, CA",United States
21,-43.441578,-22.911421500000003,Gabe Albuquerque,820747412297891840,2020-02-14 23:14:14,"RJ, BRA",city,"Rio de Janeiro, Brasil",Brasil
205,-3.317481,56.137476,Bailey-Lee MSYP,820747431709212672,2020-03-20 15:06:23,fife edinburgh london ,poi,Lochgelly High School,United Kingdom
171,123.99057549999999,10.268881,,82074747,2020-04-29 08:10:43,,city,"Lungsod ng Lapu-Lapu, Rehiyon ng Gitnang Visayas",Republika ng Pilipinas
35620,-74.3220025,40.4752365,JenJen,820747614,2020-02-16 14:28:39,Central Jersey,city,"Sayreville, NJ",United States
8,-58.4389458,-34.635494200000004,Espaol - Portugus,820747752,2020-04-25 05:11:57,Ciudad Autnoma de Buenos Aire,city,"Villa Soldati, Argentina",Argentina
46140,-95.770195,36.0393055,Tami Booth,820747882714243072,2020-02-23 02:22:23,"Tulsa, OK",city,"Broken Arrow, OK",United States
37340,-80.622676,28.329306000000006,Tami Booth,820747882714243072,2020-03-01 18:15:33,"Tulsa, OK",city,"Cocoa Beach, FL",United States
26020,-103.09338000000001,31.854213,Ethan Hannigan,820747977367154689,2020-02-15 05:32:43,Texas,city,"Kermit, TX",United States
15180,-97.168476,26.1147355,Ethan Hannigan,820747977367154689,2020-05-18 07:04:34,Texas,city,"South Padre Island, TX",United States
26020,-103.09338000000001,31.854213,Ethan Hannigan,820747977367154689,2020-05-22 06:01:55,Texas,city,"Kermit, TX",United States
82,72.8357,19.0274, ,820748013123567617,2020-03-11 14:05:36,"Mumbai, India",poi,"Shivaji Park, childrens park facing sealink",India
8,-64.1980255,-31.4154565,Marta,820748192086114304,2020-02-20 14:11:01,,city,"Crdoba, Argentina",Argentina
21,-43.372981,-22.827655,jota,820748202609676289,2020-05-18 20:00:25,zsul,poi,Costa Barros,Brasil
37980,-75.117998,40.0048655,Hannah,820748234,2020-03-08 18:39:16,nyc,city,"Philadelphia, PA",United States
36140,-74.60294499999999,39.25661,Hannah,820748234,2020-04-16 16:54:46,,city,"Ocean City, NJ",United States
151,7.0312755000000005,4.82463,Emelis Ebubeoniso,820748286223089668,2020-02-24 16:16:44,Port-Harcourt Nigeria,city,"Port Harcourt, Nigeria",Nigeria
113,-5.811135,35.776548999999996, ,820748321153224705,2020-02-21 17:57:51,"Bruxelles, Belgique",poi,MALDIVE,Royaume du Maroc
39,-84.08085299999998,9.9303,Indy Bear,820748494705201153,2020-02-15 19:53:45,Costa Rica,city,"San Jose, Costa Rica",Costa Rica
12420,-97.731864,30.284610999999998,kenz.,820748524212076547,2020-03-05 13:37:59,"Dallas, TX",poi,The University of Texas at Austin,United States
160,-70.360122,-17.1958685,Erika Pacci,820749045727690753,2020-03-26 04:39:27,"Tacna, Peru",city,"Cairani, Peru",Peru
12060,-84.8104515,34.171761000000004,Jarrett Willis,820749121,2020-04-15 01:24:09,"Atlanta, GA",city,"Cartersville, GA",United States
21,-46.544744,-21.820472,Elenice Azevedo,820749475,2020-03-27 22:53:30,,city,"Poos de Caldas, Brasil",Brasil
235,20.388116,44.836092,Veljko Odobai,82074961,2020-02-14 16:11:32,"Belgrade, Serbia",city,"Belgrade, Republic of Serbia",Republic of Serbia
205,-1.852607,50.742268,Sam Reilly,820749615213477890,2020-04-27 12:08:20,"Bournemouth, England",city,"Bournemouth, England",United Kingdom
46060,-110.962,32.2179,Becki Gastelum,820750082,2020-02-20 01:32:44,,city,"Tucson, AZ",United States
119,-86.785326,21.1036545,beatriz,820750268,2020-05-14 20:32:55,@beateiixeira,neighborhood,"Zona Hotelera, Benito Jurez",Mxico
21,-45.821279,-22.5807715,beatriz,820750268,2020-05-16 02:54:10,@beateiixeira,city,"Paraispolis, Brasil",Brasil
162,21.0,52.25,Adrian,820750321668521989,2020-04-19 13:19:44,Kalos Region,city,"Warszawa, Polska",Polska
14460,-71.0323765,42.399371,jacKieeee,820750381,2020-02-14 11:50:30,,city,"Chelsea, MA",United States
31080,-118.48042,34.022688,Sabas,820750496,2020-02-24 05:13:34,Las Vegas ,city,"Santa Monica, CA",United States
29820,-115.223125,36.232915000000006,Sabas,820750496,2020-02-25 07:39:47,Las Vegas ,city,"Las Vegas, NV",United States
29420,-114.738754,36.015508000000004,Sabas,820750496,2020-04-02 03:33:27,Las Vegas ,poi,Colorado River,United States
38,-74.82175500000001,10.945742,manuel,820750724845944833,2020-02-22 02:26:44,"Barranquilla, Colombia",poi,Olmpica El Bosque,Colombia
21,-59.9803255,-2.572425,rick ,820751010,2020-03-27 06:57:28,"Manaus, Brasil",city,"Manaus, Brasil",Brasil
164,-8.4267735,41.6697475,aromtico,820751329501020160,2020-04-07 14:20:15,,city,"Vila Verde, Portugal",Portugal
31080,-118.4119065,34.0207895,Matt Miller,820751364036800512,2020-02-14 02:35:18,"Los Angeles, CA",city,"Los Angeles, CA",United States
205,-3.1798,51.4970015,Kasra Almasian,820751391094411264,2020-05-19 16:12:02,"Cardiff, Wales",city,"Cardiff, Wales",United Kingdom
33460,-93.49034,44.778726,Michelle Lawless,820751604,2020-02-14 00:42:59,"Minneapolis, MN",city,"Shakopee, MN",United States
186,-3.7035075,40.4777945,construferial,820751837846532096,2020-02-17 17:57:24,"Casarrubios del Monte, Espaa",city,"Madrid, Espaa",Espaa
186,-3.04782,39.596990000000005,agui,820751872558505984,2020-04-17 13:27:02,"Quintanar de la Orden, Espaa",city,"Quintanar de la Orden, Espaa",Espaa
22020,-96.85571999999999,46.861235,jace ,820752045657489409,2020-02-15 02:25:58,"Missouri, USA",poi,Five Guys,United States
31080,-117.9152615,34.138088499999995,Lonzell Marcell,820752493789335554,2020-03-27 20:21:11,"Los Angeles, CA",city,"Azusa, CA",United States
119,-88.085541,20.5580215,Daniel A. Prez,820752540,2020-02-15 17:17:38,,city,"Valladolid, Yucatn",Mxico
82,88.352242,22.6127055,Jaidipta Biswas,82075258,2020-04-05 15:51:50,"Milwaukee, WI",city,"Kolkata, India",India
152,4.663447,51.8598055,Rui Vidal,820752631375269891,2020-05-08 10:25:04,"Roterdo, Holanda (Pases Baix",city,"Alblasserdam, Nederland",Holanda (Pases Baixos)
21,-46.694261,-23.553673,i s m a,820752679303598080,2020-02-19 00:00:49,,poi,Olvio Bar e Gastronomia,Brasil
189,17.242556999999998,62.516543000000006,GIF Sundsvall,82075280,2020-02-17 10:51:07,"Sundsvall, Sweden",city,"Sundsvall, Sverige",Sverige
42660,-122.3577725,47.8186225,LFP,820752840079441920,2020-03-23 18:31:36,,city,"Edmonds, WA",United States
45300,-82.671634,28.37636,LFP,820752840079441920,2020-06-01 13:59:12,"Seattle, WA",city,"Hudson, FL",United States
21,-38.510969,-13.003735,Luiza Matos,820753006866087940,2020-02-24 15:44:52,"Bahia, Brasil",poi,Circuito Dod - Barra/Ondina,Brasil
35620,-73.9487755,40.655138,Ron Amato,820753030194741250,2020-04-09 14:30:38,"New York, USA",city,"Brooklyn, NY",United States
119,-110.8545845,24.107997,Kek A.,82075304,2020-02-14 06:12:32,Naboo,city,"La Paz, Baja California Sur",Mexico
35620,-73.985588,40.758001,yvngtiller,820753182598918145,2020-02-20 21:08:48,"Queens, NY",poi,Times Square,United States
35620,-74.643215,40.580673,Evan,820753206959607811,2020-02-28 03:48:50,"New Jersey, USA",poi,McDonald's,United States
151,12.4811,9.20405,Shamxeed,820753349645475840,2020-04-27 10:04:12,"Yola, Nigeria",city,"Hausa, Nigeria",Nigeria
36540,-95.8349585,41.247487,cole fischer,820753640,2020-02-15 23:36:24,Avoca Iowa,city,"Council Bluffs, IA",United States
19780,-93.6063695,41.5764375,cole fischer,820753640,2020-02-21 04:15:05,Avoca Iowa,city,"Des Moines, IA",United States
36540,-95.8349585,41.247487,cole fischer,820753640,2020-02-28 18:52:24,Avoca Iowa,city,"Council Bluffs, IA",United States
160,-74.242708,-13.136419,Lapc,820753668,2020-02-23 05:14:11,,city,"Ayacucho, Peru",Peru
171,121.14285,13.906488000000001,,820753733885825025,2020-02-17 20:58:37,"Lipa City, Calabarzon",poi,Plantacion Meridienne,Republic of the Philippines
35620,-73.9685415,40.780709,TB,820753868220985344,2020-02-14 01:41:29,,city,"Manhattan, NY",United States
21,-51.1593095,-30.099836,Viviane Bassols,820753881143660544,2020-03-28 05:59:48,,city,"Porto Alegre, Brasil",Brasil
186,-1.9019445,38.929325,Pau,820753949045260290,2020-02-14 06:34:59,"Albacete, Espaa",city,"Albacete, Espaa",Espaa
21,-46.5216,-23.6669,Tatiana Cristina,820753972126486532,2020-03-18 22:46:01,"Santo Andr, Brasil",city,"Santo Andr, Brasil",Brasil
205,-3.1743900000000003,55.950624,Miss Gear,820754106419703808,2020-03-09 10:13:00,,poi,Dynamic Earth,United Kingdom
17460,-81.80027778,41.48083333,Jackson,820754250250813440,2020-04-04 00:07:44,"Vermilion, OH",city,"Lakewood, OH",United States
41780,-82.362201,41.408846000000004,Jackson,820754250250813440,2020-05-05 20:12:23,"Vermilion, OH",city,"Vermilion, OH",United States
21,-47.505421000000005,-19.380354999999998,Pri Littlle,820754808403587073,2020-03-22 19:37:07,"Santa Juliana, Brasil",city,"Santa Juliana, Brasil",Brasil
200,29.649715500000003,36.2001985,Haince,82075540,2020-03-17 15:38:38,"stanbul, Trkiye",city,"Ka, Trkiye",Trkiye
26900,-86.1429225,39.7795625,Susan Adamson,820756164,2020-02-22 20:56:31,,city,"Indianapolis, IN",United States
37980,-75.117998,40.0048655,Portland Process,820756242197082112,2020-02-22 22:44:25,,city,"Philadelphia, PA",United States
82,79.261438,19.0205385,Prakash Reddy Surakanti,820756335063158786,2020-03-28 06:23:23,mancherial,city,"Mancherial-Naspur, India",India
205,-2.4349525,53.5841845,Finding Local,820756370605690884,2020-02-17 16:44:48,"Bolton, England",city,"Bolton, England",United Kingdom
43060,-96.93365849999999,35.347545000000004,Catherine Britt,820756544728006660,2020-02-17 18:57:49,"Shawnee, OK",city,"Shawnee, OK",United States
21,-49.4141221,-20.86671182,Dinho Olvr,82075659,2020-02-16 16:30:52,"Nova Iorque, USA",city,"So Jos do Rio Preto, Brasil",Brasil
21,-48.9664745,-26.261689500000003,. M A I A R A .,820756662436986880,2020-05-14 02:43:50,Joinville/SC,city,"Joinville, Brasil",Brasil
71,11.3796835,48.7534185,s  ,820757000162332672,2020-02-14 11:19:55,Freistaat Bayern,city,"Ingolstadt, Deutschland",Deutschland
120,101.6536755,3.0329245,Idzwan Latif,82075711,2020-02-16 02:50:27,81800 Ulu Tiram,city,"Petaling, Selangor",Malaysia
119,-99.130016,19.420334,Hali,820757311,2020-03-09 02:06:05,,poi,"Zocalo, centro historico",Mxico
161,74.3436,31.5497,Mian Zain,820757390123470850,2020-05-13 18:32:44,,city,"Lahore, Pakistan",Pakistan
200,34.167588,38.129257,alar Pekta,820757623200956416,2020-04-17 00:59:08,Trkiye,poi,Hasanda,Trkiye
151,3.6418375,6.842171,Idon'tliketotweet,820757645523120130,2020-03-14 17:10:09,Lagos.Nigeria,city,"Shagamu, Nigeria",Nigeria
88,130.884621,33.8774175,amperman,82075765,2020-02-15 23:47:38,"Fukuoka City, Fukuoka",city,  ,
152,4.904053500000001,52.354728,Anisah,820757748971425796,2020-05-20 17:34:19,"England, United Kingdom",city,"Amsterdam, The Netherlands",The Netherlands
65,2.3162025,48.815985,Olivier Rodrigues,82075798,2020-02-28 08:55:59,"Paris, France",city,"Montrouge, France",France
193,104.6793505,17.060202,outdoor-,820758935908990976,2020-06-06 05:12:19,", ",city,"Renu Nakhon, Thailand",Thailand
21,-67.80444504,-9.96064602,Paulo Sarkis,820758960655441920,2020-04-12 00:46:05,"Rio Branco, Brasil",city,"Rio Branco, Brasil",Brasil
18880,-86.629891,30.4364535,Jamie jackson,820759201018322944,2020-03-22 23:09:29,,city,"Fort Walton Beach, FL",United States
34620,-85.39135,40.1972405,Jack Knight,820759498470150144,2020-02-17 01:47:50,"Indiana, USA",city,"Muncie, IN",United States
21,-43.600800299999996,-22.857594600000002,Vincius Rodrigues,820759595127803904,2020-02-24 13:47:19,,city,"Nova Iguau, Brasil",Brasil
41180,-89.906309,38.6059635,CP,820759599137624067,2020-04-15 22:01:36,,city,"O'Fallon, IL",United States
120,100.314649,5.397162000000001,Fiza,820759786123730944,2020-02-21 10:48:21,Malaysia,city,"George Town, Pinang",Malaysia
8,-64.348024,-33.1238265,Dbora Estefana,820760133403807744,2020-03-07 21:45:57,"Adelia Maria,Crdoba ",city,"Ro Cuarto, Argentina",Argentina
96,47.902907,29.2430535,Abrar99,820760145265356801,2020-05-16 23:31:48,Kuwait,city,"Abdullah Al Mubarak - West Jleeb, Kuwait",Kuwait
46060,-110.974753,32.417646500000004,Mary Beth Livingston,820760197941620739,2020-02-14 00:05:42,"Tucson, AZ",city,"Oro Valley, AZ",United States
37980,-75.1651,39.9527,PHLEX MAGAZINE,820760253918756864,2020-03-14 12:46:37,"Philadelphia, PA",city,"Philadelphia, PA",United States
21,-43.178469,-22.9049575,dudinha ,820760306637012993,2020-02-29 19:36:35,Rio de Janeiro ,neighborhood,"Centro, Rio de Janeiro",Brasil
119,-99.2115105,19.4299345,IngJuanGer,820760453475233792,2020-02-19 05:24:29,"Miguel Hidalgo, Distrito Federal",city,"Miguel Hidalgo, Distrito Federal",Mxico
206,30.194349,50.544771999999995,Kiev rehberi  Ukraine,820760722544230404,2020-04-17 16:43:35,Ukraine,poi,  ,
21,-42.897365,-22.7536955,Igor ,820761250661535745,2020-02-15 18:08:24,"Itabora, Brasil",city,"Itabora, Brasil",Brasil
73,25.8413215,40.9711555,,820761573262290944,2020-03-25 17:52:41,"Alexandroupolis, Evros, Greece",city,", ",
8,-68.295562,-54.80592400000001,Miriam Imbert,820761871703834624,2020-03-08 11:47:37,"Ushuaia, Argentina",city,"Ushuaia, Argentina",Argentina
200,32.323198,41.61569,ule Karabcek,820762220384702465,2020-05-14 16:44:18,"Bostanc, stanbul",poi,Bartn,Trkiye
186,-3.8248795,40.252265,Jai,820762410587930624,2020-02-14 15:47:39,"Madrid, Espaa",city,"Humanes de Madrid, Espaa",Espaa
38,-74.2053,11.2419,GATO  PERTUZ,820762411,2020-02-18 19:50:44,Santa marta ,city,"Santa Marta, Colombia",Colombia
35620,-74.17207900000001,39.8902915,cam,820762567,2020-02-14 06:22:37,"New Jersey, USA",city,"Bayville, NJ",United States
37980,-74.972174,39.9015465,cam,820762567,2020-02-20 23:31:17,"New Jersey, USA",city,"Barclay, NJ",United States
12580,-76.07197049999998,39.213928499999994,cam,820762567,2020-02-22 00:10:44,"New Jersey, USA",city,"Chestertown, MD",United States
37980,-74.9546045,39.9330525,cam,820762567,2020-02-23 20:29:01,"New Jersey, USA",city,"Ramblewood, NJ",United States
35620,-74.1880345,40.00134,cam,820762567,2020-02-24 15:27:51,"New Jersey, USA",city,"Toms River, NJ",United States
23420,-119.617745,36.5794135,Jake Orosco,820762715165556737,2020-03-20 23:16:57,"Selma, CA",city,"Selma, CA",United States
119,-100.2935915,25.6417185,Mr.Childs,820763126,2020-05-10 20:55:32,monteflex214,city,"Monterrey, Nuevo Len",Mxico
33460,-93.2620465,44.9706105,Brad '' Hemak ,820763273620373506,2020-02-17 19:42:16,"Minneapolis, MN",city,"Minneapolis, MN",United States
119,-87.0316645,21.048719000000002,Brad '' Hemak ,820763273620373506,2020-02-22 02:11:18,"Minneapolis, MN",city,"Benito Jurez, Quintana Roo",Mexico
33460,-93.2620465,44.9706105,Brad '' Hemak ,820763273620373506,2020-02-28 02:15:27,"Minneapolis, MN",city,"Minneapolis, MN",United States
40140,-117.58565800000001,33.859093,Hailey Skinner,820763551,2020-03-24 03:46:49,bYu,city,"Corona, CA",United States
37980,-75.9746375,39.5912805,natalie,820763575,2020-03-21 01:28:55,Mikes Cereal Shack,city,"Charlestown, MD",United States
120,101.7462324,3.1740541,ymer raya 3 rumah,820763797,2020-05-24 09:47:59,,city,"Ulu Kelang, Selangor",Malaysia
21,-43.441578,-22.911421500000003,Fla Galaxy,820763865189326848,2020-02-15 19:12:57,"Gvea, Rio de Janeiro",city,"Rio de Janeiro, Brasil",Brasil
171,120.987108,14.208015,misscee,820764031,2020-03-07 04:57:37,"Lucban, Quezon",city,"Silang, Calabarzon",Republic of the Philippines
21,-48.526222499999996,-20.939170999999998,"Prazer, Ano",820764241171021835,2020-02-14 16:54:14,"So Paulo, Brasil",city,"Bebedouro, Brasil",Brasil
9,150.931975,-33.848244,Sean Bullock,820764251807567872,2020-03-29 23:41:29,"Sydney, New South Wales",city,"Sydney, New South Wales",Australia
26420,-95.42478299999999,29.98834,Diana ,820764302,2020-02-17 15:27:04,My own world.,poi,Osteneria Michoacan,United States
88,142.44495700000002,43.750103,,820764724925067264,2020-05-25 11:37:17, ,city, ,
235,20.388116,44.836092,Bojana Leko,820764842583793668,2020-02-16 14:09:36,"Belgrade, Republic of Serbia",city,"Beograd, Srbija",Srbija
19100,-96.835249,33.1501395,baby^,820764859944042497,2020-03-08 02:51:55,"Texas, USA",city,"Frisco, TX",United States
31080,-118.34899999999999,33.9172,Franca,820764907,2020-03-03 23:20:55,,city,"Hawthorne, CA",United States
47900,-77.1766795,38.77667649999999,Meghan,820765008070144010,2020-03-01 00:25:24,"Alexandria, VA",city,"Springfield, VA",United States
23420,-119.44543,36.599956,,820765234533011456,2020-02-19 19:42:22,,poi,Jeanette Willems - State Farm Insurance Agent,United States
47300,-119.3991815,36.5512875,,820765234533011456,2020-03-09 23:53:41,,city,"Dinuba, CA",United States
23420,-119.44589850000001,36.596937,,820765234533011456,2020-03-12 02:51:35,,city,"Reedley, CA",United States
47300,-119.3991815,36.5512875,,820765234533011456,2020-03-14 20:46:16,,city,"Dinuba, CA",United States
23420,-119.44589850000001,36.596937,,820765234533011456,2020-03-16 22:44:19,,city,"Reedley, CA",United States
47300,-119.3991815,36.5512875,,820765234533011456,2020-03-27 01:53:21,,city,"Dinuba, CA",United States
23420,-119.44589850000001,36.596937,,820765234533011456,2020-03-27 06:18:04,,city,"Reedley, CA",United States
47300,-119.3991815,36.5512875,,820765234533011456,2020-04-10 03:15:18,,city,"Dinuba, CA",United States
23420,-119.44589850000001,36.596937,,820765234533011456,2020-04-10 03:42:18,,city,"Reedley, CA",United States
47300,-119.3991815,36.5512875,... ,820765234533011456,2020-04-12 08:26:14,,city,"Dinuba, CA",United States
23420,-119.44589850000001,36.596937,... ,820765234533011456,2020-04-12 21:48:32,,city,"Reedley, CA",United States
47300,-119.3991815,36.5512875,... ,820765234533011456,2020-04-17 19:47:21,,city,"Dinuba, CA",United States
23420,-119.44589850000001,36.596937,... ,820765234533011456,2020-04-19 13:12:04,,city,"Reedley, CA",United States
47300,-119.3991815,36.5512875,... ,820765234533011456,2020-04-21 01:14:35,,city,"Dinuba, CA",United States
23420,-119.44589850000001,36.596937,... ,820765234533011456,2020-04-21 07:44:49,,city,"Reedley, CA",United States
47300,-119.3991815,36.5512875,... ,820765234533011456,2020-04-22 01:35:43,,city,"Dinuba, CA",United States
23420,-119.44589850000001,36.596937,... ,820765234533011456,2020-04-22 10:08:03,,city,"Reedley, CA",United States
47300,-119.3991815,36.5512875,... ,820765234533011456,2020-04-24 20:25:40,,city,"Dinuba, CA",United States
23420,-119.44589850000001,36.596937,... ,820765234533011456,2020-04-25 08:49:08,,city,"Reedley, CA",United States
47300,-119.3991815,36.5512875,... ,820765234533011456,2020-04-27 09:03:51,,city,"Dinuba, CA",United States
23420,-119.7824645,36.786042,... ,820765234533011456,2020-04-28 02:11:57,,city,"Fresno, CA",United States
47300,-119.3991815,36.5512875,... ,820765234533011456,2020-05-03 07:10:50,,city,"Dinuba, CA",United States
23420,-119.44589850000001,36.596937,... ,820765234533011456,2020-05-03 10:23:45,,city,"Reedley, CA",United States
47300,-119.3991815,36.5512875,... ,820765234533011456,2020-05-06 20:50:44,,city,"Dinuba, CA",United States
23420,-119.44589850000001,36.596937,... ,820765234533011456,2020-05-08 07:41:24,,city,"Reedley, CA",United States
47300,-119.3991815,36.5512875,... ,820765234533011456,2020-05-09 06:10:24,,city,"Dinuba, CA",United States
23420,-119.617745,36.5794135,... ,820765234533011456,2020-05-13 06:38:52,,city,"Selma, CA",United States
47300,-119.3991815,36.5512875,... ,820765234533011456,2020-05-17 07:20:28,,city,"Dinuba, CA",United States
24,-110.70934,50.051176500000004,Curtis Bradshaw,820765456340389888,2020-04-07 21:09:37,,city,"Medicine Hat, Alberta",Canada
21,-41.90078,-22.76805,D'Bzios,820765653586112515,2020-03-15 05:29:20,"Armao dos Bzios, Brasil",city,"Armao dos Bzios, Brasil",Brasil
88,130.51349,33.33413,,820765705305849856,2020-05-05 04:07:25, ,poi,TO,
41420,-123.02901499999999,44.935084,Brandon,820765746,2020-03-04 21:58:30,"Oregon, USA",city,"Salem, OR",United States
14700,-93.2174275,36.628276,shayla latture,820765800,2020-02-17 02:51:32,,city,"Hollister, MO",United States
47900,-77.0143985,38.898603,Wymer's DC,820765892376166404,2020-02-18 16:38:12,"Washington, DC",city,"Washington, DC",United States
120,101.58782822,3.22026704,aliFF aZiZaN,82076594,2020-03-20 09:49:09,Ipoh,city,"Batu, Selangor",Malaysia
24,-123.07521000000001,49.32108,goldcapital.ca,820766005097963524,2020-02-20 06:48:33,Greater Vancouver,city,"North Vancouver, British Columbia",Canada
175,46.685077,24.7219435,Nouf Alarifi,820766182911438849,2020-05-09 04:39:37,"Riyadh, Kingdom of Saudi Arabia",city,"Riyadh, Kingdom of Saudi Arabia",Kingdom of Saudi Arabia
42660,-122.205946,47.773496,John McDaniel,820766328164270080,2020-02-14 18:57:41,"Seattle, WA",city,"Bothell, WA",United States
-9999,-34.550309000000006,-4.8747985,ANDERSON DAVID,820766351916724224,2020-02-28 07:25:03,"Batcaverna, Gotham City",city,"Natal, Brasil",Brasil
26420,-95.4464865,29.838495,Bryant,820766787495231489,2020-06-07 04:53:21,"Houston, TX",city,"Houston, TX",United States
35620,-73.960475,40.78508889,Elizabeth Morton,820767126,2020-06-10 21:09:17,"New York, NY",city,"Manhattan, NY",United States
21,-48.667588,-27.7689385,Keko Martins,820767360193875968,2020-03-01 20:02:35,,city,"Palhoa, Brasil",Brasil
8,-58.5893055,-34.772368,Leandro Hoyos,820767565010137090,2020-03-27 19:41:38,"Isidro Casanova, Buenos Aires",city,"Gonzlez Catn, Argentina",Argentina
21,-43.441578,-22.911421500000003,Samanta ,820767890265767936,2020-03-24 22:26:14,"Rio de Janeiro, Brasil",city,"Rio de Janeiro, Brasil",Brasil
205,0.7212505,51.5494385,Pete Mason,82076805,2020-02-28 22:22:00,"Essex, UK",city,"Southend-on-Sea, East",United Kingdom
9,145.0531355,-37.9725665,Sean Law,82076806,2020-03-21 10:59:51,Melbourne,city,"Melbourne, Victoria",Australia
12060,-84.43310600000001,33.7671945,Ralston Welch,820768078959149060,2020-06-03 01:28:55,"Atlanta, GA",city,"Atlanta, GA",United States
88,139.72994350000002,35.76519000000001,Mame.Co.,82076814,2020-02-27 23:28:05,,city, ,
8,-58.442643,-34.604315,Sofi Solange ,820768166540353537,2020-02-14 03:12:30,Argentina ,city,"Ciudad Autnoma de Buenos Aires, Argentina",Argentina
21,-43.441578,-22.911421500000003,Gustavo Henrique,820768230084149248,2020-02-25 15:07:21,,city,"Rio de Janeiro, Brasil",Brasil
21,-46.6333,-23.55,Helen Cristine,820768310786752519,2020-06-06 16:23:08,,city,"So Paulo, Brasil",Brasil
119,-115.3851314,32.6219207,Alessandro Di Saez,820768483,2020-05-04 23:44:33,"Baja California, Mxico",city,"Mexicali, Baja California",Mxico
173,30.328698,59.934148,,82076853,2020-05-17 15:17:49,,city,"-, ",
87,44.403531,33.286709,Omar Khaled,820768886,2020-03-12 16:57:58,"Abu Dhabi, UAE",poi,Baghdad,Iraq
21,-43.422867499999995,-21.708015,Vincius Costa,820769148590583810,2020-05-21 10:34:19,,city,"Juiz de Fora, Brasil",Brasil
65,2.374849,48.844299,grand remplacement is coming,820769298100715524,2020-02-28 19:32:16,Westeros,poi,Gare SNCF de Paris Lyon,France
175,37.40652350000001,31.2953465, ,820769628053979136,2020-02-14 03:56:12,,city,",   ",  
38,-74.849933,10.958072999999999,Mary Gonzalez Nule,820769810795626502,2020-03-15 23:58:21,"Barranquilla, Colombia",city,"Barranquilla, Colombia",Colombia
35620,-73.9685415,40.780709,JJN,820769876,2020-05-13 18:02:48,Upper West Side,city,"Manhattan, NY",United States
71,7.9450965,48.4747315,Ceyda58,820769899144507392,2020-02-23 16:55:02,"Baden-Wrttemberg, Deutschland",city,"Offenburg, Deutschland",Deutschland
10740,-106.632718,35.117002500000005,Kaleb Walker,820769977456132096,2020-03-03 14:18:08,"Hot Springs, AR",city,"Albuquerque, NM",United States
47900,-77.0143985,38.898603,HouseboatJoe,820769997454770177,2020-06-02 00:10:50,"Washington, DC",city,"Washington, DC",United States
65,3.942785,50.324219,C'EST PATATE AH FOU,820770481519362049,2020-04-29 16:34:46,on est dans l'binks,city,"Gognies-Chausse, France",France
40060,-77.49317049999998,37.529883,CastlesRealEstateVA,820770584283987968,2020-03-27 13:06:25,"Richmond, VA",city,"Richmond, VA",United States
38900,-123.19786299999998,46.102416,Jim Raclawski,820770788991115266,2020-04-22 06:07:49,,poi,Anytime Fitness,United States
31020,-122.961913,46.140806,Jim Raclawski,820770788991115266,2020-04-23 00:29:41,,city,"Longview, WA",United States
151,7.424094,9.073663999999999,Ma'ruf Lokoja,82077100,2020-02-14 11:29:39,LOKOJA || ABUJA|| KADUNA ,city,"Abuja, Nigeria",Nigeria
21,-43.441578,-22.911421500000003,Diferenciada ,820771473828839427,2020-06-01 14:10:03,"Mag, Brasil",city,"Rio de Janeiro, Brasil",Brasil
39580,-78.657837,35.8439815,Bro Syzlak ,820772273158230017,2020-05-21 18:51:13,919,city,"Raleigh, NC",United States
21,-46.665124,-23.547271,Ra,820772353663713280,2020-03-01 00:20:21,,poi,Estdio Municipal Paulo Machado de Carvalho (Pacaembu),Brasil
175,43.9595905,26.345051, ,820772504537022466,2020-02-27 09:11:27,",   ",city,",   ",  
24,-79.27256949999999,43.629311,OShea A.,820772616868888577,2020-02-15 23:46:57,,city,"Toronto, Ontario",Canada
21,-48.3585835,-19.0043915,joyy,820772725199343617,2020-04-30 23:09:36,@viquettimc,city,"Uberlndia, Brasil",Brasil
200,28.095903999999997,39.650734,Tugay Gkta,820772852261588992,2020-06-05 20:54:11,Trkiye,poi,Dere Kenar,Trkiye
33340,-88.0255425,43.0675375,Quin Hint,820773145120477184,2020-06-05 16:08:41,,city,"Wauwatosa, WI",United States
82,88.38579142,22.5744049,*F*cking Witch*,820773276897120256,2020-03-21 13:11:13,soul of hannya,city,"Calcuta, ",
38,-75.257537,2.778148,Gabriela Arbelaez,820773362,2020-04-05 20:52:58,Colombia,poi,Municipio de Rivera - Huila,Colombia
9,150.43377800000005,-34.476924,K,820773698718220288,2020-06-01 00:03:27,,city,"Bowral - Mittagong, New South Wales",Australia
21,-43.192547,-22.972382999999997,GALINI,820773869967593476,2020-05-16 06:29:44,"Rio de Janeiro, Brasil",poi,Hospital So Lucas,Brasil
119,-87.04617028,20.67610217,Art Of Dancho,820774038217834496,2020-04-13 05:40:32,,city,"Solidaridad, Quintana Roo",Mexico
25500,-78.968215,38.3858755,,820774235735998469,2020-02-25 23:05:42,,city,"Bridgewater, VA",United States
47900,-76.95271249999998,39.076493,,820774235735998469,2020-02-29 15:44:52,,city,"Fairland, MD",United States
19100,-97.295711,33.085034500000006,mikeba,820774511620608000,2020-05-26 19:33:01,"Texas, USA",city,"Justin, TX",United States
12060,-84.266013,33.738488000000004, RZA XCII (1992) ,820774513336057857,2020-02-21 23:02:54,Between North & South ,poi,Shoals Creek Park II,United States
186,-7.127812,37.218115999999995, ,820774609926705154,2020-06-02 11:04:29,,poi,Puerto de El Rompido,Espaa
21,-43.441578,-22.911421500000003,biGa,820774674682576896,2020-02-20 00:44:37,Rj,city,"Rio de Janeiro, Brasil",Brasil
222,120.36936199,-3.38353112,Musafir Al-Mubarak,820775134122295296,2020-05-11 13:04:45,,city,"Belopa, Indonesia",Indonesia
31080,-118.1567105,33.809171500000005,LBCC Future Teachers,820775267098456064,2020-02-18 18:26:06,"Long Beach, CA",city,"Long Beach, CA",United States
12060,-84.43310600000001,33.7671945,LBCC Future Teachers,820775267098456064,2020-02-29 19:06:15,"Long Beach, CA",city,"Atlanta, GA",United States
31080,-118.1567105,33.809171500000005,LBCC Future Teachers,820775267098456064,2020-03-08 16:41:31,"Long Beach, CA",city,"Long Beach, CA",United States
200,40.517653499999994,41.0293075,ERKAN ELK,820775427035828224,2020-02-17 19:07:16,"Rize, Trkiye",city,"Rize, Trkiye",Trkiye
41860,-122.29564950000001,37.83855,Daryush Nadimi,820775539,2020-06-09 21:05:32,California ,city,"Emeryville, CA",United States
12060,-84.43310600000001,33.7671945,jazmani govea,820775577015685120,2020-02-19 03:23:50,"California, USA",city,"Atlanta, GA",United States
13300,-97.751377,28.4099495,ryan,820775697685811201,2020-04-28 21:33:51,"Beeville, TX",city,"Beeville, TX",United States
119,-100.44059449999999,20.7152745,Hospital S.J Moscati,820775736462180352,2020-02-26 23:49:19,Juriquilla Quertaro,city,"Quertaro, Quertaro Arteaga",Mxico
205,-5.6895615,54.593220499999994,Jason Taff Ellery,820776123927822337,2020-02-24 19:58:28,"Newtownards, Northern Ireland",city,"Newtownards, Northern Ireland",United Kingdom
23340,-96.508996,41.4445675,Edgar Senpai,82077615,2020-03-18 09:37:13,"Lincoln, NE",city,"Fremont, NE",United States
30700,-96.6965625,40.803235,Edgar Senpai,82077615,2020-04-03 20:19:08,"Lincoln, NE",city,"Lincoln, NE",United States
23340,-96.508996,41.4445675,Edgar Senpai,82077615,2020-04-13 11:25:06,"Lincoln, NE",city,"Fremont, NE",United States
21,-43.441578,-22.911421500000003,Kanela-,820776185953140738,2020-02-19 21:07:38,,city,"Rio de Janeiro, Brasil",Brasil
41860,-122.2795215,37.875845500000004,Patrick Buechner,8207762,2020-03-24 18:00:25,"California, USA",city,"Berkeley, CA",United States
19820,-83.105425,42.5054045,Linda Ouimet,820776997982978049,2020-02-14 10:45:28,,city,"Madison Heights, MI",United States
161,72.571625,34.799732,Ilyas Bin Aslam,820777024197459969,2020-02-22 10:40:49,Al Madinah Al Munawwarah,poi,Swat,Pakistan
175,39.6540485,24.462089000000002,Ilyas Bin Aslam,820777024197459969,2020-02-25 04:16:36,Al Madinah Al Munawwarah,city,"Al Madinah Al Munawwarah, Kingdom of Saudi Arabia",Kingdom of Saudi Arabia
43380,-84.369967,40.3573185,Kevin Wrasman,820777194175787008,2020-03-14 20:33:30,,city,"Fort Loramie, OH",United States
21,-47.796623,-15.776254000000002,Dinho ,820777340045238272,2020-02-17 22:34:32,"Taguatinga, Braslia",city,"Braslia, Brasil",Brasil
171,121.50189750000001,17.682935999999994,,820777578755604483,2020-05-04 10:42:05,,city,"Tuao, Cagayan Valley",Republic of the Philippines
186,-8.771557000000001,42.1970575,Mara Ferreira,820777905382887424,2020-03-19 22:32:15,"Madrid, Comunidad de Madrid",city,"Vigo, Espaa",Espaa
88,135.246273,34.794140000000006,@,820778472519798784,2020-03-11 22:37:28,,poi, ,
21,-43.315188,-22.869312,PRETINHO,820778916143108096,2020-03-01 00:22:25,em lugar nenhum ,poi,Cavalcanti City,Brasil
88,135.6133495,34.5534075,,820778944882298880,2020-02-21 14:33:35,,city, ,
38,-74.0794,4.5997,Tatu Mendivelso,82077914,2020-04-26 16:11:03,Colombia,city,"Bogot, D.C., Colombia",Colombia
205,-2.7016375000000004,53.774091000000006,Sarah Greaves,82077935,2020-02-21 21:32:25,preston,city,"Preston, England",United Kingdom
35620,-73.94757299999999,40.846390500000005,kieran =),820779373305405442,2020-02-16 04:15:09,"Pittsburgh, PA",neighborhood,"Washington Heights, Manhattan",United States
88,134.51514650000001,34.04320850000001,,820779440,2020-03-11 22:09:24,,city, ,
38060,-111.8808735,33.2824505,Emily Irby,820779666973696001,2020-06-01 23:30:45,"Gilbert, AZ",city,"Chandler, AZ",United States
151,3.38485,6.488129,alhaji_sexysteel,820779807009099777,2020-02-18 11:06:12,"Ondo, Nigeria",poi,Home Zone Bar,Nigeria
39580,-78.64363900000001,35.855154999999996,WCPSS Magnet Schools,82078022,2020-02-25 22:49:03,"Wake County, NC",poi,Green Elementary,United States
19660,-81.068556,29.190223,Deborahvassallo@yaho,820780317640454144,2020-03-23 00:45:14,,city,"Daytona Beach, FL",United States
17700,-95.633521,37.031968,Chris Bellamy,820780401543286784,2020-02-16 04:36:43,,city,"Coffeyville, KS",United States
19100,-96.8917385,33.079014,Chris Bellamy,820780401543286784,2020-03-28 06:25:33,,city,"The Colony, TX",United States
21,-43.441578,-22.911421500000003,Docinho de limo,820780609379438592,2020-02-23 10:41:45,"Nova Iguau, Brasil",city,"Rio de Janeiro, Brasil",Brasil
82,85.835111,20.382573999999998,Dr. Siddharth Sahoo,82078076,2020-03-22 12:10:53,Bhubaneswar,poi,New Bhubaneswar Station,India
222,111.7641475,-8.173646999999999,Fadiyah Aulannisa Ismail,820781629,2020-05-01 15:28:30,Palopo-Parepare-Kendari,city,"Bandung, Indonesia",Indonesia
171,120.980804,14.608994500000001,Charito de Vera,820782068,2020-03-07 11:08:08,,city,"Manila City, National Capital Region",Republic of the Philippines
21,-51.48205,-30.082578499999997,Jana Engel,820782565,2020-03-29 00:24:05,Brasil,city,"Eldorado do Sul, Brasil",Brasil
12260,-82.163663,33.536182000000004,L. C. Grimes,82078279,2020-05-19 20:24:11,,city,"Evans, GA",United States
193,100.5006675,13.7577895,,820783160631799808,2020-02-15 01:03:31,,city,", ",
12940,-90.945734,30.2850505,Doze Hikury anberlin,820783662170013696,2020-02-15 00:13:34,"Salinas, San Luis Potos",city,"Prairieville, LA",Estados Unidos
88,139.810157,35.6450615,,820783962230358016,2020-05-01 23:36:48,  ,city, ,
21,-46.4179,-24.0107,Michel Pitter,820784010,2020-04-07 00:37:20,"Praia Grande, Brasil",city,"Praia Grande, Brasil",Brazil
21,-44.447016999999995,-19.524901,Natlia NTBello,820784371,2020-05-18 18:01:27,Belo Horizonte Brasil,poi,Fortuna De Minas,Brasil
33460,-93.275622,44.978761999999996,C. La,820785026535071744,2020-02-22 04:55:25,"Alton, IL",poi,First Avenue & 7th St Entry,United States
41180,-90.1510975,38.90121,C. La,820785026535071744,2020-03-24 13:32:04,"Alton, IL",city,"Alton, IL",United States
28140,-94.5592815,39.1000485,Aj Goss,820785380412817409,2020-02-19 15:36:32,"Kansas City, MO",city,"Kansas City, MO",United States
128,4.4314480000000005,50.848416,Arazytik,820785705383301122,2020-02-18 20:00:09,"Bruxelles, Belgique",city,"Woluwe-Saint-Lambert, Belgique",Belgique
21,-46.5955455,-23.682803,Luna,820785774203469825,2020-02-14 02:14:12,wonderland,city,"So Paulo, Brasil",Brasil
8,-58.657268099999996,-34.6460809, ,820785888,2020-03-10 01:14:49,,city,"Morn, Argentina",Argentina
31080,-117.809197,34.029415,Reylene,820785969137729537,2020-02-23 20:54:25,,poi,Global Mission Church,United States
41740,-117.1585,32.7155,Abethegreat,820786078734950400,2020-04-23 04:16:38,"San Diego, CA",city,"San Diego, CA",United States
88,133.3334845,34.522313999999994,,82078648,2020-05-10 06:36:47,,city, ,
175,50.205036,26.294697999999997,Lucifer,820786575479046145,2020-04-08 16:26:42,,poi, ,  
15380,-78.74736899999998,42.7677015,Benjamin Harp,820786897492570112,2020-03-21 14:59:08,"Buffalo, New York, USA",city,"Orchard Park, NY",United States
45780,-83.45349399999999,41.659482000000004,Benjamin Harp,820786897492570112,2020-04-04 14:36:05,"Buffalo, New York, USA",city,"Oregon, OH",United States
29700,-99.45668,27.580070000000003,TheGeekyFitMamma,820787030707859457,2020-02-14 03:07:34,"Laredo, TX",city,"Laredo, TX",United States
119,-99.4938,27.506,TheGeekyFitMamma,820787030707859457,2020-03-07 02:16:11,"Laredo, TX",city,"Laredo, TX",United States
29700,-99.45750809999998,27.58038608,TheGeekyFitMamma,820787030707859457,2020-03-11 02:47:58,"Laredo, TX",city,"Laredo, TX",United States
119,-99.4938,27.506,"TheGeekyFitMamma,,",820787030707859457,2020-05-01 09:00:44,"Laredo, TX",city,"Laredo, TX",United States
29700,-99.454676,27.532077,"TheGeekyFitMamma,,",820787030707859457,2020-05-02 03:37:45,"Laredo, TX",city,"Laredo, TX",United States
24,-81.2487865,42.9488405, Mandikins ,820787256,2020-03-07 01:51:09,"Toronto, Ontario",city,"London, Ontario",Canada
186,-2.9331675,43.2518995,Iker PerezDeAlbeniz,82078768,2020-02-14 13:50:47,Bilbao,city,"Bilbao, Espainia",Espainia
33100,-80.187889,25.781307,chabe.,820788108174262272,2020-03-10 03:01:17,nonya,poi,American Airlines Arena,United States
9,153.489114,-28.553742,Roy Drew,820788216529719296,2020-02-16 00:01:51,"New South Wales, Australia",city,"Mullumbimby, New South Wales",Australia
71,9.3483985,48.6163665,ValdezGaming,820788267087986688,2020-02-18 11:39:09,"Stuttgart, Deutschland",city,"Nrtingen, Deutschland",Deutschland
38060,-111.893272,33.583814000000004,Colin Montgomerie,82078827,2020-02-22 21:37:42,United Kingdom,poi,PGA Tour Superstore,United States
46060,-111.02516899999999,32.358415,Colin Montgomerie,82078827,2020-02-25 22:30:55,United Kingdom,poi,Omni Tucson National Resort,United States
38060,-112.1246765,33.5528625,Colin Montgomerie,82078827,2020-03-02 23:32:00,United Kingdom,city,"Phoenix, AZ",United States
205,-0.6496109999999999,51.396985,Colin Montgomerie,82078827,2020-05-17 15:36:11,United Kingdom,city,"Sunningdale, South East",United Kingdom
33100,-80.12235550000001,26.301198,Tim Leonard,82078833,2020-03-03 11:36:31,,city,"Deerfield Beach, FL",United States
21,-43.441578,-22.911421500000003,Juli ,820788501570588672,2020-02-24 17:45:27,,city,"Rio de Janeiro, Brasil",Brasil
47900,-77.10199899999999,38.8808445,Julia Trainor,820788719737249792,2020-02-17 02:36:18,"Washington, DC",city,"Arlington, VA",United States
21,-40.303863,-20.139694,Sr. Aquariano,820788736476712960,2020-02-14 00:01:07,"Vitria, Brasil",city,"Serra, Brasil",Brasil
30780,-92.58309100000001,34.592187,derrick,820788937128112132,2020-03-28 17:45:15,,city,"Benton, AR",United States
26420,-95.4464865,29.838495,derrick,820788937128112132,2020-04-04 05:04:27,,city,"Houston, TX",United States
205,-2.991523,53.397546,Liam Harrison.,82078904,2020-02-27 11:55:31,,poi,M&S Bank Arena Liverpool,United Kingdom
88,139.67723821,35.61897552,A struggling man,82078909,2020-02-15 05:56:22,Tokyo,city, ,
26420,-95.11855,29.7936785,Viola Cobb Elem,820789137036939264,2020-02-20 16:27:03,"Channelview, TX",city,"Channelview, TX",United States
12900,-91.6250775,35.785776,jodi gilpatrick,820789267,2020-02-14 23:32:54,batesville arkansas,city,"Batesville, AR",United States
42620,-91.730936,35.2383235,jodi gilpatrick,820789267,2020-05-24 20:16:31,batesville arkansas,city,"Searcy, AR",United States
12900,-91.6250775,35.785776,jodi gilpatrick,820789267,2020-05-26 17:44:21,batesville arkansas,city,"Batesville, AR",United States
21,-44.30426366,-2.52723973,Rafael Da Hora,82078950,2020-02-14 14:27:18,So Lus - MA,city,"So Lus, Brasil",Brasil
26420,-95.4464865,29.838495,C.J. Fury,820789897,2020-02-28 07:42:18,,city,"Houston, TX",Estados Unidos
33340,-88.49580350000001,43.1046785,C.J. Fury,820789897,2020-03-26 03:32:50,,city,"Oconomowoc, WI",Estados Unidos
44620,-89.2830875,44.06781150000001,C.J. Fury,820789897,2020-04-25 00:46:59,,city,"Wautoma, WI",Estados Unidos
33340,-88.49580350000001,43.1046785,C.J. Fury,820789897,2020-05-16 18:43:45,,city,"Oconomowoc, WI",Estados Unidos
18140,-83.1433925,40.0408125,Chey Autumn Boettner,820790201110921220,2020-03-06 03:27:08,,city,"Hilliard, OH",United States
40380,-77.57245499999998,43.211767,Lisa W.,820790382648819715,2020-02-15 15:13:33,,city,"Irondequoit, NY",United States
12940,-91.1636195,30.5844255,GenXisatWork,820790461422047233,2020-05-15 22:46:07,"Baker, LA",city,"Baker, LA",United States
65,2.1341924999999997,48.8498035,mlscot,82079047,2020-05-09 12:10:05,,city,"La Celle-Saint-Cloud, France",France
82,76.291661,27.8973185,Krishan das Ghasoliy,820790741148569600,2020-05-03 03:14:22,  ,city,"Behror, India",India
17460,-81.52047850000001,41.58846,Harlems Muva,820790743770009600,2020-03-27 18:51:11,"Euclid, OH",city,"Euclid, OH",United States
88,139.60112572,35.70570005,,82079102,2020-06-06 06:51:03,"Nouvel tokio city, Vana'diel, JUDA Corporation, Suginami",city, ,
24340,-85.66829150000002,42.83039100000001,Greg st.Clair,820791439428911104,2020-02-21 16:44:00,"Caledonia, MI",city,"Cutlerville, MI",United States
41500,-121.879033,36.596299,sir swr,820791515274309633,2020-02-16 06:01:53,"Monterey, CA",city,"Monterey, CA",United States
205,-0.9037,51.53613,Louisa Hoy,820792005659938816,2020-02-28 13:07:13,Oxfordshire UK,city,"Henley-on-Thames, England",United Kingdom
119,-99.14953,19.44015,jorge nieto,820792100,2020-05-04 05:10:10,Los hroes Tecmac ,city,"Cuauhtmoc, Distrito Federal",Mxico
11660,-93.0692445,34.1265645,RHINE,820792490,2020-02-24 01:56:55,"Haslet, TX  Arkadelphia, AR",city,"Arkadelphia, AR",United States
43060,-96.93365849999999,35.347545000000004,RHINE,820792490,2020-02-28 14:21:31,"Haslet, TX  Arkadelphia, AR",city,"Shawnee, OK",United States
11660,-93.0692445,34.1265645,RHINE,820792490,2020-03-08 03:09:46,"Haslet, TX  Arkadelphia, AR",city,"Arkadelphia, AR",United States
19100,-97.2859135,32.7799665,RHINE,820792490,2020-03-23 21:49:56,"Haslet, TX  Arkadelphia, AR",city,"Fort Worth, TX",United States
11660,-93.0692445,34.1265645,RHINE,820792490,2020-03-25 20:30:38,"Haslet, TX  Arkadelphia, AR",city,"Arkadelphia, AR",United States
19100,-97.2859135,32.7799665,RHINE,820792490,2020-03-27 01:24:45,"Haslet, TX  Arkadelphia, AR",city,"Fort Worth, TX",United States
31080,-118.4119065,34.0207895,Taoist Student,820792700874043392,2020-02-14 06:03:40,"Hollywood, Los Angeles",city,"Los Angeles, CA",United States
35380,-89.765519,30.2978625,Taoist Student,820792700874043392,2020-03-08 18:44:18,"Hollywood, Los Angeles",city,"Slidell, LA",United States
25060,-89.40428349999998,30.3214695,Taoist Student,820792700874043392,2020-03-25 21:44:23,"Hollywood, Los Angeles",city,"Shoreline Park, MS",United States
35380,-89.765519,30.2978625,Taoist Student,820792700874043392,2020-03-26 07:21:40,"Hollywood, Los Angeles",city,"Slidell, LA",United States
71,9.1773475,48.7793015,kani ,820792945163010049,2020-03-14 11:42:32,"Stuttgart, Deutschland",city,"Stuttgart, Deutschland",Deutschland
88,139.6262955,35.69816249999999,SK123/JJ1JJQ,820793054948823040,2020-04-27 05:52:36,,city, ,
88,139.7848745,38.571718, ,820793119679520768,2020-03-26 12:57:13,,city, ,
44060,-117.434547,47.667438,Josh Adrian Isnt Dead,820793587,2020-02-18 02:07:14,"Spokane, WA",city,"Spokane, WA",United States
9,145.0531355,-37.9725665,RaymanJT ,82079370,2020-02-25 07:50:17,,city,"Melbourne, Victoria",Australia
19100,-97.09229599999999,32.747958000000004,RaymanJT ,82079370,2020-06-04 02:53:04,,poi,AT&T Stadium,United States
9,145.0531355,-37.9725665,RaymanJT ,82079370,2020-06-05 04:30:40,,city,"Melbourne, Victoria",Australia
21,-43.279136,-22.684023999999997,wesley Pimentel,820793930111401985,2020-06-10 23:44:00,"Rio de Janeiro, Brasil",poi,Restaurante Abasto,Brasil
8,-58.647999,-34.443915999999994,Celina Cceres,820794271,2020-02-14 04:04:06,"Buenos Aires, Argentina",city,"Tigre, Argentina",Argentina
200,29.0052225,41.0213205,The Receptionist,82079476,2020-02-14 07:49:44,stanbul-zmir,city,"stanbul, Trkiye",Trkiye
205,-0.0601675,51.5476445,Jim Grice,82079484,2020-05-13 12:36:35,London,city,"Hackney, London",United Kingdom
24,-73.723025,45.5578305,Venezuelan Engagement Foundation Group,820795008454426624,2020-02-22 00:47:26,"Canada, USA, Venezuela, Spain",city,"Montral, Qubec",Canada
88,135.57589919999998,34.8167096,,8207952,2020-02-16 21:17:36,,city, ,
41860,-122.2286855,37.791994,DSA,820795424852365312,2020-02-15 23:44:59,,city,"Oakland, CA",United States
12060,-84.43310600000001,33.7671945,Queen,820795434595745792,2020-02-14 16:28:45,"Georgia, USA",city,"Atlanta, GA",United States
88,139.906019,35.6447025,,820795463154569218,2020-06-10 15:02:00,,city, ,
41940,-121.8737305,37.331159,Kazuaki Kawashima,82079556,2020-02-15 18:47:28,"Sunnyvale, CA",city,"San Jose, CA",United States
88,139.810157,35.6450615,Kazuaki Kawashima,82079556,2020-02-19 22:42:34,"Sunnyvale, CA",city, ,
41940,-122.0238405,37.378397,Kazuaki Kawashima,82079556,2020-02-23 17:12:39,"Sunnyvale, CA",city,"Sunnyvale, CA",United States
31080,-118.4119065,34.0207895,Kazuaki Kawashima,82079556,2020-05-29 03:28:39,"Sunnyvale, CA",city,"Los Angeles, CA",United States
88,139.810157,35.6450615,Kazuaki Kawashima,82079556,2020-05-30 09:20:15,"Sunnyvale, CA",city, ,
19100,-97.2859135,32.7799665,Dana McKenzie,820795744265367552,2020-04-23 14:13:50,"Fort Worth, TX",city,"Fort Worth, TX",United States
119,-99.13538199999999,19.409013,cazst,820795787097481216,2020-05-31 06:53:25,Ciudad de Mxico,poi,"Metro Chabacano (Lneas 2, 8 y 9)",Mxico
35620,-74.227124,40.400490000000005,lil m,820795909831360514,2020-04-25 23:55:18,,poi,Here,United States
88,137.0239335,35.008217,AIGOYA,820796065691508737,2020-02-26 12:07:00, ,city, ,
34980,-86.728,36.2168,Max Baldridge,820796068292161538,2020-03-03 09:24:23,"Nashvegas, TN",city,"Nashville, TN",United States
200,28.9433452,41.00554884,Enes INAR,82079615,2020-05-01 08:01:47,stanbul / TRKYE,city,"stanbul, Trkiye",Trkiye
186,-8.2693355,43.51121000000001,David,820796184294002690,2020-04-09 22:49:51,,city,"Ferrol, Espaa",Espaa
33,-70.6012185,-33.489946999999994,Viviana,820796319291887616,2020-03-26 20:50:48,Chile,city,"Macul, Chile",Chile
222,98.7033765,3.573225,Windy Dwi Prsanti,82079632,2020-04-26 11:28:39,"Medan,Indonesia",city,"Medan Area, Indonesia",Indonesia
8,-58.002508999999996,-35.572038,,820796558,2020-02-20 01:51:31,"Quilmes, Argentina",city,"Chascoms, Argentina",Argentina
205,-2.1164,52.7252,Josh morris,82079676,2020-06-04 11:20:16,,city,"Penkridge, England",United Kingdom
49300,-81.934474,40.81569,hailey marie best,820796932692070401,2020-03-04 01:17:55,OH,city,"Wooster, OH",United States
15340,-83.259479,40.831909,hailey marie best,820796932692070401,2020-05-09 19:57:43,OH,city,"Upper Sandusky, OH",United States
24,-79.27256949999999,43.629311,Brenda Adler,820797112543838208,2020-03-16 17:54:26,Toronto,city,"Toronto, Ontario",Canada
32820,-89.92202900000002,35.1335205,:   ,820797243557117952,2020-03-29 18:32:45,San Junipero ,city,"Memphis, TN",United States
21,-43.396861,-22.8639,Jlio,820797608880984064,2020-03-09 12:44:39,"Jacarepagu, Rio de Janeiro",poi,Hospital Geral do Rio de Janeiro (HGERJ),Brasil
21,-44.9367105,-20.113882999999998,Cla,820797755341807617,2020-03-07 02:02:31,"Minas Gerais, Brasil",city,"Divinpolis, Brasil",Brasil
82,77.243372,28.719183,Priyanka sharma,820797790074892290,2020-06-04 03:41:39,"Sonia Vihar, New Delhi",poi,Sonia Vihar,India
8,-63.24790600000001,-32.41044,PERLA RO,820798151221215235,2020-02-20 21:48:42,VILLA MARIA CBA ,city,"General San Martn, Argentina",Argentina
21,-40.470364,-20.307374499999998,K I Q ,820798635269099522,2020-05-16 11:51:08,027,city,"Cariacica, Brasil",Brasil
41700,-98.5406515,29.417501, ,820798687811108865,2020-04-01 18:39:41,"San Antonio, TX",city,"San Antonio, TX",United States
23460,-86.00682950000002,34.003125,Gadsden/Etowah Film Group,820798845072343040,2020-02-14 14:56:25,"Gadsden, AL",city,"Gadsden, AL",United States
37860,-86.89077950000002,30.378707000000002,Gadsden/Etowah Film Group,820798845072343040,2020-05-14 13:06:39,"Gadsden, AL",city,"Navarre Beach, FL",United States
23460,-86.00682950000002,34.003125,Gadsden/Etowah Film Group,820798845072343040,2020-05-22 01:47:18,"Gadsden, AL",city,"Gadsden, AL",United States
38,-76.569777,3.650693,Harold Andres Diaz Grijalba,820798878026960896,2020-03-10 03:54:50,"Valle del Cauca, Colombia",poi,La Cumbre,Colombia
71,12.5388355,52.90201,Justin Knig,820798984759480325,2020-05-27 17:58:42,"Berlin, Deutschland",city,"Wusterhausen/Dosse, Deutschland",Deutschland
19820,-83.50420150000001,42.655528499999996,lec,820799012790038530,2020-02-15 04:48:03,4tress of dankitude,city,"White Lake, MI",United States
33100,-80.2333285,25.7823535,lec,820799012790038530,2020-02-16 07:28:15,4tress of dankitude,city,"Miami, FL",United States
28580,-81.7707575,24.5693445,lec,820799012790038530,2020-02-24 04:10:56,4tress of dankitude,city,"Key West, FL",United States
33100,-80.2333285,25.7823535,lec,820799012790038530,2020-02-25 03:31:45,4tress of dankitude,city,"Miami, FL",United States
12060,-84.4703885,33.6312775,lec,820799012790038530,2020-02-25 18:35:52,4tress of dankitude,city,"College Park, GA",United States
19820,-83.50420150000001,42.655528499999996,lec,820799012790038530,2020-02-26 02:17:05,4tress of dankitude,city,"White Lake, MI",United States
21,-41.1118995,-20.0904045,banckert,820800021448822785,2020-05-04 23:42:54,"Esprito Santo, Brasil",city,"Afonso Cludio, Brasil",Brasil
15340,-83.259479,40.831909,Logan Hamilton,820800084837363712,2020-03-01 01:23:46,"Ohio, USA",city,"Upper Sandusky, OH",United States
178,30.9725795,-29.900636,Paballo Kgware,820800326152372224,2020-02-14 07:27:56,"Durban, South Africa",city,"Durban, South Africa",South Africa
222,112.1651175,-8.101633999999999,Ilham Akbar,820800732,2020-03-02 09:12:57,Blitar - Indonesia ,city,"Sanan Wetan, Indonesia",Indonesia
21,-43.296872,-22.644558,F.J,820801250853875713,2020-03-15 00:01:50,"Duque de Caxias, Brasil",city,"Duque de Caxias, Brasil",Brasil
175,46.685077,24.7219435,Afnan Alzaid,82080137,2020-02-22 15:56:56,,city,",   ",  
119,-100.270474,25.736715,Leyer Cruz,820801437114527744,2020-02-29 23:23:18,"Monterrey, Nuevo Len",city,"San Nicols de los Garza, Nuevo Len",Mxico
10740,-106.632718,35.117002500000005,Markos,820801592,2020-02-27 11:52:17,,city,"Albuquerque, NM",United States
42140,-106.214056,35.265106,Markos,820801592,2020-05-05 03:19:31,,poi,"Cerillos, NM",United States
10740,-106.632718,35.117002500000005,Markos,820801592,2020-05-07 13:29:59,,city,"Albuquerque, NM",United States
71,9.981769,53.584033,TwitchSquads,820801806334906370,2020-05-27 09:54:42,,poi,Berlin,Deutschland
205,-1.356315,53.018490500000006,David Muir,82080188,2020-03-18 11:52:57,ilkeston,city,"Heanor, England",United Kingdom
205,-2.61821884,51.45470232,Zachary Diaz,820802278928031745,2020-05-03 12:54:32,"Bristol, England",city,"Bristol, England",United Kingdom
30780,-92.23745100000001,34.820025,Emily Wagner,820802577386340354,2020-06-10 23:02:00,United States,poi,10 Fitness,United States
119,-103.2147545,19.6872285,,820802600,2020-04-25 20:31:00,"Tamazula de gordiano, Jalisco ",city,"Tamazula de Gordiano, Jalisco",Mxico
10580,-74.4861645,42.6810115,Tim Pangman,820802666771152896,2020-04-15 01:42:08,"Cobleskill, NY",city,"Cobleskill, NY",United States
222,106.78443,-6.292137,Aristianti Abimanju,82080320,2020-04-27 07:31:54,,poi,Siloam Hospitals,Indonesia
43060,-96.93365849999999,35.347545000000004,Aaron Anderson,820803391,2020-02-28 19:40:34,,city,"Shawnee, OK",United States
36420,-97.35762,35.47036400000001,Aaron Anderson,820803391,2020-02-29 21:21:05,,city,"Midwest City, OK",United States
43060,-96.93365849999999,35.347545000000004,Aaron Anderson,820803391,2020-03-24 11:55:03,,city,"Shawnee, OK",United States
21,-43.5243665,-22.696528,Souza,820803497318879233,2020-05-24 20:43:24,"Rio de Janeiro, Brasil",city,"Nova Iguau, Brasil",Brasil
8,-58.9846755,-27.452821500000002,Selene ,820803986,2020-03-04 22:19:16,"Resistencia,Chaco",city,"Resistencia, Argentina",Argentina
16700,-79.837322,32.847946500000006,Ethan Adkins,820804326910230528,2020-02-20 01:30:54,"South Carolina, USA",city,"Mount Pleasant, SC",United States
21,-48.50258,-1.47021,Corona vrus? Nem morto!,820804395856228354,2020-03-01 21:31:06,Par,poi,Portal da Amaznia,Brasil
32380,-92.809197,43.2814435,Osage Hot Lunch,820804624206692352,2020-02-14 19:44:14,,city,"Osage, IA",United States
24,-109.979871,53.2854835,Edmond Boyce,820804872,2020-02-17 01:01:04,,city,"Lloydminster (Part), Saskatchewan",Canada
21,-52.048627,-30.126362,kelly,820805445711515648,2020-02-26 16:39:36,"Rio Grande do Sul, Brasil",poi,E.E.E.M. Eng Frederico Horta Barbosa,Brasil
21,-48.87486300000001,-23.896342,rayane,820805768119197697,2020-02-20 16:54:10,"Itapeva, Brasil",city,"Itapeva, Brasil",Brasil
222,112.66168600000002,-7.698995,bucinnyayoon [Yoon Solo],82080598,2020-02-24 01:36:45,Inseonesia,city,"Prigen, Indonesia",Indonesia
88,135.48500900000002,34.575795,akari,820806082557669377,2020-03-10 11:43:19,,poi, (Sakaihigashi Sta.) (NK56),
27140,-90.133675,32.474318,Matt Jones,820806502541852674,2020-02-14 19:50:12,"Mississippi, USA",city,"Madison, MS",United States
35380,-90.1786295,30.001244,Matt Jones,820806502541852674,2020-03-08 18:49:18,"Mississippi, USA",city,"Metairie, LA",United States
27140,-90.12433850000001,32.42939250000001,Matt Jones,820806502541852674,2020-03-14 21:29:33,"Mississippi, USA",city,"Ridgeland, MS",United States
82,73.19235499999998,19.270371,Sameer Sawaiyan,82080662,2020-04-15 15:07:44,MUMBAI,city,"Kalyan Dombivali, India",India
222,110.412526,-6.981905,fro toothless,82080689,2020-04-05 03:37:54,Indonesia,poi,Balaikota Semarang,Indonesia
9,150.900486,-33.947751000000004,Dharmesh Shah,82080700,2020-04-01 08:11:13,Sydney,poi,Casula Mall,Australia
38,-73.5291285,5.6370705,Martn Nuez,820807212545228800,2020-04-29 04:37:33,Colombia,city,"Villa de Leyva, Colombia",Colombia
119,-99.269192,19.5645875,gigi,820807324558204928,2020-04-28 15:55:42,CDMX,city,"Atizapn de Zaragoza, Mxico",Mxico
82,73.50635129,18.40653946,Dr . Rohit,82080741,2020-02-23 02:50:58,"Pune, Maharashtra",city,"Lavasa Lake City, India",India
35620,-73.9685415,40.780709,Tino Formoso,820807414832308225,2020-02-28 19:51:05,"Manhattan, NY",city,"Manhattan, NY",United States
18060,-88.4093905,33.5076145,smooth wanna be lumpy poser,820807758891089920,2020-02-14 22:42:45,JuCity,city,"Columbus, MS",United States
44260,-88.82168850000001,33.456503999999995,smooth wanna be lumpy poser,820807758891089920,2020-02-17 20:21:13,JuCity,city,"Starkville, MS",United States
31080,-118.5032585,34.415631,,820807812905172992,2020-06-10 01:15:45,,city,"Santa Clarita, CA",United States
152,4.904053500000001,52.354728,,820807812905172992,2020-06-11 03:48:30,,city,"Amsterdam, Nederland",Nederland
40140,-116.17881499999999,33.691293,Meli ,820808414,2020-04-01 22:01:26,California,city,"Coachella, CA",United States
31080,-117.85108899999999,33.842863,Meli ,820808414,2020-04-02 01:09:01,California,city,"Anaheim, CA",United States
10900,-75.314054,40.740840999999996,Dean Wilson,820808765402386433,2020-03-05 14:05:29,,city,"Nazareth, PA",United States
175,39.2541285,21.5857105,J E H A D  ,820809303246467073,2020-02-17 18:16:01,Jeddah,city,"Jeddah, Kingdom of Saudi Arabia",Kingdom of Saudi Arabia
31300,-78.96963199999998,34.840068,Ziaqueria,820809358942621696,2020-02-14 03:05:23,Hidden leaf village,city,"Oakland, NC",United States
22180,-79.0021125,35.054627,Ziaqueria,820809358942621696,2020-02-27 22:01:33,Hidden leaf village,city,"Fayetteville, NC",United States
16740,-80.8467855,35.209059,Ziaqueria,820809358942621696,2020-03-01 15:49:53,Hidden leaf village,city,"Charlotte, NC",United States
31300,-78.96963199999998,34.840068,Ziaqueria,820809358942621696,2020-03-02 00:04:36,Hidden leaf village,city,"Oakland, NC",United States
22180,-79.0021125,35.054627,Ziaqueria,820809358942621696,2020-04-12 21:36:04,Hidden leaf village,city,"Fayetteville, NC",United States
21780,-87.5746905,38.003466499999995,"Turn Table, LLC",820809523430625286,2020-04-04 22:24:39,"Evansville, IN, USA",city,"Evansville, IN",United States
21,-43.959822499999994,-19.918692,Xcara triste,820809560365600769,2020-02-28 02:05:51,"Belo Horizonte, Brasil",city,"Belo Horizonte, Brasil",Brasil
41740,-117.10498899999999,32.810012,aria,820809772656009216,2020-02-14 05:35:47,"San Diego, CA",city,"San Diego, CA",United States
23420,-119.78816,36.731615000000005,aria,820809772656009216,2020-02-21 06:01:11,"San Diego, CA",poi,Tioga-Sequoia Brewing Company,United States
41740,-117.10498899999999,32.810012,aria,820809772656009216,2020-02-25 04:45:45,"San Diego, CA",city,"San Diego, CA",United States
15540,-72.86412299999999,44.410047999999996,Daren D. Davis,820810075,2020-02-27 04:45:28,"Chicago, IL",poi,Michelin 4x4 Driving Experience,United States
16980,-88.1613215,41.748496,Daren D. Davis,820810075,2020-03-12 02:57:55,"Chicago, IL",city,"Naperville, IL",United States
19820,-83.853076,42.557346,Daren D. Davis,820810075,2020-04-24 03:01:45,"Chicago, IL",city,"Genoa, MI",United States
16980,-88.1613215,41.748496,Daren D. Davis,820810075,2020-04-27 02:35:47,"Chicago, IL",city,"Naperville, IL",United States
24,-62.7140985,45.683877,Nan McFadgen,820810771,2020-02-17 11:16:17,Canada,city,"Pictou, Nova Scotia",Canada
-9999,-61.8117305,44.321234,Nan McFadgen,820810771,2020-02-20 21:49:43,Canada,city,"Halifax, Nova Scotia",Canada
24,-62.7140985,45.683877,Nan McFadgen,820810771,2020-03-14 15:05:17,Canada,city,"Pictou, Nova Scotia",Canada
82,77.941502,15.7205005,Actor_Dineshbabu,820810968213192707,2020-02-22 08:02:48,"Kurnool, India",city,"Kurnool, India",India
205,-0.1937195,51.4516565,MadSally,82081101,2020-03-04 10:16:51,Wandsworth ,city,"Wandsworth, London",United Kingdom
171,121.03131,14.407882999999998,,820811043219730432,2020-03-28 15:32:33,south,city,"Muntinlupa City, National Capital Region",Republic of the Philippines
21,-38.415704,-12.925655,Jaqueline,820811454,2020-02-27 10:49:47,PE - Brasil,neighborhood,"Itapu, Salvador",Brasil
17140,-84.53981250000002,39.137038,Austin Budiono,820811592,2020-03-10 00:23:28,"Cincinnati, OH",city,"Cincinnati, OH",United States
33340,-88.23338799999998,43.133548499999996,Austin Budiono,820811592,2020-03-31 12:53:17,"Cincinnati, OH",city,"Sussex, WI",United States
26740,-97.907807,38.066142,ju,820811641,2020-03-07 21:47:28,Mount hope,city,"Hutchinson, KS",United States
48620,-97.343915,37.6838965,ju,820811641,2020-03-09 15:42:01,Mount hope,city,"Wichita, KS",United States
12780,-95.9559565,36.742546999999995,ju,820811641,2020-03-10 01:08:06,Mount hope,city,"Bartlesville, OK",United States
26740,-97.907807,38.066142,ju,820811641,2020-03-12 18:23:29,Mount hope,city,"Hutchinson, KS",United States
38300,-79.9806895,40.431389,Chrome Dinette,820811844,2020-03-09 09:27:23,,city,"Pittsburgh, PA",United States
91,34.290638,0.067896,#COVID19,820811864,2020-04-13 11:40:44,"Dallas, TX",city,"Siaya, Kenya",Kenya
9,152.9931965,-27.382143,Adam Beck,82081200,2020-02-17 01:23:15,Between BNE-SYD-PDX (Oregon),city,"Brisbane, Queensland",Australia
158,174.8562435,-36.595729,Adam Beck,82081200,2020-03-03 18:04:13,Between BNE-SYD-PDX (Oregon),city,"Auckland, New Zealand",New Zealand
9,152.9931965,-27.382143,Adam Beck,82081200,2020-03-04 06:11:29,Between BNE-SYD-PDX (Oregon),city,"Brisbane, Queensland",Australia
171,123.846722,10.3748325,,820812085562966016,2020-04-25 16:09:28,Jobrhean,city,"Cebu City, Central Visayas",Republic of the Philippines
91,36.9819755,-1.1780745,Kaktus Kusini,82081213,2020-02-16 17:40:36,"Nairobi, Kenya",city,"Ruiru, Kenya",Kenya
45940,-74.80812549999997,40.271043,Pinaki Kathiari,8208122,2020-03-04 01:21:46,"New Jersey, USA",city,"Ewing, NJ",United States
37980,-74.942583,40.364601,Pinaki Kathiari,8208122,2020-03-20 17:07:29,"New Jersey, USA",poi,The Hibernia Firehouse,United States
88,139.62239205,35.58046982,,82081226,2020-02-20 12:40:34,,city,  ,
28140,-94.9649785,38.9629655,Dave Burns,820812400064602119,2020-04-01 01:16:47,America And Proud Of It,city,"De Soto, KS",United States
24,-79.27256949999999,43.629311,Humber Film,820812497653473281,2020-03-26 02:20:39,"Toronto, Ontario",city,"Toronto, Ontario",Canada
9,150.931975,-33.848244,Donna Rawlins French,820812772036382720,2020-02-20 23:57:22,Australia,city,"Sydney, New South Wales",Australia
33,-70.665203,-33.441494,jhery vivar guzman,82081287,2020-02-15 23:29:13,santiAsko,city,"Santiago, Chile",Chile
19100,-96.76818100000001,32.876785,brenda ,820813424,2020-04-08 21:58:37,"Garland, TX",poi,Planet Earth,United States
82,79.4284,13.6293,Yuvakumar,820813695374737408,2020-04-19 08:23:58,"Tirupati, India",city,"Tirupati, India",India
21,-43.230075,-22.912053,v,820813862253527041,2020-03-08 11:01:30,rj,poi,Estdio Jornalista Mrio Filho (Maracan),Brasil
10580,-73.766756,43.066928999999995,Time For A Change,82081411,2020-02-14 07:36:32,Cheshire,city,"Saratoga Springs, NY",United States
205,-2.656145,53.216354,Time For A Change,82081411,2020-02-17 20:30:52,Cheshire,city,"Delamere, England",United Kingdom
222,106.7814675,-6.4608865,Semuto,82081425,2020-02-15 09:45:11,"Bandung, Jawa Barat",city,"Bojonggede, Indonesia",Indonesia
37980,-75.00426054,40.01272713,stephen ('' ),820814628238323713,2020-04-02 00:49:59,pyongyang,city,"Cinnaminson, NJ",United States
38300,-79.9806895,40.431389,Nicolas Harrington,820814706617163776,2020-03-11 12:02:14,"Pittsburgh, PA",city,"Pittsburgh, PA",United States
152,4.384188,51.930046,Bas den Burger,82081501,2020-03-04 18:07:47,,city,"Schiedam, Nederland",Nederland
35620,-73.9487755,40.655138,Annie B.,820815175,2020-03-22 22:02:39,,city,"Brooklyn, NY",United States
39300,-71.500833,41.437057,Annie B.,820815175,2020-06-06 21:46:28,,city,"Wakefield, RI",United States
35620,-73.9487755,40.655138,Annie B.,820815175,2020-06-10 15:02:24,,city,"Brooklyn, NY",United States
21,-52.592380000000006,-26.32419,Leh Dj,82081519,2020-03-01 17:00:16,"Maripolis, Paran  Brasil",city,"Maripolis, Brasil",Brasil
222,106.797867,-6.249834,Thieka Razak,82081551,2020-04-16 19:28:23,Jakarta-Indonesia,poi,"Puncak, Jawa Barat",Indonesia
29540,-76.3044,40.0399,D.B. Jeffers,820815566,2020-05-04 14:25:06,"Lancaster, PA",city,"Lancaster, PA",United States
82,77.095086,28.638489500000002,Rajesh Manjhi,820815607297966080,2020-04-08 04:33:28,"New Delhi, India",city,"New Delhi, India",India
21,-43.3697645,-22.7854705,Bigodin ,820815761879003137,2020-02-14 01:33:05,"Liverpool, England",city,"So Joo de Meriti, Brasil",Brasil
205,-4.2184315,55.90977700000001,stevoo,82081594,2020-03-24 09:58:25,"Glasgow,Scotland",city,"Bishopbriggs, Scotland",United Kingdom
191,8.574946,47.699732,D@nbo_Refugee _,820816088502046721,2020-03-28 19:16:22,Schweiz,city,"Beringen, Schweiz",Schweiz
21,-48.101460499999995,-10.115636,walter ohofugi,820816177,2020-03-27 16:16:12,,city,"Palmas, Brasil",Brasil
31180,-101.897173,33.5705265,Brandon G,820816200787697664,2020-03-08 16:41:40,Texas,city,"Lubbock, TX",United States
43300,-96.5622275,33.740883000000004,Brandon G,820816200787697664,2020-03-15 16:30:58,Texas,city,"Denison, TX",United States
33460,-93.103814,44.952929, Crash from Minneapolis,820816390903005184,2020-06-02 20:26:21,"Minneapolis, MN",poi,Minnesota State Capitol,United States
36740,-81.759451,28.561064000000002,Joshua Mitchell,820816445873463300,2020-02-28 21:58:10,"Boothwyn, PA",poi,Waterfront Park,United States
37980,-75.3238995,39.878068,Joshua Mitchell,820816445873463300,2020-02-29 23:05:41,"Boothwyn, PA",city,"Ridley Park, PA",United States
35620,-73.01616849999998,40.9366775,Dra,820816690946670592,2020-06-06 22:22:07,"New York, USA",city,"Mount Sinai, NY",United States
71,6.96747,50.957617,Katharina Grygiel,82081674,2020-03-25 15:43:03,"Neuehrenfeld, Kln",city,"Kln, Deutschland",Deutschland
8,-60.5131655,-31.7601775,,820816843275374592,2020-03-07 18:57:20,"Entre Ros, Argentina",city,"Paran, Argentina",Argentina
21,-46.2482206,-22.6615099,Dicono Ivo Claudio,82081706,2020-02-15 19:10:55,,city,"Munhoz, Brasil",Brasil
47260,-76.30790234,36.88557626,Theta Chi ODU,820817186,2020-06-03 15:48:55,Old Dominion University,city,"Norfolk, VA",United States
222,106.82066999999999,-6.3661595,G,820817622,2020-03-06 07:07:04,,city,"Beji, Indonesia",Indonesia
175,39.361682,21.425499,s3eedGH,820817724913881088,2020-03-20 15:47:08,"Makkah Al Mukarrama, Kingdom of Saudi Arabia",poi,   | National Guard Hospital,Kingdom of Saudi Arabia
21,-41.9777405,-22.2822555,pretto ,820817734330155009,2020-02-14 16:02:36,"Rio de Janeiro, Brasil",city,"Maca, Brasil",Brasil
20660,-76.0697995,38.769920500000005,mydogatemyhotpocket,820817985279496192,2020-02-16 20:56:52,"Maryland, USA",city,"Easton, MD",United States
28260,-99.067996,40.6998,Diane Duffin,820818325,2020-02-23 02:13:42,"Kearney, Nebraska",city,"Kearney, NE",United States
42340,-81.267942,32.099476,Warren Jones,820818532040511488,2020-02-17 03:21:01,"Honolulu, HI",city,"Pooler, GA",United States
82,85.107271,25.517066,Ramashish Kumar,820818652521988097,2020-04-02 06:03:12,", ",poi,Punpun Station,India
82,78.423175,17.475622,Pavansunny27,820819224922730496,2020-05-15 02:35:55,"Hyderabad, India",poi,Kukatpally Y-Junction,India
205,-4.18646,55.7594635,Gary Marshall,82081924,2020-02-15 22:05:48,"Glasgow, Scotland",city,"East Kilbride, Scotland",United Kingdom
33860,-86.362275,32.475983,Stuart Peters ,820819367659270144,2020-02-14 21:27:05,"Millbrook, AL",poi,Village Green Park,United States
37460,-85.67901450000001,30.180117499999998,Stuart Peters,820819367659270144,2020-04-25 23:40:24,"Millbrook, AL",city,"Panama City, FL",United States
33860,-86.37314549999998,32.5197795,Stuart Peters,820819367659270144,2020-04-29 02:54:17,"Millbrook, AL",city,"Millbrook, AL",United States
51,-9.0333065,51.903863,Cathy,82081945,2020-02-24 20:13:14,"Sofa, Ireland",city,"Cork, Ireland",Ireland
119,-109.1037265,25.9219465,Miguel Mora,820819471942250496,2020-04-21 21:01:06,Mxico,city,"Ahome, Sinaloa",Mxico
36420,-97.679899,35.167351000000004,Tate,820819737215205377,2020-03-05 19:53:57,"Oklahoma, USA",poi,Gravel Pit,United States
163,-79.567327,9.628898,Jos Justin,820819878,2020-02-23 21:59:58,Panama,poi,Isla Grande Colon,Panam
171,120.907503,14.4480255,CLINT ,820820159099125760,2020-02-14 01:34:36,"Cavite City, Calabarzon",city,"Kawit, Calabarzon",Republic of the Philippines
38,-74.0794,4.5997,YoaEscultor,820820305342038016,2020-02-26 15:56:36,"Bogot, D.C., Colombia",city,"Bogot, D.C., Colombia",Colombia
21,-43.441578,-22.911421500000003,psico 6 FML FJV ,820820676969984000,2020-03-11 02:30:02,"Rio de Janeiro, Brasil",city,"Rio de Janeiro, Brasil",Brasil
28140,-94.3783325,39.0880045,Kimberly Burton,820820697425608706,2020-02-29 03:50:19,United States,city,"Independence, MO",United States
211,-66.930644,10.483539,Soy Mariana Prada ,820821284,2020-02-19 05:42:28,Aqu y Ahora!,city,"Caracas, Venezuela",Venezuela
10900,-75.88335649999998,40.832763,James S. Gregory,820821439343460352,2020-03-04 16:56:28,"Bethlehem, PA",city,"Lansford, PA",United States
38,-75.619213,6.270883,Jess David Tovar,820821573204578305,2020-02-14 00:15:39,"Medelln, Colombia",city,"Medelln, Colombia",Colombia
35620,-73.867785,40.854282,KE,820822135769800704,2020-02-25 03:34:04,"Bronx, NY",poi,Planet Fitness,United States
21,-46.5955455,-23.682803,juju,820822164601503748,2020-02-14 10:55:56,,city,"So Paulo, Brasil",Brasil
21,-49.261299,-16.642782500000003,desgraadao Alves,820822246973468672,2020-04-18 15:54:30,"Goinia, Brasil",city,"Goinia, Brasil",Brasil
200,39.590412,41.0194805,nal olak,82082250,2020-02-18 20:24:43,,city,"Akaabat, Trkiye",Trkiye
96,47.94199693,29.34118373,A,820822745835536384,2020-02-14 16:52:44,,city," ,  ", 
21,-40.292823,-20.2804105,lucas santos ,820822838785507328,2020-02-14 21:13:14,027,city,"Vitria, Brasil",Brasil
21,-38.5026475,-12.8753345,Gui b de Arrascaeta (O RETORNO),820822881869373440,2020-02-14 02:33:37,"Vila Laura, Salvador",city,"Salvador, Brazil",Brazil
119,-102.30728672,21.85024046,Santuario Artstico de Aguascalientes,820823023179726848,2020-02-14 22:03:05,Santuario Artstico Ags,city,"Aguascalientes, Mxico",Mxico
16740,-80.81504699999998,35.48099550000001,emma melton,820823109909512192,2020-04-17 22:09:48,"Maryland, USA",city,"Davidson, NC",United States
47900,-77.3141525,39.395430499999996,emma melton,820823109909512192,2020-04-20 15:26:03,"Maryland, USA",city,"Linganore, MD",United States
12060,-84.43310600000001,33.7671945,Jon Gosier,8208232,2020-03-12 04:51:54,"Atlanta, GA",city,"Atlanta, GA",United States
41740,-116.95235249999999,32.7992535,Adium Tech,820823377673756672,2020-03-17 02:56:56,"San Diego, CA",city,"El Cajon, CA",United States
