currentGEOID,lon,lat,name,author_Id,created_at,location,place_type,place_full_name,place_country
8,-71.3222025,-41.130443,Fer,3122228284,2020-05-27 18:04:11,"San Carlos de Bariloche, Argen",city,"San Carlos de Bariloche, Argentina",Argentina
44060,-117.36587766,47.66484272,MuffnSnatcher,312222902,2020-02-23 20:08:04,"Spokane, WA",city,"Spokane, WA",United States
8,-71.3098,-41.1347,Marcela Psonkevich,312223009,2020-04-23 15:19:27,Bariloche,city,"San Carlos de Bariloche, Argentina",Argentina
40140,-117.3149705,33.6658655,,3122230164,2020-05-22 19:56:52,,city,"Lake Elsinore, CA",United States
71,9.055611,49.9816695,Thomas Bauer-Debor,312223144,2020-03-28 21:41:23,germany stockstadt am main,city,"Stockstadt am Main, Deutschland",Deutschland
205,-2.4551335,53.825214,Tim Cutting,312223165,2020-03-26 21:05:23,Manchester,city,"Brockhall Village, England",United Kingdom
10540,-123.103054,44.637059,Sethvan,31222326,2020-06-01 02:06:44,"T: 44.623517,-123.122848",poi,T's Strength Studio Gym,United States
175,46.685077,24.7219435,Aboo.sh,312223329,2020-03-01 19:13:17,,city,"Riyadh, Kingdom of Saudi Arabia",Kingdom of Saudi Arabia
175,39.6540485,24.462089000000002,waraxos,3122235319,2020-02-14 03:11:24,Asia,city,"Al Madinah Al Munawwarah, Kingdom of Saudi Arabia",Kingdom of Saudi Arabia
16980,-87.8512035,41.604577,Lisa Blackman,31222356,2020-02-16 21:50:10,"Palos Park, IL",city,"Orland Park, IL",United States
28940,-83.9638415,35.982470500000005,Jamie Poore,3122237238,2020-04-14 02:40:50,,city,"Knoxville, TN",United States
71,6.683330000000001,51.2,WHITEROCK-ART,3122237674,2020-05-18 13:28:23,Neuss,city,"Neuss, Deutschland",Deutschland
49,-78.43804,-0.20307999999999998,Carlos Mera,312223777,2020-03-17 02:32:59,"Quito, Ecuador",city,"Quito, Ecuador",Ecuador
205,-0.3506925,51.461742,John,312223836,2020-04-09 21:06:59,"London, England",city,"Hounslow, London",United Kingdom
178,32.198483499999995,-28.419315,Sizwe Sikhakhane,3122239239,2020-02-29 06:37:54,"Pietermaritzburg, South Africa",city,"Mtubatuba, South Africa",South Africa
65,6.7797679,45.5753269,Yippe.com,31222401,2020-02-17 14:05:34,Everywhere,city,"Bourg-Saint-Maurice, France",France
36740,-81.641121,29.018949,Puta,3122241994,2020-03-22 00:56:09,"Florida, USA",poi,Ocala National Forest,United States
65,1.40625,47.98992167,PayDayMusicGroup,31222435,2020-03-14 18:58:11,"Kingston, Jamaica",city,"Le Me, France",France
83,46.207052000000004,36.527796,Ks_hiphopp,3122244088,2020-04-12 08:06:47,,poi, |MirzaGhader Restaurant,  
151,6.006958,5.492919499999998,thatfineisokogirl,3122244356,2020-03-04 20:13:59,"Delta, Nigeria",city,"Ughelli, Nigeria",Nigeria
33,-73.317378,-37.246152,Juan Jos Saavedra,3122244626,2020-05-31 04:53:18,"Arauco, Chile",city,"Arauco, Chile",Chile
88,140.85696000000002,38.253195,,312224528,2020-02-21 21:49:24,,poi,,
120,100.3737135,6.112784,MUAMMAR IQHBAL,312224578,2020-02-18 01:21:14,,city,"Alor Star, Kedah",Malaysia
37980,-75.605775,39.95993,William Monteith,312224607,2020-03-19 11:54:50,,city,"West Chester, PA",United States
200,29.0052225,41.0213205,NKC,3122246127,2020-02-29 17:13:38,"skdar, stanbul",city,"stanbul, Trkiye",Trkiye
45300,-82.67290299999998,27.7957195,bailee allen,3122246268,2020-02-15 01:40:45,,city,"St Petersburg, FL",United States
23620,-97.130289,33.6343665,bailee allen,3122246268,2020-03-17 20:14:43,,city,"Gainesville, TX",United States
36420,-97.35762,35.47036400000001,bailee allen,3122246268,2020-03-17 23:22:06,,city,"Midwest City, OK",United States
38620,-97.292896,36.79767800000001,bailee allen,3122246268,2020-03-19 20:06:26,,city,"Blackwell, OK",United States
36420,-97.35762,35.47036400000001,bailee allen,3122246268,2020-03-30 22:01:45,,city,"Midwest City, OK",United States
38620,-97.292896,36.79767800000001,bailee allen,3122246268,2020-04-03 05:20:13,,city,"Blackwell, OK",United States
36420,-97.455741,35.695221999999994,bailee allen,3122246268,2020-04-15 21:13:56,,city,"Edmond, OK",United States
38620,-97.292896,36.79767800000001,bailee allen,3122246268,2020-04-26 21:52:12,,city,"Blackwell, OK",United States
36420,-97.455741,35.695221999999994,bailee allen,3122246268,2020-05-01 05:55:41,,city,"Edmond, OK",United States
88,139.4917695,35.4669035,kalibur,3122247570,2020-02-19 09:15:40,,city,  ,
51,-7.888808500000001,52.46745,Niall White,312224781,2020-03-22 10:54:31,,city,"South Tipperary, Ireland",Ireland
119,-98.84376866,19.68130432,Luis M Huerta RAVELO,3122248234,2020-03-13 03:23:18,"Teotihuacn, Mxico",city,"Teotihuacn, Mxico",Mxico
19100,-97.2859135,32.7799665,david johnson,31222483,2020-02-19 15:43:25,"Texas, USA",city,"Fort Worth, TX",United States
65,2.34310768,48.883012,:!,3122249295,2020-02-26 18:13:25,,city,"Paris, France",France
33,-70.515078,-33.485944,Susana,31222500,2020-03-03 16:29:12,chile,city,"Pealoln, Chile",Chile
40140,-117.173571,34.052873500000004,Stassia,3122250746,2020-02-15 18:51:08,"Redlands, CA",city,"Redlands, CA",United States
119,-116.8888435,32.252480500000004,Stassia ,3122250746,2020-03-07 00:45:03,"Redlands, CA",city,"Playas de Rosarito, Baja California",Mexico
40140,-117.173571,34.052873500000004,Stassia ,3122250746,2020-03-08 09:31:33,"Redlands, CA",city,"Redlands, CA",United States
31080,-117.99873249999999,33.692541999999996,Stassia ,3122250746,2020-05-29 07:31:14,"Redlands, CA",city,"Huntington Beach, CA",United States
40140,-117.173571,34.052873500000004,Stassia ,3122250746,2020-05-30 19:04:52,"Redlands, CA",city,"Redlands, CA",United States
119,-96.91081422,19.53511204,Adn Alvarado,312225077,2020-02-18 17:35:03,"Zacatecas, Mexico",city,"Xalapa, Veracruz de Ignacio de la Llave",Mxico
14460,-71.312617,42.6931085,whats your name...paul? check this out paul,3122250920,2020-03-04 00:43:52,Vanuatu (pls dont stalk me),city,"Dracut, MA",United States
21,-63.020375,-9.9786905,Arthur Shelby ,3122251373,2020-02-15 06:03:04,"Ariquemes, Brasil",city,"Ariquemes, Brasil",Brasil
205,-1.2357245000000001,53.4838395,Tina Shaw,312225364,2020-02-14 12:00:22,,city,"Conisbrough, England",United Kingdom
19100,-97.2859135,32.7799665,Alicia Acosta,3122254195,2020-05-30 12:38:48,,city,"Fort Worth, TX",United States
31080,-118.4119065,34.0207895,Eric Dickerson,312225429,2020-02-23 15:39:04,California,city,"Los Angeles, CA",United States
65,0.842992,47.2586535,Henry Maxime,312225433,2020-04-26 21:47:23,Esvres ,city,"Cormery, France",France
41540,-75.10190949999999,38.539839,OVERTIME PUMP ,3122255682,2020-02-21 17:11:38,"Coolspring, DE",city,"Ocean View, DE",United States
20100,-75.43003999999998,38.91436450000001,OVERTIME PUMP ,3122255682,2020-05-07 13:38:30,"Coolspring, DE",city,"Milford, DE",United States
41540,-75.0751235,38.695917,OVERTIME PUMP ,3122255682,2020-06-10 19:41:20,"Coolspring, DE",city,"Dewey Beach, DE",United States
65,2.347003,48.8588335,Alessandro Kandiah,312225593,2020-03-14 20:38:53,Paris,city,"Parigi, Francia",Francia
88,142.44495700000002,43.750103,,3122256655,2020-03-09 13:06:48,,city, ,
205,-1.2334334999999998,51.75428599999999,ODD-ONE,3122257054,2020-03-09 13:46:19,"Oxford, England",city,"Oxford, England",United Kingdom
173,45.97845,51.5264,ODD-ONE,3122257054,2020-03-21 13:34:29,"Oxford, England",city,", ",
33460,-93.4594295,44.8462005,Ryan Jelinek,312225706,2020-02-14 20:36:44,"Minneapolis, MN",city,"Eden Prairie, MN",United States
119,-99.15234,19.328383,Kadir merltfioullar,312225809,2020-03-05 17:42:06,istanbul,city,"Coyoacn, Distrito Federal",Mxico
47900,-76.949078,39.05468000000001,"Willard Felton, Sr.",3122258091,2020-04-21 23:35:22,,city,"Calverton, MD",United States
186,-3.7826769999999996,40.380777,BiciBrew,3122258207,2020-03-27 07:30:42,,poi,Los Toledanos,Espaa
171,121.298157,14.1402685,mona is the lisa,3122258418,2020-02-14 21:42:30,"Calauan, Laguna",city,"Calauan, Calabarzon",Republic of the Philippines
21,-49.109626500000005,-26.872810499999996,Matheus Henrique,3122259481,2020-02-14 10:28:07,,city,"Blumenau, Brasil",Brasil
65,2.5855855,48.776835,,3122260487,2020-03-11 20:30:43,Gouraya ,city,"La Queue-en-Brie, France",France
65,1.4329005,43.600757,Ismail ,3122263821,2020-02-27 17:30:13, 31,city,"Toulouse, Francia",Francia
12540,-119.437642,35.450454,KatelynSacks,3122264479,2020-04-03 18:16:07,"Buttonwillow California, USA",poi,Buttonwillow Land & Cattle,United States
21,-46.5955455,-23.682803,Gabi,3122264482,2020-03-09 23:00:12,,city,"So Paulo, Brasil",Brasil
189,18.1963485,59.359655,Jessica Schedvin,312226473,2020-02-15 19:54:34,,city,"Liding, Sverige",Sverige
85,13.327898,41.6344995,Daniele Corsi,312226530,2020-02-17 06:16:16,Frosinone,city,"Frosinone, Lazio",Italia
205,-1.3743524999999999,50.9736625,Llexy,312226753,2020-04-13 18:12:26,,city,"Eastleigh, England",United Kingdom
41780,-82.592792,41.2925415,Ashley Newman,312226829,2020-02-26 21:12:23,OH ,city,"Milan, OH",United States
35620,-73.509962,40.666985,Diehard Johnny,3122269252,2020-04-09 16:38:30,,city,"Wantagh, NY",United States
39580,-78.657837,35.8439815,Skluge,3122269405,2020-05-01 20:42:30,,city,"Raleigh, NC",United States
9,150.931975,-33.848244,Michael O'Kane,312227079,2020-06-03 09:48:59,Drumsurn.,city,"Sydney, New South Wales",Australia
35620,-74.032258,40.746379499999996,Keith A. Gresham,312227139,2020-03-21 00:15:57,"New Jersey, USA",city,"Hoboken, NJ",United States
40140,-117.0093985,33.935967,Chris Darafeev,31222719,2020-04-27 04:57:45,Southern California,city,"Beaumont, CA",United States
34980,-86.791549,36.200008000000004,William Hicky,31222725,2020-02-19 05:21:00,"Nashville, Tennessee",city,"Nashville, TN",United States
37860,-86.89077950000002,30.378707000000002,breeauna,3122272507,2020-03-17 00:40:42,henryville,city,"Navarre Beach, FL",United States
19300,-87.6878,30.271,breeauna,3122272507,2020-03-17 23:58:16,henryville,city,"Gulf Shores, AL",United States
31140,-85.82278600000002,38.323745,Breeauna,3122272507,2020-04-20 00:17:25,,city,"New Albany, IN",United States
119,-99.2480095,19.318042000000002,canti,3122273342,2020-03-14 23:27:15,,city,"lvaro Obregn, Distrito Federal",Mxico
205,-3.83315834,53.31920266,Jeanine Cathrein,3122273675,2020-05-10 14:42:51,Llandudno ,city,"Llandudno, Wales",United Kingdom
40420,-88.86153,42.25269950000001,Blue Thunder Golf,3122275080,2020-03-09 01:52:41,Belvidere IL,city,"Belvidere, IL",United States
35980,-71.86060400000001,41.372244,Shannon,3122275550,2020-05-07 18:28:58,,city,"Pawcatuck, CT",United States
31080,-117.934611,33.916802000000004,Kim,3122276412,2020-03-05 05:12:07,,poi,Walmart,United States
35620,-74.298292,40.106995,Momma D,31222772,2020-02-21 00:14:00,"New York, NY",city,"Whitesville, NJ",United States
35620,-73.79949350000001,41.669921,Savannah,3122279180,2020-02-18 14:20:19,,city,"Freedom Plains, NY",United States
119,-89.6167,20.9667,Robbie Elias,31222807,2020-02-22 20:44:04,"Miami, FL",city,"Mrida, Yucatn",Mexico
33100,-80.2333285,25.7823535,Robbie Elias,31222807,2020-03-11 02:10:35,"Miami, FL",city,"Miami, FL",United States
21,-40.470364,-20.307374499999998,t,3122280713,2020-02-14 02:00:01,,city,"Cariacica, Brasil",Brasil
186,-4.674251,37.8476005,Antonio Dorado Carmo,3122281731,2020-05-01 21:01:55,"Crdoba, Andaluca",city,"Crdoba, Espaa",Espaa
51,-6.2357200000000015,53.494598,kieran byrne,312228279,2020-03-12 22:26:27,,city,"Fingal, Ireland",Ireland
12060,-84.4993895,34.241152500000005,Who Cares,312228343,2020-02-23 14:26:49,Georgia,city,"Canton, GA",United States
41860,-122.0770345,37.953816499999995,Tchong,3122283650,2020-02-14 23:08:39,,city,"Pleasant Hill, CA",United States
48620,-97.3358,37.6933,Sarah Hill,31222849,2020-04-11 06:42:47,"Wichita, Ks",city,"Wichita, KS",United States
35380,-90.01100799999999,29.982601000000003,Dee3,3122285154,2020-02-23 22:38:21,"New Orleans, LA",city,"New Orleans, LA",United States
25620,-89.338039,31.310637,Dee3,3122285154,2020-02-26 22:55:59,"New Orleans, LA",city,"Hattiesburg, MS",United States
27140,-90.1580165,32.230987,Dee3,3122285154,2020-02-29 04:22:10,"New Orleans, LA",city,"Jackson, MS",United States
25620,-89.338039,31.310637,Dee3,3122285154,2020-02-29 23:29:08,"New Orleans, LA",city,"Hattiesburg, MS",United States
35380,-90.01100799999999,29.982601000000003,Dee3,3122285154,2020-03-16 04:31:39,"New Orleans, LA",city,"New Orleans, LA",United States
105,9.553315,47.1406195,Gramoz Sejfijaj,3122286987,2020-04-13 23:39:12,Vaduz,city,"Vaduz, Liechtenstein",Liechtenstein
21,-52.154703000000005,-22.8314005,  ,3122288008,2020-04-05 02:45:20,"So Joo do Caiu, Paran",city,"Paranacity, Brasil",Brasil
186,-15.435954,28.140306,Mercedes,312228824,2020-02-19 02:34:18,,poi,Playa de Las Canteras,Espaa
71,6.96747,50.957617,Mercedes,312228824,2020-03-11 20:40:46,,city,"Colonia, Alemania",Alemania
205,-0.14893599999999999,51.500091999999995,Heather Smith,312228900,2020-02-22 18:45:52,,city,"London, England",United Kingdom
152,6.659408,52.3445675,Anja Senger HRM,312228952,2020-02-17 08:38:01,oldenzaal,city,"Almelo, Nederland",Nederland
119,-89.53149400000002,20.915111000000003,Coco Rodriguez,3122289767,2020-02-28 07:37:55,"Merida,Yucatan ",city,"Kanasn, Yucatn",Mxico
71,10.018316,53.542474,Turan Uzun,312228997,2020-03-29 17:30:55,"Hamburg, Trabzon, Dzce",poi,Gromarkt Hamburg,Deutschland
88,130.783439,32.8893835,,3122290099,2020-03-30 12:38:36,,city, ,
205,-3.0394275,53.36269300000001,Neil,3122290738,2020-04-20 14:49:20,"Liverpool, England",city,"Birkenhead, England",United Kingdom
205,-0.159403,51.5424365,ray vonn 1960,3122291359,2020-03-05 17:11:31,"Hullbridge, East",city,"Camden Town, London",United Kingdom
178,30.9683365,-25.4841985,Nyiko,312229144,2020-03-05 17:47:07,,city,"Nelspruit, South Africa",South Africa
33,-70.6596155,-33.4521615,  ,31222918,2020-02-14 10:32:39,"Santiago, Metropolitana de Santiago",city,"Santiago, Chile",Chile
24,-123.69106399999998,48.405466499999996,Jim Bottomley,312229305,2020-04-01 01:05:05,"Sooke BC, Canada",city,"Sooke, British Columbia",Canada
205,-0.11135844,51.50721863,Suzy Page,3122295756,2020-02-24 07:58:51,Manchester ,city,"Lambeth, London",United Kingdom
31080,-118.0071635,33.900901000000005,Mark KK6OTJ  ,3122296142,2020-02-24 03:06:37,"DM04 Moorpark, California, USA",city,"La Mirada, CA",United States
37100,-118.876498,34.283083000000005,Mark KK6OTJ  ,3122296142,2020-02-24 04:25:52,"DM04 Moorpark, California, USA",city,"Moorpark, CA",United States
31080,-118.4119065,34.0207895,Mark KK6OTJ  ,3122296142,2020-02-26 00:08:39,"DM04 Moorpark, California, USA",city,"Los Angeles, CA",United States
205,-1.631366,52.804931,Brandon Davies,3122298508,2020-02-14 19:38:51,"Swadlincote, Burton & Derby",poi,Cineworld,United Kingdom
175,50.19606507,26.39985436,Faisal Tarabzouni,312230144,2020-03-27 18:38:25,"Dammam, Kingdom of Saudi Arabia",city,"Dammam, Kingdom of Saudi Arabia",Kingdom of Saudi Arabia
29820,-115.24552627,36.02045288,Gwenhwyfar,3122302294,2020-02-22 02:33:40,South Caribbean,city,"Enterprise, NV",United States
16260,-113.05976899999999,37.713846999999994,Gwenhwyfar,3122302294,2020-04-01 21:53:34,South Caribbean,city,"Cedar City, UT",United States
29820,-115.20537794,35.99691381,Gwenhwyfar,3122302294,2020-05-02 03:43:00,South Caribbean,city,"Enterprise, NV",United States
38,-72.47709300000001,8.075582,Lu,312230238,2020-03-03 18:19:29,Colombia ,city,"Ccuta, Colombia",Colombia
38,-74.849933,10.958072999999999,nitili,312230282,2020-02-14 02:48:03,Quillita-Valledupar,city,"Barranquilla, Colombia",Colombia
21,-46.68542936,-23.56663089,Bruno Maurcio,3122303371,2020-04-29 00:15:47,"Taboo da Serra, Brasil",city,"So Paulo, Brasil",Brasil
175,46.685077,24.7219435,rakanalshammari,3122303726,2020-03-13 21:35:15,,city,",   ",  
51,-6.247621499999999,53.3549025,Jack Power,312230453,2020-02-15 16:04:28,"Ireland, Dublin",city,"Dublin City, Ireland",Ireland
12580,-76.7415,39.261002000000005,Tsai-Ann,312230504,2020-02-14 20:42:05,,city,"Catonsville, MD",United States
14020,-86.53379100000001,39.170146,Claire Schapker,312230536,2020-02-23 19:41:07,"Bloomington,IN",poi,Switchyard Brewing Company,United States
200,27.9642845,40.339001,Enes,312230627,2020-06-10 23:40:41,Bandrma,city,"Bandrma, Trkiye",Trkiye
119,-87.07254522,20.63053955,Eudald,31223068,2020-02-15 04:13:15,Turku,city,"Solidaridad, Quintana Roo",Mxico
205,-3.6197760000000003,55.07034399999999,Nathan ,3122307477,2020-05-02 07:25:05,"Dumfries, Scotland",poi,Nisa Local,United Kingdom
200,37.387009000000006,37.062044,Orhan Demir,3122307682,2020-04-22 18:54:36,,city,"Gaziantep, Trkiye",Trkiye
48620,-97.343915,37.6838965,Danielsen,3122308162,2020-02-14 03:26:33,"Goddard, KS",city,"Wichita, KS",United States
36420,-97.552161,35.4828435,Danielsen,3122308162,2020-04-06 03:49:23,"Goddard, KS",city,"Oklahoma City, OK",United States
48620,-97.343915,37.6838965,Danielsen,3122308162,2020-05-02 20:53:13,"Goddard, KS",city,"Wichita, KS",United States
36420,-97.552161,35.4828435,Danielsen,3122308162,2020-05-15 02:45:01,"Goddard, KS",city,"Oklahoma City, OK",United States
48620,-97.343915,37.6838965,Danielsen,3122308162,2020-05-30 04:22:15,"Goddard, KS",city,"Wichita, KS",United States
19780,-93.6809565,41.490051,Ashton Taylor English,312230820,2020-02-19 18:59:27,,city,"Norwalk, IA",United States
33460,-93.2620465,44.9706105,Ashton Taylor English,312230820,2020-02-29 15:11:01,,city,"Minneapolis, MN",United States
21,-51.15621169,-23.30726462,Mnica de Sousa,312230836,2020-02-25 16:06:41,Londrina,city,"Londrina, Brasil",Brazil
205,-3.2246930000000003,51.578887,Tom,3122309476,2020-02-20 14:34:17,"Wales, United Kingdom",city,"Caerphilly, Wales",United Kingdom
205,-1.56549,53.801956,  ,312231105,2020-02-22 23:46:20,Kuwait,city,"Leeds, England",United Kingdom
96,48.0274315,29.3515385,  ,312231105,2020-03-20 19:54:09,Kuwait,city,"Al Shaab, Kuwait",Kuwait
43620,-96.7311425,43.5410145,Ian E. Bentzinger,312231110,2020-03-13 05:18:17,"Sioux Falls, SD",city,"Sioux Falls, SD",United States
200,29.0052225,41.0213205,Bu Dec,312231173,2020-02-14 06:06:03,Trkiye,city,"stanbul, Trkiye",Trkiye
21,-38.5026475,-12.8753345,Norma Lucia Ribeiro,3122313044,2020-04-01 03:21:17,"Salvador, Brasil",city,"Salvador, Brasil",Brasil
21,-41.9396195,-18.795445,Elton Partner,3122313150,2020-02-14 04:14:45,"Governador Valadares, Brasil",city,"Governador Valadares, Brasil",Brasil
205,0.117202,52.201665999999996,Bonni,312231473,2020-03-03 15:42:27,"Prestwich, Manchester",poi,Mill Lane Lecture Rooms (MLLR),United Kingdom
65,2.2849235,48.967965500000005,Adam ,3122315434,2020-02-14 00:02:11,"Saint-Gratien, France",city,"Saint-Gratien, France",France
33100,-80.26351700000002,26.1245075,YKLProductions ,312231576,2020-05-18 13:30:58,"HWD, FL",city,"Plantation, FL",United States
8,-64.2444045,-27.7437045,Vera Maldonado,3122317567,2020-03-26 03:31:24,Santiago del Estero,city,"Banda, Argentina",Argentina
119,-100.96066792,25.47259481,Checo,312231951,2020-03-04 02:49:17,,city,"Saltillo, Coahuila de Zaragoza",Mexico
24660,-79.78845982,36.07470317,the girl next door,31223208,2020-06-07 22:18:42,"Greensboro, NC",city,"Greensboro, NC",United States
21,-40.1677074,-3.0594813,Josy Araujo,3122321364,2020-04-25 00:40:52,,city,"Bela Cruz, Brasil",Brasil
85,12.0473,45.77659,Security Service,3122321373,2020-03-17 22:03:47,"Crocetta del Montello, Veneto",city,"Montebelluna, Veneto",Italy
205,-0.16323919,51.50708208,Denny V,312232227,2020-05-28 23:15:31,"London, England",city,"London, England",United Kingdom
33,-70.5189175,-33.425400499999995,Pato Rodriguez,31223227,2020-04-28 19:42:13,,city,"Las Condes, Chile",Chile
47900,-76.74663849999997,38.9637825,Andrea.,3122323346,2020-06-02 16:07:53,"Bowie, MD",city,"Bowie, MD",United States
12060,-84.33388049999998,33.585640000000005,callmeANA,3122323771,2020-02-27 22:59:33,"Atlanta, GA",city,"Morrow, GA",United States
34980,-86.791549,36.200008000000004,"Ben MacKenzie, PE",312232433,2020-03-15 20:06:39,"Overland Park, KS",city,"Nashville, TN",United States
21,-43.441578,-22.911421500000003,Rosi Lopes,3122324611,2020-04-25 00:47:30,"Jacarepagu, Rio de Janeiro",city,"Rio de Janeiro, Brasil",Brasil
222,110.440927,-7.828073,Lutfi.aprili,3122325296,2020-03-08 01:45:28,,poi,Kids Fun Parcs,Indonesia
173,37.42764250000001,55.7547875,Nastini Space,312232560,2020-02-16 12:07:09, ,city,", ",
18140,-82.93285350000001,39.60431,Melissa Woodgeard,3122325677,2020-02-15 23:27:00,"Circleville, OH",city,"Circleville, OH",United States
47540,-84.172129,40.563879,Melissa Woodgeard,3122325677,2020-02-22 20:42:14,"Circleville, OH",poi,Armstrong Air & Space Museum,United States
45780,-83.62614599999999,41.375252,Melissa Woodgeard,3122325677,2020-02-23 17:04:20,"Circleville, OH",poi,Stroh Center,United States
18140,-82.92472099999999,39.608151,Melissa Woodgeard,3122325677,2020-03-05 02:08:20,"Circleville, OH",poi,Circleville High School,United States
17060,-82.975734,39.366479999999996,Melissa Woodgeard,3122325677,2020-05-24 15:20:15,"Circleville, OH",poi,Sumburger,United States
18140,-82.93285350000001,39.60431,Melissa Woodgeard,3122325677,2020-05-25 22:26:55,"Circleville, OH",city,"Circleville, OH",United States
27140,-90.168583,32.30423,Goldwinger214 ,31223257,2020-02-16 12:06:17,"Dallas, TX",poi,Best Western Plus Jackson Downtown-Coliseum,United States
19100,-96.7617535,32.819858499999995,Goldwinger214 ,31223257,2020-02-17 16:06:38,"Dallas, TX",city,"Dallas, TX",United States
26420,-95.414703,29.7316,DaGoofyBusDriver,31223257,2020-05-04 00:14:37,"Dallas, TX",poi,Extended Stay America,United States
22500,-79.78030799999998,34.182661499999995,Feb.17,3122326139,2020-02-19 16:51:52,"Florence, SC",city,"Florence, SC",United States
34820,-78.688827,33.82451399999999,TaEdaVinci,3122326139,2020-05-17 02:48:24,"Florence, SC",city,"North Myrtle Beach, SC",United States
22500,-79.8744425,34.2835465,TaEdaVinci,3122326139,2020-05-31 01:17:37,"Florence, SC",city,"Darlington, SC",United States
16740,-80.8467855,35.209059,durandshaw,3122326752,2020-04-28 04:04:59,,city,"Charlotte, NC",United States
205,1.3468415,51.3478465,Joanna Birch,3122327044,2020-03-27 20:33:56,,city,"Acol, England",United Kingdom
151,5.7847,5.5561,Ejoyokah Jennifer A.,312232746,2020-04-21 17:45:39,"Port-Harcourt, Nigeria",city,"Warri, Nigeria",Nigeria
65,2.2429315,48.83745500000001,Affabulateur,3122328305,2020-03-08 18:39:31,Paris,city,"Boulogne-Billancourt, France",France
51,-6.247621499999999,53.3549025,Evan Clarke,3122328311,2020-03-27 00:34:49,"Dublin City, Ireland",city,"Dublin City, Ireland",Ireland
39900,-119.82718200000001,39.512436,Jair Guerra,3122328910,2020-03-20 21:09:58,"Lima, Peru",city,"Reno, NV",Estados Unidos
39300,-71.4561805,41.8576955,Jair Guerra,3122328910,2020-03-24 20:48:14,"Lima, Peru",city,"North Providence, RI",Estados Unidos
160,-77.02552850000002,-12.119845,Jair Guerra,3122328910,2020-04-05 16:53:51,"Lima, Peru",city,"Miraflores, Peru",Peru
193,100.639993,13.756266,sandee,3122330264,2020-03-06 23:19:18,Bangkok,city,", ",
82,88.404699,22.62839,Omniscient,3122331812,2020-03-25 07:03:50,"Kolkata, India",poi,"Gol park, gorabazar",India
35620,-73.977334,40.761928999999995,NamelyNorm,31223321,2020-02-15 00:11:30,"New York, NY",city,"Manhattan, NY",United States
25900,-155.06817179,19.71244375,NamelyNorm,31223321,2020-03-05 01:49:41,"New York, NY",city,"Hilo, HI",United States
34900,-122.33259281,38.32758753,NamelyNorm,31223321,2020-03-12 16:05:56,"New York, NY",city,"Napa, CA",United States
87,46.243258000000004,31.043044000000002, ,3122332216,2020-05-19 07:36:41,,poi,Alzaiton Bridge |  ,Iraq
85,9.0958195,39.2203865,Roberto Saba,312233277,2020-02-15 11:15:24,Cagliari,city,"Cagliari, Sardegna",Italia
186,-3.7035075,40.4777945,David Garca,312233333,2020-04-10 11:06:40,Espaa,city,"Madrid, Espaa",Espaa
21,-47.796623,-15.776254000000002,bre,3122334614,2020-03-26 02:33:06,braslia,city,"Braslia, Brasil",Brasil
35620,-73.7670565,41.1151485,Briana Zambardi,3122335344,2020-03-16 17:08:27,"New York, USA",city,"Thornwood, NY",United States
24,-71.2490205,46.7076285,Stphan Morin,312233690,2020-03-13 00:31:08,,city,"Lvis, Qubec",Canada
45,9.842907400000001,56.83163968,Mr B Designer Artist & bathroom singer,312233825,2020-02-14 16:52:17,New York and London,city,"Rebild, Danmark",Denmark
205,-0.1621,51.5017,Mr B Designer Artist & bathroom singer,312233825,2020-02-23 22:46:25,New York and London,city,"London, England",United Kingdom
45,9.9167,57.05,Mr B Designer Artist & bathroom singer,312233825,2020-02-29 16:14:16,New York and London,city,"Aalborg, Danmark",Denmark
189,18.0605,59.3307,Mr B Designer Artist & bathroom singer,312233825,2020-03-03 00:14:41,New York and London,city,"Stockholm, Sweden",Sweden
85,7.2575,45.717806,Mr B Designer Artist & bathroom singer,312233825,2020-03-04 13:58:22,New York and London,city,"Sarre, Valle d'Aosta",Italy
38,-74.06045692,4.70056659,Mr B Designer Artist & bathroom singer,312233825,2020-03-05 14:16:35,New York and London,city,"Bogot, D.C., Colombia",Colombia
45,9.89767714,57.03933565,Mr B Designer Artist & bathroom singer,312233825,2020-03-09 19:10:33,New York and London,city,"Aalborg, Danmark",Denmark
65,6.97857119,43.54867147,Mr B Designer Artist & bathroom singer,312233825,2020-05-24 05:54:51,New York and London,city,"Cannes, France",France
45,9.9167,57.05,Mr B Designer Artist & bathroom singer,312233825,2020-05-26 06:23:50,New York and London,city,"Aalborg, Danmark",Denmark
152,5.0636235,51.5850175,Jeroen van Dijk,3122338438,2020-03-20 13:17:44,"Tilburg, Nederland",city,"Tilburg, Nederland",The Netherlands
38,-74.24367099999999,4.2622835,Carlos Barrera,312234099,2020-03-26 13:34:35,Bogot,city,"Bogot, D.C., Colombia",Colombia
205,-1.444767,52.892425,Mandeep Lally,312234110,2020-05-14 15:41:47,UK,poi,Harvey Road Petrol Station,United Kingdom
35620,-73.37293149999998,40.68726,,3122341555,2020-02-23 19:51:32,"Lindenhurst, NY",city,"Lindenhurst, NY",United States
186,-3.66331054,40.43194814,Pilar Gonzlez,312234156,2020-02-17 14:22:06,"Zaragoza, Espaa",city,"Madrid, Espaa",Espaa
205,-2.2294175,51.8530915,Helen Cobb,3122341612,2020-02-14 12:46:56,"Manchester, England",city,"Gloucester, England",United Kingdom
88,135.18643,34.6865,,3122343217,2020-02-14 02:39:54,  ,poi,,
19100,-96.7617535,32.819858499999995,al pal ,3122343798,2020-06-04 00:12:01,"Texas, USA",city,"Dallas, TX",United States
65,7.599000500000002,48.841681,Hauck Yannick,3122345283,2020-02-22 15:55:29,,city,"Pfaffenhoffen, France",France
12580,-76.4885845,39.264492,Mike,3122346255,2020-03-17 18:53:39,"Dundalk, MD",city,"Dundalk, MD",United States
8,-58.71351435,-34.68701174,elix,3122346274,2020-04-20 22:44:38,221b baker street,city,"Merlo, Argentina",Argentina
28140,-94.79019749999999,39.0084315,Vicki TaylorGoldberg,312234768,2020-02-14 03:30:32,florida,city,"Shawnee, KS",United States
33,-70.527119,-33.531122499999995,Claudio Cortes,312234787,2020-03-02 13:31:11,Chile\Santiago,city,"La Florida, Chile",Chile
205,-0.12456523,50.81770548,Emma Leeson Massage (ELM) LTD,312234789,2020-02-23 13:48:17,"Hove & Burgess Hill, Sussex",city,"Brighton, England",United Kingdom
21,-48.3810695,-1.344336,Rilton Vidal,3122348404,2020-05-31 13:40:01,,city,"Ananindeua, Brasil",Brasil
65,3.1951825,45.2440455,Marc.B Photographie,3122349327,2020-04-26 18:42:34,"Massiac, France",city,"Massiac, France",France
88,140.46041442,39.06479591,,3122349745,2020-06-09 05:33:24,,city, ,
205,0.2105895,51.560587,c.b.a,3122350323,2020-02-15 09:09:01,,city,"Romford, London",United Kingdom
88,139.659097,35.81530499999999,7851,312235099,2020-02-14 03:38:52,,city, ,
205,-3.025214,53.190762,Jay,312235125,2020-05-04 19:28:48,"Hawarden, Wales",city,"Hawarden, Wales",United Kingdom
14860,-73.19911850000001,41.1856745,John Q,3122352289,2020-02-14 21:31:13,,city,"Bridgeport, CT",United States
35300,-73.05374499999998,41.224028000000004,John Q,3122352289,2020-02-28 18:01:50,,city,"Milford, CT",United States
14860,-73.12620899999997,41.207828000000006,John Q,3122352289,2020-02-29 01:55:14,,city,"Stratford, CT",United States
35300,-72.817995,41.3834935,John Q,3122352289,2020-03-06 01:20:04,,city,"North Haven, CT",United States
14860,-73.19911850000001,41.1856745,John Q,3122352289,2020-03-08 19:00:19,,city,"Bridgeport, CT",United States
173,60.613638,56.815532999999995, ,3122352898,2020-02-15 08:44:54,", ",city,", ",
-9999,-109.5308935,38.555679999999995,C H R I S T I  N,312235457,2020-02-17 19:15:58,"Albuquerque, NM",city,"Moab, UT",United States
10740,-106.701401,34.8508145,C H R I S T I  N,312235457,2020-02-18 03:33:44,"Albuquerque, NM",city,"Bosque Farms, NM",United States
21340,-106.4174305,31.793368,C H R I S T I  N,312235457,2020-02-22 21:46:09,"Albuquerque, NM",city,"El Paso, TX",United States
10740,-106.643841,35.797071,C H R I S T I  N,312235457,2020-03-24 02:16:56,"Albuquerque, NM",poi,East Fork Trailhead,United States
24380,-107.838311,34.944891999999996,C H R I S T I  N,312235457,2020-04-07 04:08:10,"Albuquerque, NM",poi,Sandstone Bluff Overlook,United States
10740,-106.48827299999999,35.112352,C H R I S T I  N,312235457,2020-05-09 06:02:15,"Albuquerque, NM",poi,Piedra Lisa Canyon,United States
24380,-108.106808,34.944562,C H R I S T I  N,312235457,2020-05-12 05:11:31,"Albuquerque, NM",poi,Big Tubes Area,United States
19740,-104.9220935,39.713563,C H R I S T I  N,312235457,2020-05-20 01:18:58,"Albuquerque, NM",city,"Denver, CO",United States
10740,-106.632718,35.117002500000005,CHRISTIN,312235457,2020-06-03 02:55:10,"Albuquerque, NM",city,"Albuquerque, NM",United States
28140,-94.5592815,39.1000485,Jules ,312235464,2020-02-14 15:54:55,"Overland Park, KS",city,"Kansas City, MO",United States
21,-43.8636,-16.7322,Pedro,312235561,2020-04-16 16:06:16,,city,"Montes Claros, Brasil",Brasil
128,2.922,51.2140585,marino ,312235661,2020-02-14 15:54:12,oostende ,city,"Oostende, Belgi",Belgi
49020,-78.1641,39.1839,izzyj,3122358283,2020-02-17 01:18:54,,city,"Winchester, VA",United States
33100,-80.10551426,26.11999216,izzyj,3122358283,2020-03-16 23:23:07,,city,"Fort Lauderdale, FL",United States
21,-40.764876,-20.8384625,Aline,3122359320,2020-02-14 03:18:52,"Esprito Santo, Brasil",city,"Pima, Brasil",Brasil
31080,-118.4119065,34.0207895,F A R R E L L,312236093,2020-02-14 08:34:34,"Los Angeles, CA",city,"Los Angeles, CA",United States
40380,-77.466665,43.159805,Scott DeVinney,31223617,2020-04-09 15:04:53,"Rochester, Ny",city,"Penfield, NY",United States
35380,-90.041274,29.931694,D.PattersonJr,3122362834,2020-05-25 16:50:52,,poi,Fischer Projects,United States
26420,-95.4464865,29.838495,D.PattersonJr,3122362834,2020-06-02 06:51:23,,city,"Houston, TX",United States
205,0.27238481,51.67898201,Wallace Kennels,312236469,2020-03-08 14:14:20,"Brentwood, Essex, UK",city,"Stondon Massey, East",United Kingdom
33460,-93.2645,44.9774,x,3122367149,2020-02-17 09:08:42,"Starachowice, Polska",city,"Minneapolis, MN",Etats-Unis
37980,-75.390855,39.856915,#Free4Pound ,3122367718,2020-02-23 06:04:52,"Chester,Pistolvania",poi,Toby Farms,United States
40140,-116.17881499999999,33.691293,Gui ,3122367734,2020-04-16 09:09:46,"Florida, USA",city,"Coachella, CA",Estados Unidos
152,4.2716075,51.9244575,Matthijs Klaassen,3122367867,2020-05-29 13:43:11,"Rotterdam, South Holland",city,"Rotterdam, The Netherlands",The Netherlands
186,-3.71573925,40.43350659,Pepe Castro,312236802,2020-04-03 09:33:20,Espaa,city,"Madrid, Espaa",Espaa
65,-0.48278050000000006,47.474034499999995, Dokkyo Univ. Photo Club,3122368688,2020-02-25 11:02:58,5 506,city,"Saint-Barthlemy-d'Anjou, France",France
200,29.0052225,41.0213205,halake jaldessa,3122369403,2020-02-21 09:04:40,"stanbul, Trkiye",city,"stanbul, Trkiye",Turkey
21,-38.51989,-3.789768,mari | she-ra spoilers!,3122370385,2020-05-18 22:38:38,she/her,city,"Fortaleza, Brasil",Brasil
205,-3.9197370000000005,55.7787115,Martin Tannahill,31223710,2020-02-15 12:13:50,"Scotland, United Kingdom",city,"Wishaw, Scotland",United Kingdom
21,-43.433506,-22.794826999999998,medusa ,3122371171,2020-02-17 00:53:58,"Petrpolis, Brasil",poi,Parada Obrigatria,Brasil
200,34.010618,41.957586,kadir yildirim,3122371311,2020-03-09 21:40:18,,poi,bozkurt meydan,Trkiye
120,101.770181,2.9490515,Azmir,3122372767,2020-02-21 07:05:23,"Selangor, Malaysia",city,"Kajang, Selangor",Malaysia
205,-7.466483,54.824188,Declan Mullen,312237335,2020-03-29 23:23:50,"Strabane, Northern Ireland",city,"Strabane, Northern Ireland",United Kingdom
88,139.73302091,35.67100638,Largo Language School,3122374034,2020-02-17 06:03:15,F,city,"Minato-ku, Tokyo",Japan
200,29.0052225,41.0213205,sibonacci,3122374061,2020-02-16 21:12:19,Bogazici University,city,"stanbul, Trkiye",Trkiye
21,-43.441578,-22.911421500000003,Guilherme Vital,3122374812,2020-03-28 15:23:50,,city,"Rio de Janeiro, Brasil",Brasil
205,-4.0662275,55.778186,Brian Oneill,3122375115,2020-06-06 22:29:40,"Glasgow, Scotland",city,"Hamilton, Scotland",United Kingdom
171,120.721722,14.433620499999998,lauren,3122375798,2020-02-14 02:14:24,Astroworld ,city,"Cavite City, Calabarzon",Republic of the Philippines
41860,-122.43597849999999,37.7706565,Caltrans District 4,312237673,2020-04-23 14:24:13,"Oakland, CA",city,"San Francisco, CA",United States
39580,-78.3561,35.5839, ,3122376886,2020-04-11 18:19:05,"Garner, NC",city,"Wilson's Mills, NC",United States
88,141.430971,43.042243,ichiyac,3122379768,2020-02-23 05:39:07,,city,  ,
71,13.457071,52.513075,,312237991,2020-02-17 22:10:04,,poi,Protokoll,Deutschland
173,37.42764250000001,55.7547875,,312237991,2020-02-19 16:45:58,,city,", ",
41700,-98.5,29.4167,Andrew ,312237993,2020-03-19 01:11:45,EP - SA,city,"San Antonio, TX",United States
21340,-106.4174305,31.793368,Andrew ,312237993,2020-05-11 21:36:47,EP - SA,city,"El Paso, TX",United States
41700,-98.5406515,29.417501,Andrew ,312237993,2020-05-17 01:17:53,EP - SA,city,"San Antonio, TX",United States
24660,-79.85736349999998,36.090397,Nicolle Holcomb,31223800,2020-03-13 02:16:33,,city,"Greensboro, NC",United States
36420,-97.4451735,35.222301,@Kelly Collyar,31223806,2020-02-14 03:11:03,"Norman, OK",city,"Norman, OK",United States
41740,-116.962026,32.620490999999994, ,312238163,2020-02-19 04:49:27,  ,poi,In-N-Out Burger,United States
41740,-117.20564399999999,33.130583,Dr. Betsy Kannenberg,3122382781,2020-02-21 02:36:19,,poi,San Marcos High School,United States
128,4.57457,51.1192095,burcusa,3122383545,2020-02-14 09:57:33,"Antwerpen, Belgi",city,"Lier, Belgi",Belgi
222,109.133,-6.8692,Bontot_Jawa,3122384770,2020-03-30 10:43:26,"Jatibarang-Brebes, Jawa Tengah",city,"Tegal Timur, Indonesia",Indonesia
205,-2.518152,52.7067915,Will Shakespeare PGA,312238481,2020-02-20 08:29:53,,city,"Wellington, England",United Kingdom
45220,-84.26617399999999,30.4762155,The One N Only,3122385091,2020-02-24 06:46:10,"Tallahassee,Fl",city,"Tallahassee, FL",United States
12460,-84.55280649999999,30.904175,The One N Only,3122385091,2020-04-23 17:52:15,"Tallahassee,Fl",city,"Bainbridge, GA",United States
45220,-84.26617399999999,30.4762155,The One N Only,3122385091,2020-04-24 13:23:24,"Tallahassee,Fl",city,"Tallahassee, FL",United States
45300,-82.67290299999998,27.7957195,The One N Only,3122385091,2020-05-10 13:50:22,"Tallahassee,Fl",city,"St Petersburg, FL",United States
45220,-84.26617399999999,30.4762155,The One N Only,3122385091,2020-05-15 09:21:16,"Tallahassee,Fl",city,"Tallahassee, FL",United States
21,-46.68353573,-23.53388265,Spa Princess Beauty & Party,3122386694,2020-02-14 01:21:01,So Paulo - SP,city,"Sao Paulo, Brazil",Brazil
47900,-77.0143985,38.898603,Meats and Foods,312238814,2020-03-13 16:11:27,247 Florida Ave NW DC,city,"Washington, DC",United States
178,27.7250095,-26.282077,Mduduzi Mngomezulu Going-Up,3122388660,2020-04-25 09:28:26,"Johannesburg, South Africa",city,"Westonaria, South Africa",South Africa
200,30.53668524,38.76252573,alaaddin akda,3122388748,2020-03-18 03:59:48,,city,"Afyonkarahisar, Trkiye",Turkey
41940,-121.95522849999999,37.28083700000001,Alicia Hamilton,3122388805,2020-03-03 22:42:09,"Campbell, CA",city,"Campbell, CA",United States
205,-3.203293,51.774249,Monmouthshire Youth,312238881,2020-02-21 14:07:49,Monmouthshire,poi,Ebbw Vale Sports Centre,United Kingdom
65,4.835099,45.75782150000001,Dochra,3122389702,2020-02-16 21:08:57,"Lyon, France",city,"Lyon, France",France
21,-43.968056,-19.951054,Carai hein riti,312239055,2020-03-04 12:07:15,Belo horizonte (MG),poi,Upa Oeste,Brasil
38060,-112.1246765,33.5528625,shorti ,312239096,2020-04-11 20:10:38,,city,"Phoenix, AZ",United States
8,-58.508385,-34.529882,LapodoVM58,312239491,2020-02-16 21:47:53,La Reina del Plata,city,"Vicente Lpez, Argentina",Argentina
47260,-76.255686,36.895082,drew,3122397136,2020-02-18 03:44:33,Kendall Park,city,"Norfolk, VA",United States
35620,-74.56379949999999,40.41390850000001,drew,3122397136,2020-03-12 03:52:44,Kendall Park,city,"Kendall Park, NJ",United States
47260,-76.255686,36.895082,drew,3122397136,2020-03-17 14:30:25,Kendall Park,city,"Norfolk, VA",United States
35620,-74.56379949999999,40.41390850000001,drew,3122397136,2020-04-20 04:02:09,Kendall Park,city,"Kendall Park, NJ",United States
14460,-71.018887,42.365140000000004,Sarah Gaines,31223974,2020-02-18 13:21:51,boston-based; likely elsewhere,poi,Boston Logan International Airport (BOS),United States
31080,-118.4119065,34.0207895,Sarah Gaines,31223974,2020-02-19 00:43:58,boston-based; likely elsewhere,city,"Los Angeles, CA",United States
14460,-71.0887125,42.3136695,Sarah Gaines,31223974,2020-02-22 01:52:03,boston-based; likely elsewhere,city,"Boston, MA",United States
164,-8.410782000000001,41.540466,Thiago,3122397790,2020-02-14 00:52:08,Sweet Home Alabama ,city,"Braga, Portugal",Portugal
30820,-77.471787,41.127003,Nancy Worden,3122400976,2020-05-04 23:12:06,,city,"Flemington, PA",United States
49340,-71.91924,42.053481,Kayla Darling,3122401013,2020-03-12 18:54:33,,poi,Shepherd Hill Regional High School,United States
36740,-81.5473325,28.480712,Bentin,3122401121,2020-05-01 03:35:22,"Orlando, FL & Uberlandia, MG",city,"Lake Butler, FL",Estados Unidos
128,3.3050085,51.333171500000006,Dieter Claerhout,312240149,2020-02-16 08:13:56,Knokke - Belgium,city,"Knokke-Heist, Belgi",Belgi
205,0.518546,51.364338000000004,megan,31224031,2020-02-21 09:25:06,rochester,city,"Rochester, South East",United Kingdom
33,-71.39454599999999,-33.327613,Mae Mirsal,3122403933,2020-02-15 13:24:20,Chile,poi,Macerado,Chile
24860,-82.57000049999998,34.833736,Dylan Lyda,3122404075,2020-03-13 01:58:19,"Easley, SC",city,"Easley, SC",United States
51,-9.8693295,52.1455165,Ballydonoghue GAA,3122404101,2020-03-08 15:36:24,,city,"Kerry, Ireland",Ireland
28140,-94.2791215,39.0148605,Nik,312240466,2020-04-20 01:28:07,Kansas City,city,"Blue Springs, MO",United States
12060,-84.221131,33.969846000000004,Idalia LeMons,3122404985,2020-06-07 23:14:25,,poi,Peachtree Corners,United States
28940,-83.9638415,35.982470500000005,Karol are we there yet?,312240636,2020-02-14 11:08:20,"Knoxville, TN",city,"Knoxville, TN",United States
9,138.61115999999998,-35.000767,David & Will,3122406852,2020-03-19 23:50:24,Adelaide,city,"Adelaide, South Australia",Australia
200,39.548291,39.1063,Oldu mu bu imdi?,312240702,2020-03-28 16:46:29,,poi,Tunceli ar,Trkiye
88,139.43402350000002,35.6318075,2,3122407736,2020-02-14 12:09:26,10-17,city, ,
49,-80.091193,-2.512995,Danilo Barcos,3122409197,2020-05-25 01:36:54,,city,"Guayaquil, Ecuador",Ecuador
29200,-86.9299805,40.4590815,Giovanna,3122410171,2020-02-14 17:28:49,"Indiana, USA",city,"West Lafayette, IN",United States
26420,-95.41847299999999,29.735422999999997,luis,3122410190,2020-02-15 01:32:11,,poi,The Color Factory,United States
31080,-118.413992,34.081236,emma,3122411040,2020-03-14 23:24:56,,poi,Beverly Hills Hotel,United States
26900,-86.1429225,39.7795625,emma,3122411040,2020-03-22 22:31:23,,city,"Indianapolis, IN",United States
45300,-82.44269399999997,27.9965945,emma,3122411040,2020-04-02 13:29:42,,city,"Tampa, FL",United States
26900,-86.1429225,39.7795625,emma,3122411040,2020-04-04 13:13:05,,city,"Indianapolis, IN",United States
178,28.103551,-25.988404,"Mtembu Ntsika, Water & Climate Scientist (SA)",312241246,2020-02-14 06:15:42,"Midrand, South Africa",city,"Midrand, South Africa",South Africa
205,-3.032089,53.841189,tombfctaylor,3122413791,2020-02-20 18:59:33,Bloomfield road,city,"Blackpool, England",United Kingdom
47900,-76.74663849999997,38.9637825,{kaitlyn tyson},3122413964,2020-02-29 20:40:48,"Bowie, MD",city,"Bowie, MD",United States
37980,-74.93434450000002,39.790061,{kaitlyn tyson},3122413964,2020-03-02 18:14:54,"Bowie, MD",city,"Berlin, NJ",United States
47900,-76.769661,38.958724,{kaitlyn tyson},3122413964,2020-03-06 17:21:21,"Bowie, MD",poi,Woodlawn Baptist church,United States
12580,-76.51079200000001,38.969966,{kaitlyn tyson},3122413964,2020-06-07 02:00:24,"Bowie, MD",city,"Annapolis, MD",United States
47900,-76.769661,38.958724,{kaitlyn tyson},3122413964,2020-06-07 15:59:11,"Bowie, MD",poi,Woodlawn Baptist church,United States
186,-3.654526,40.1809345,David Surez (yo me quedo en casa ),312241411,2020-04-18 13:22:48,Madrid,city,"Valdemoro, Espaa",Espaa
113,-7.98743956,31.62481847,J. Francisco Romero,312241508,2020-04-10 19:19:42,,city,"Marrakech Medina, Reino de Marruecos",Reino de Marruecos
119,-99.0444445,19.568279999999998,salvador,312241661,2020-02-15 14:10:20,mexico,city,"Ecatepec de Morelos, Mxico",Mxico
205,1.3823745,52.116811,Tina  Wiseman,31224168,2020-02-24 19:17:57,Woodbridge Suffolk,city,"Eyke, England",United Kingdom
37340,-80.65181799999998,27.986946999999997,Chris Quintero,31224186,2020-04-02 02:22:34,,city,"Palm Bay, FL",United States
200,29.0052225,41.0213205,nitimsah Eskiehir,3122420422,2020-03-01 05:35:00,"Eskiehir, Trkiye",city,"stanbul, Trkiye",Trkiye
33100,-80.13296249999998,25.8169655,kay-luh ,3122421744,2020-03-14 03:44:09,clouds ,city,"Miami Beach, FL",United States
12060,-84.43310600000001,33.7671945,kay-luh ,3122421744,2020-03-17 03:51:26,clouds ,city,"Atlanta, GA",United States
85,12.5451455,41.8984165,Alessandro Biafora,312242186,2020-02-14 18:25:28,,city,"Rome, Lazio",Italy
152,6.2416625,52.2694005,Hans Wind,3122424137,2020-02-14 09:02:53,"Centrum, Deventer",city,"Deventer, Nederland",Nederland
21,-46.62860778,-23.571405,Banda Paralela,31224246,2020-03-08 16:01:37,So Paulo,city,"Sao Paulo, Brazil",Brazil
35620,-72.757981,40.8081385,Matthew Montpetit,3122425313,2020-05-30 11:41:07,"East Moriches, NY",city,"East Moriches, NY",United States
35620,-74.0064,40.7142,VWell18 ,3122427408,2020-03-19 16:22:17,"New York, NY",city,"Manhattan, NY",Estados Unidos
34420,-94.98268900000001,33.1689075,Erika Ponce de Leon,3122428554,2020-06-05 17:52:32,,city,"Mount Pleasant, TX",United States
21,-38.51989,-3.789768,Aparecida Maia,312242882,2020-03-01 13:42:31,Limoeiro do Norte - Ce,city,"Fortaleza, Brasil",Brasil
35620,-73.84490500000001,41.168273,Ian Esliker,3122429023,2020-04-17 14:02:13,,city,"Ossining, NY",United States
8,-58.79613199999999,-27.487033,vanesa,3122429782,2020-02-16 01:34:05,Corrientes capital ,city,"Corrientes, Argentina",Argentina
65,5.4052739999999995,43.2943095,Moha ,3122431330,2020-02-14 00:13:34,"Marseille, France",city,"Marseille, France",France
2,3.20155,36.749030499999996,Moha ,3122431330,2020-02-18 16:27:42,"Marseille, France",city,"Dar El Beda                                                                                       , Algeria",Algrie
65,5.4052739999999995,43.2943095,Moha ,3122431330,2020-02-24 08:30:09,"Dar El Beda                                                                                       , Algeria",city,"Marseille, France",France
38,-73.020238,5.723132499999999,Sonia Prez,3122431493,2020-02-29 04:04:08,Colombia,city,"Tibasosa, Colombia",Colombia
71,9.159164500000001,49.9707335,Klaus ,312243166,2020-03-13 09:23:57,Aschaffenburg,city,"Aschaffenburg, Deutschland",Deutschland
151,3.8512055,9.085594500000001,Danjumah Muh'd,312243280,2020-02-28 10:23:37,Kishi,city,"Kisi, Nigeria",Nigeria
205,-5.928413,54.59586899999999,Janeyo von janeyo,3122433154,2020-02-14 20:30:36,,city,"Belfast, Northern Ireland",United Kingdom
21,-46.75,-23.4167,Jackeline,312243423,2020-04-20 18:31:18,,city,"So Paulo, Brasil",Brasil
12060,-84.1563795,33.738037500000004,Brndn,3122434670,2020-05-02 00:09:44,"Atlanta, GA",city,"Redan, GA",United States
175,46.685077,24.7219435,,312243525,2020-02-15 10:38:19, ,city,",   ",  
85,9.07341,45.57582,Davide Galloni,312243589,2020-02-26 08:04:29,Milano,city,"Garbagnate Milanese, Lombardia",Italia
65,2.228814,48.80276600000001,Leblond Geoffroy,312243646,2020-02-14 10:07:30,"Meudon, France",city,"Meudon, France",France
71,7.624091,51.9501445,Holly Banks,3122436489,2020-02-27 22:32:01,"Mnster, Deutschland",city,"Mnster, Deutschland",Deutschland
31080,-118.4119065,34.0207895,Holly Banks,3122436489,2020-06-01 16:27:23,"Mnster, Deutschland",city,"Los Angeles, CA",Vereinigte Staaten
71,7.624091,51.9501445,Holly Banks,3122436489,2020-06-03 18:36:01,"Mnster, Deutschland",city,"Mnster, Deutschland",Deutschland
8,-58.280767000000004,-34.747911,susanreschia,312243670,2020-02-21 04:23:45,Quilmes,city,"Quilmes, Argentina",Argentina
71,9.3726795,53.6798865,Thominho7,312243696,2020-02-14 15:45:11,Hamburg - Barmbronx,city,"Hamburg, Germany",Germany
26420,-95.4464865,29.838495,miss virgo,3122438024,2020-02-14 05:31:34,htx,city,"Houston, TX",United States
85,11.244817,43.7807085, Sydney  Grace ,3122438166,2020-02-14 23:25:33,"North Carolina, USA",city,"Florence, Tuscany",Italy
205,-0.17311500000000002,51.5248355, Sydney  Grace ,3122438166,2020-02-22 12:04:58,"North Carolina, USA",city,"Paddington, London",United Kingdom
85,11.244817,43.7807085, Sydney  Grace ,3122438166,2020-02-23 23:05:18,"North Carolina, USA",city,"Florence, Tuscany",Italy
25860,-81.5945275,35.7524555, Sydney  Grace ,3122438166,2020-03-27 04:01:42,"North Carolina, USA",city,"Drexel, NC",United States
34820,-78.136628,33.929579499999996, Sydney  Grace ,3122438166,2020-04-12 04:46:30,"North Carolina, USA",city,"Oak Island, NC",United States
25860,-81.5945275,35.7524555, Sydney  Grace ,3122438166,2020-04-19 23:35:05,"North Carolina, USA",city,"Drexel, NC",United States
34820,-78.136628,33.929579499999996, Sydney  Grace ,3122438166,2020-05-20 00:41:03,"North Carolina, USA",city,"Oak Island, NC",United States
12060,-84.31507049999998,33.8745435,Ricardo de la Cruz,31224386,2020-02-14 11:36:04,"Atlanta, GA",city,"Brookhaven, GA",United States
25420,-76.6512,40.2784,Ricardo de la Cruz,31224386,2020-03-06 04:25:28,"Atlanta, GA",city,"Hershey, PA",United States
12060,-84.31507049999998,33.8745435,Ricardo de la Cruz,31224386,2020-03-07 13:08:03,"Atlanta, GA",city,"Brookhaven, GA",United States
186,-5.694972,43.2873255,,3122438920,2020-02-14 12:46:27,,city,"Langreo, Espaa",Espaa
29020,-86.142212,40.472726,Ryan Cheek,312243978,2020-03-01 15:01:00,,city,"Kokomo, IN",United States
85,10.550597999999999,43.3974205,Aerotecnica spa,3122439838,2020-02-24 12:42:05,Firenze Pistoia e Lucca,city,"Castellina Marittima, Toscana",Italia
119,-98.17097249999999,19.6208215,Yair Lpez,3122440099,2020-04-21 00:59:34,"Tlaxco, Tlaxcala ",city,"Tlaxco, Tlaxcala",Mxico
119,-98.28275427,26.0659558,,3122443104,2020-03-10 02:08:56,,city,"Reynosa, Tamaulipas",Mxico
24,-79.616073,43.555244,Mrs.L.Simone,31224440,2020-04-10 14:01:25,"Mississauga, Ontario",city,"Mississauga, Ontario",Canada
38060,-112.1246765,33.5528625,Zach Friedman,3122444078,2020-02-24 07:28:09,"Phoenix, AZ",city,"Phoenix, AZ",United States
119,-113.20913449999999,31.5321205,Zach Friedman,3122444078,2020-03-14 08:31:32,"Phoenix, AZ",city,"Puerto Peasco, Sonora",Mexico
38060,-112.1246765,33.5528625,Zach Friedman,3122444078,2020-03-18 17:58:50,"Phoenix, AZ",city,"Phoenix, AZ",United States
205,-3.9335910000000003,56.107648,Varry Lavin,312244798,2020-02-23 07:57:39,"Bannockburn, Stirling",city,"Stirling, Scotland",United Kingdom
21,-46.648610999999995,-23.581402,giovanna,3122447992,2020-03-03 12:57:13,KFC ,poi,Centro Universitrio Belas Artes,
88,139.54103500000002,35.3336365,yuna,3122448596,2020-03-27 08:24:29,,city, ,
34940,-81.809538,26.26339,Gabriel A Perdomo,312244887,2020-03-26 15:25:36,"Naples, FL",city,"Naples Park, FL",Estados Unidos
222,107.000975,-6.226057,mangasep,312244932,2020-03-01 08:38:28,Indonesia,poi,Summarecon Mal Bekasi,Indonesia
35620,-74.08256949999999,39.942963,Make the Road New Jersey ,3122449388,2020-03-07 23:06:22,"Elizabeth, NJ",city,"Seaside Heights, NJ",United States
21,-43.959822499999994,-19.918692,Paulo Henrique,312244958,2020-02-14 15:02:48,"Belo Horizonte, Brasil",city,"Belo Horizonte, Brasil",Brasil
88,135.47617353,34.669285200000004,Puu,3122450076,2020-02-15 07:17:53,,city,  ,
119,-99.091543,19.405824,Nancy Mujica,3122452190,2020-02-25 14:05:22,CDMX,poi,Foro Sol,Mxico
41860,-122.38353602,37.75430372,David Kloth,312245245,2020-06-06 16:34:57,Bay Area,city,"San Francisco, CA",United States
47900,-77.2079325,39.136097,Patricia Lawrence,312245272,2020-06-07 22:18:29,,city,"Gaithersburg, MD",United States
18140,-82.985772,39.9946835,Buckeye Fellows,312245284,2020-03-01 13:59:21,The Ohio State University,city,"Columbus, OH",United States
46060,-110.946312,32.240679,lo ,312245381,2020-05-20 03:43:59,"Tucson, AZ",poi,UMC,United States
37340,-80.622676,28.329306000000006,Mary Gal,31224550,2020-03-07 06:32:13,"Cocoa Beach, FL",city,"Cocoa Beach, FL",United States
29820,-115.17493190000002,36.11686777,Women In Events,3122456441,2020-03-05 01:58:28,,city,"Paradise, NV",United States
211,-66.930644,10.483539,Rosario Pulido,3122456853,2020-05-19 04:21:50,,city,"Caracas, Venezuela",Venezuela
16980,-87.9314125,42.0624705,Lisa Borta,3122457001,2020-06-03 02:08:20,"Mount Prospect, IL",city,"Mount Prospect, IL",United States
205,-1.852607,50.742268,Julia Bullas,312245806,2020-02-14 07:28:02,"South West, England",city,"Bournemouth, England",United Kingdom
171,120.612449,15.480779, ,3122458861,2020-03-20 01:24:07,,city,"Tarlac City, Central Luzon",Republic of the Philippines
29620,-84.4816265,42.74672,Sadeem Boji,3122459348,2020-02-15 02:25:18,"West Bloomfield Township, MI",city,"East Lansing, MI",United States
19820,-83.3858125,42.658766,Sadeem Boji,3122459348,2020-02-21 04:20:59,"West Bloomfield Township, MI",city,"Waterford, MI",United States
29620,-84.4816265,42.74672,Sadeem Boji,3122459348,2020-02-24 04:26:23,"West Bloomfield Township, MI",city,"East Lansing, MI",United States
19820,-83.099288,42.3527865,Sadeem Boji,3122459348,2020-02-29 00:55:26,"West Bloomfield Township, MI",city,"Detroit, MI",United States
29620,-84.4816265,42.74672,Sadeem Boji,3122459348,2020-03-09 02:30:19,"West Bloomfield Township, MI",city,"East Lansing, MI",United States
19820,-83.3858125,42.658766,Sadeem Boji,3122459348,2020-03-15 01:26:10,"West Bloomfield Township, MI",city,"Waterford, MI",United States
38940,-80.24692850000001,27.240815500000004,Lip,3122459522,2020-03-25 22:46:22,"Florida, USA",city,"Jensen Beach, FL",United States
222,108.525202,-6.917831,Nura,3122460367,2020-05-11 16:51:24,"Cirebon Barat, Indonesia",city,"Jalaksana, Indonesia",Indonesia
33100,-80.26351700000002,26.1245075,chris abaroa,3122460392,2020-04-01 01:42:15,With future,city,"Plantation, FL",United States
205,-3.190966,51.485882000000004,NetballWales,3122461025,2020-02-24 06:36:52,,poi,Sport Wales National Centre,United Kingdom
26420,-95.4464865,29.838495,Bri ,3122461363,2020-02-15 12:45:58,they/them,city,"Houston, TX",United States
35380,-90.01100799999999,29.982601000000003,Bri ,3122461363,2020-02-23 02:54:23,they/them,city,"New Orleans, LA",United States
26420,-95.4464865,29.838495,Bri ,3122461363,2020-02-25 03:44:00,they/them,city,"Houston, TX",United States
47260,-76.069946,36.8025415,olivia,3122461605,2020-02-14 22:17:28,"Virginia Beach, VA",city,"Virginia Beach, VA",United States
186,-5.6919445,43.509797,Juan Carlos Cortina,312246202,2020-04-05 10:28:05,Gijon - Asturias,city,"Gijn, Espaa",Espaa
21,-54.252764500000005,-23.9411045,W.C,3122462102,2020-02-26 10:43:54,,city,"Mundo Novo, Brasil",Brasil
171,125.5841875,8.8999565,avi,3122463966,2020-05-23 13:05:54,,city,"Butuan City, Caraga",Republic of the Philippines
65,3.161871,50.6361325,Blog Hauts-de-France,312246508,2020-02-26 21:51:45,"Lille, France",city,"Villeneuve-d'Ascq, France",France
45780,-83.574671,41.65659049999999,Rocket Nation,3122465447,2020-02-16 23:38:32,"Toledo, OH",city,"Toledo, OH",United States
21,-43.180801,-22.896259,Revoltado ,3122465830,2020-02-15 11:53:02,"Kelson's, Rio de Janeiro",poi,Praa Mau,Brasil
21,-49.261299,-16.642782500000003,Caiado,3122466034,2020-02-15 10:14:18,,city,"Goinia, Brasil",Brasil
205,-5.9163999999999985,54.66803050000001,Adam Harwood,312246659,2020-02-15 21:44:30,,city,"Whiteabbey, Northern Ireland",United Kingdom
18580,-97.06987099999999,27.821059,tristan,3122466763,2020-02-22 04:31:03,"pa, texas",city,"Port Aransas, TX",United States
47900,-77.0143985,38.898603,DC Access,31224725,2020-05-20 21:52:20,"Washington, DC",city,"Washington, DC",United States
33,-69.348134,-24.2283195,Cristian Uribe M.,3122472819,2020-05-02 02:04:03,"Antofagasta, Chile",city,"Antofagasta, Chile",Chile
21,-37.021101,-8.388783,Prys,3122473228,2020-03-22 02:59:26,"Pernambuco, Brasil",city,"Arcoverde, Brasil",Brasil
12060,-84.43310600000001,33.7671945,georgito,3122477508,2020-02-18 21:42:20,"Atlanta, GA",city,"Atlanta, GA",United States
189,11.97866813,57.69825505,OLWIK,312247776,2020-02-17 15:06:11,Sweden,city,"Gothenburg, Sweden",Sweden
33340,-87.90185299,43.06736192,Becca,312247861,2020-02-14 23:30:21,"Milwaukee, Wisconsin",city,"Milwaukee, WI",United States
16980,-87.65075999999999,41.83573,Becca,312247861,2020-02-16 21:37:06,"Milwaukee, Wisconsin",city,"Chicago, IL",United States
33340,-87.9072,43.062959899999996,Becca,312247861,2020-02-18 23:58:45,"Milwaukee, Wisconsin",city,"Milwaukee, WI",United States
16980,-87.62129903,41.8536999,Becca,312247861,2020-03-01 00:07:50,"Milwaukee, Wisconsin",city,"Chicago, IL",United States
33340,-87.90185299,43.06736192,Becca,312247861,2020-03-09 02:59:21,"Milwaukee, Wisconsin",city,"Milwaukee, WI",United States
38,-74.24367099999999,4.2622835,Juancho El Colombiano,312247952,2020-02-15 21:42:41,"Bogota, colombia ",city,"Bogot, D.C., Colombia",Colombia
200,29.82122411,40.71767644,Cihan Kuru,312248032,2020-03-20 12:07:55,stanbul // Deirmendere ,city,"Glck, Trkiye",Trkiye
38,-74.24367099999999,4.2622835,Pablo Arango Robledo,312248050,2020-02-14 11:46:06,"Bogot, Colombia",city,"Bogot, D.C., Colombia",Colombia
20500,-78.8954405,35.9909825,Faith,312248157,2020-02-15 21:15:42,201  919 ,city,"Durham, NC",United States
49180,-80.244984,36.0871685,Faith,312248157,2020-02-18 03:36:42,201  919 ,city,"Winston-Salem, NC",United States
20500,-78.8954405,35.9909825,Faith,312248157,2020-03-06 23:54:48,201  919 ,city,"Durham, NC",United States
35620,-74.066663,40.7180015,Faith,312248157,2020-03-07 16:29:44,201  919 ,city,"Jersey City, NJ",United States
20500,-78.8954405,35.9909825,Faith,312248157,2020-03-09 21:39:40,201  919 ,city,"Durham, NC",United States
12060,-84.16895299999999,33.804601000000005,Faith,312248157,2020-03-13 04:24:21,201  919 ,city,"Stone Mountain, GA",United States
20500,-78.8954405,35.9909825,Faith,312248157,2020-03-17 05:19:15,201  919 ,city,"Durham, NC",United States
49180,-80.244984,36.0871685,Faith,312248157,2020-05-02 01:18:16,201919,city,"Winston-Salem, NC",United States
20500,-78.8954405,35.9909825,Faith,312248157,2020-06-05 17:29:39,201919,city,"Durham, NC",United States
49180,-80.244984,36.0871685,Faith,312248157,2020-06-06 19:02:10,201919,city,"Winston-Salem, NC",United States
20500,-78.8954405,35.9909825,Faith,312248157,2020-06-08 17:36:17,201919,city,"Durham, NC",United States
119,-105.1485805,20.6970525,Luis Antonio Trujillo de Paz ,312248167,2020-03-07 05:09:17,"El mar, DF y mi Valle de Bravo",city,"Puerto Vallarta, Jalisco",Mxico
35620,-73.9487755,40.655138,BVTTASCXTCH,31224818,2020-02-21 17:01:50,"New York, NY",city,"Brooklyn, NY",United States
42660,-122.42690549999999,47.089584499999994,Deo,3122482465,2020-04-03 05:43:46,Icon by @nightphysics,city,"Spanaway, WA",United States
88,139.5822895,35.389831, YMD YUKI,3122486988,2020-02-14 08:16:53, ,city,  ,
205,-2.72983,53.44720699999999,Sophie Milligan,31224872,2020-06-06 11:06:34,"Chorley, England",city,"Saint Helens, England",United Kingdom
33100,-80.219911,26.212769,Don Julio ,312248783,2020-04-20 04:55:39,North $laughterdale,city,"North Lauderdale, FL",United States
69,-0.1842935,5.6231985,AusTin BrUno IgHalo ,312248799,2020-03-21 22:31:09,ghana,city,"Accra, Ghana",Ghana
205,-0.306996,51.4405145,Helen Marshall-Banks,312248827,2020-02-14 08:26:01,,city,"Richmond, London",United Kingdom
16980,-87.732013,41.8335845,HALEY,312248856,2020-02-14 02:26:33,"Chicago, IL",city,"Chicago, IL",United States
17140,-84.658242,39.18708150000001,HALEY,312248856,2020-02-14 19:25:36,"Chicago, IL",city,"Dent, OH",United States
16980,-87.732013,41.8335845,HALEY,312248856,2020-02-18 13:51:58,"Chicago, IL",city,"Chicago, IL",United States
19740,-104.949845,39.9054745,Coach Voorhees,312248893,2020-02-14 04:48:24,"Thornton, CO",city,"Thornton, CO",United States
38900,-122.630908,45.536402,Coach Voorhees,312248893,2020-02-29 06:18:57,"Thornton, CO",city,"Portland, OR",United States
19740,-104.949845,39.9054745,Coach Voorhees,312248893,2020-03-05 03:10:07,"Thornton, CO",city,"Thornton, CO",United States
16980,-87.732013,41.8335845,Augie ErDene,3122489710,2020-02-18 21:11:58,"Chicago, IL",city,"Chicago, IL",United States
21,-43.441578,-22.911421500000003,Lus Eduardo,312249144,2020-02-21 03:40:17,"Jacarepagua, Rio de Janeiro/RJ",city,"Rio de Janeiro, Brasil",Brasil
88,131.687724,33.175290000000004,,3122493127,2020-05-19 13:42:07, ,city, ,
46220,-87.5334065,33.1966005,Valentines Day! ,3122494071,2020-02-14 16:56:04,"Tuscaloosa, AL",city,"Tuscaloosa, AL",United States
51,-7.866291,54.92103149999999,MrsMcG,312249576,2020-03-18 18:41:04,Ballyshannon ,city,"Donegal, Ireland",Ireland
21,-59.9803255,-2.572425,pedroo,3122496366,2020-02-28 23:03:48,Procurando ,city,"Manaus, Brasil",Brasil
35620,-74.1030275,40.81686,melissa ann,31224972,2020-02-15 14:11:24,"Jersey City, NJ",city,"Rutherford, NJ",United States
38060,-111.8583985,33.639340000000004,melissa ann,31224972,2020-02-22 17:01:17,"Jersey City, NJ",city,"Scottsdale, AZ",United States
35620,-74.0910375,40.82118850000001,melissa ann,31224972,2020-03-01 23:15:17,"Jersey City, NJ",city,"East Rutherford, NJ",United States
38300,-79.834175,40.519726500000004,Tracie Butcher,312249826,2020-03-17 21:12:34,"Oakmont, PA",city,"Oakmont, PA",United States
65,5.369697,43.290405,Bouteflikov ,3122499118,2020-02-19 11:08:40,Labo. Vegapunk - sur un nuage,poi,Moon,France
11740,-82.31422950000002,40.86436550000001,Chase Hunt,3122499622,2020-05-12 23:11:44,,city,"Ashland, OH",United States
39580,-78.634158,35.776223,Tashima Price,3122500465,2020-02-14 22:34:41,"Raleigh, NC",poi,Moore Square Museums Magnet Middle School,United States
12060,-84.43310600000001,33.7671945,Tashima Price,3122500465,2020-04-11 16:13:38,"Raleigh, NC",city,"Atlanta, GA",United States
39580,-78.657837,35.8439815,Tashima Price,3122500465,2020-04-12 16:42:58,"Raleigh, NC",city,"Raleigh, NC",United States
47900,-77.27715500000001,38.7936215,Kevin Nichols,312250140,2020-02-17 15:34:02,,city,"Burke, VA",United States
35620,-73.5842655,40.64898700000001,steven,312250170,2020-02-15 06:49:53,,city,"Freeport, NY",United States
26420,-95.4464865,29.838495,kasi kirby,31225019,2020-02-14 18:48:40,houston,city,"Houston, TX",United States
38,-74.24367099999999,4.2622835,manolito g.,3122504089,2020-05-19 14:27:49,"Bogot, D.C., Colombia",city,"Bogot, D.C., Colombia",Colombia
186,-1.637545,42.796646,Javier Aguirre,312250514,2020-03-08 13:07:42,Navarra/Madrid/CAV,poi,Estadio El Sadar,Espaa
205,-0.7640635,52.03356700000001,Fiona McGlone,3122505783,2020-03-22 06:18:31,,city,"Milton Keynes, England",United Kingdom
38060,-112.379447,33.6466545,David Keesey,312250676,2020-03-06 01:45:40,az,city,"Surprise, AZ",United States
119,-99.12297152,19.33949482,Hermano Lobo,312250706,2020-03-24 16:20:18,Ciudad de Mxico,city,"Coyoacn, Distrito Federal",Mxico
8,-58.1902845,-26.1616135,S a d i c,3122507365,2020-06-08 04:23:21,"Formosa, Argentina",city,"Formosa, Argentina",Argentina
51,-6.324342,53.293851000000004,Michael McInerney,3122508202,2020-03-12 22:58:26,,poi,Powerleague Dublin Spawell,Ireland
205,-0.1909515,51.9023015,Brandon lovell ( mc & commentator),3122509197,2020-04-10 00:26:10,"Stevenage, England",city,"Stevenage, East",United Kingdom
200,29.0052225,41.0213205,Silly,312250950,2020-02-26 14:57:10,"stanbul, Trkiye",city,"stanbul, Trkiye",Trkiye
44580,-89.712115,41.807693,Eric Ingles,312250951,2020-02-16 00:16:20,"Sterling, IL",poi,Sterling Newman High School,United States
19940,-89.488617,41.846509999999995,Eric Ingles,312250951,2020-02-22 00:41:48,"Sterling, IL",poi,Dixon High School,United States
44580,-89.966185,41.805985,Eric Ingles,312250951,2020-04-27 23:55:44,"Sterling, IL",poi,Odell Public Library,United States
41660,-100.453089,31.440522499999997,Juanita Arambula,31225097,2020-06-01 01:16:57,"Texas, USA",city,"San Angelo, TX",United States
16980,-87.732013,41.8335845,Dijo Mathews,3122511528,2020-06-06 15:38:20,"Chicago, IL",city,"Chicago, IL",United States
38,-74.24367099999999,4.2622835,,3122512248,2020-03-05 04:18:24,"Bogot, D.C., Colombia",city,"Bogot, D.C., Colombia",Colombia
21,-44.080921999999994,-22.524347,Jazz ,3122512590,2020-02-14 01:40:59,"Volta Redonda, Rio de Janeiro",city,"Volta Redonda, Brasil",Brasil
205,-1.13936,53.517648,Ian Singleton,3122513614,2020-02-16 17:23:15,"Doncaster, England",city,"Doncaster, England",United Kingdom
69,0.4627165,6.613540499999999,KOFI CLEVERSON,3122514339,2020-05-30 17:26:05,"Volta, Ghana",city,"Ho, Ghana",Ghana
26420,-95.4464865,29.838495,Kendall ,312251468,2020-02-14 02:21:25,"Second Ward, Houston",city,"Houston, TX",United States
47380,-97.12423249999999,31.6303265,Kendall ,312251468,2020-02-15 05:19:09,"Second Ward, Houston",city,"Lacy-Lakeview, TX",United States
19100,-97.1356375,32.70185,Kendall ,312251468,2020-02-16 22:39:25,"Second Ward, Houston",city,"Arlington, TX",United States
26420,-95.4464865,29.838495,Kendall ,312251468,2020-02-17 04:01:34,"Second Ward, Houston",city,"Houston, TX",United States
186,-0.8538049999999999,41.684926000000004,Diego Hernandez,312251472,2020-03-27 14:31:11,zaragoza,poi,Mercazaragoza,Espaa
171,125.4432615,7.317582499999999,juzz,3122515315,2020-03-29 05:28:33,Republic of the Philippines,city,"Davao City, Davao Region",Republic of the Philippines
119,-102.5035045,20.759413,M,3122516523,2020-04-16 20:59:39,your mans house ,city,"San Ignacio Cerro Gordo, Jalisco",Mexico
88,140.3626926,35.62828628,@ & ,3122520938,2020-02-24 02:25:09,,city, ,
73,23.80407,37.98715350000001,Jihed Ghannem,3122521421,2020-03-21 16:56:42,Greece - Tunisia,city,"Papagos, Greece",Hellas
82,83.359951,26.74441,Shivam Rai,3122523636,2020-03-16 06:10:53,"Gorakhpur, India",city,"Gorakhpur, India",India
82,75.96818400000002,22.6714825,Pankaj Sharma,312252516,2020-06-01 18:32:53,"Bhilai, India",city,"Indore, India",India
33,-70.32200124,-18.47792026,Giuseppe Barbieri,3122525673,2020-03-11 17:16:19,Arica-Chile,city,"Arica, Chile",Chile
119,-99.208364,19.199485,Marte en sagitario,312252676,2020-06-07 05:00:54,Mexico,city,"Tlalpan, Distrito Federal",Mxico
21,-51.09393529999999,-29.691877299999998,Rui Rob do bolsonaro,312252725,2020-04-12 23:43:34,novo hamburgo,city,"Novo Hamburgo, Brasil",Brasil
186,-15.459848999999998,28.103013,Eduardo Gonzlez ,3122528471,2020-02-14 11:34:48,,city,"Las Palmas de Gran Canaria, Espaa",Espaa
200,30.656297,40.627752,eyma zer,312252891,2020-06-02 20:45:49,Trkiye -stanbul,poi,hlas Kuzuluk Kaplca Evleri,Trkiye
28140,-94.5592815,39.1000485,NinaMarie,312252953,2020-03-25 00:03:10,Kansas City,city,"Kansas City, MO",United States
178,28.00225,-26.10442,Matt Koury,312253003,2020-02-17 16:01:36,"Johannesburg, South Africa",city,"Randburg, South Africa",South Africa
24,-114.087851,51.027664,Food Karma,312253095,2020-02-22 06:38:02,Alberta,city,"Calgary, Alberta",Canada
30780,-92.3311,34.736,Joel Ratliff Sr.,312253139,2020-02-14 21:51:09,"BENTON, ARKANSAS!",city,"Little Rock, AR",United States
26300,-93.08805556,34.42805556,Joel Ratliff Sr.,312253139,2020-04-21 02:55:20,"BENTON, ARKANSAS!",city,"Lake Hamilton, AR",United States
30780,-92.5824,34.579,Joel Ratliff Sr.,312253139,2020-05-12 00:24:35,"BENTON, ARKANSAS!",city,"Benton, AR",United States
34820,-78.87835708,33.69319501,Joel Ratliff Sr.,312253139,2020-06-10 21:29:53,"BENTON, ARKANSAS!",city,"Myrtle Beach, SC",United States
24660,-79.85736349999998,36.090397,quinci jane,3122531859,2020-02-16 03:17:26,chuck city,city,"Greensboro, NC",United States
35620,-73.8311875,40.6708795,quinci jane,3122531859,2020-03-02 14:59:36,chuck city,city,"Queens, NY",United States
24660,-79.85736349999998,36.090397,quinci jane,3122531859,2020-03-09 14:14:00,chuck city,city,"Greensboro, NC",United States
16620,-81.633705,38.347485999999996,quinci jane,3122531859,2020-03-22 00:24:54,chuck city,city,"Charleston, WV",United States
168,55.39182099999999,-20.996703,Olivier Larive,312253222,2020-05-02 11:18:09,La Runion,city,"La Possession, La Runion",La Runion
200,30.680889,36.89007,NURETTN ...,312253520,2020-06-04 14:49:19,antalya,city,"Antalya, Trkiye",Trkiye
151,8.510797,8.5102385,comr Emmanuel edwin,3122535383,2020-05-12 10:23:13,Nigeria,city,"Lafia, Nigeria",Nigeria
33100,-80.20096099999999,25.800742,Genesis Nicole,312253546,2020-03-14 22:12:25,,poi,Museum Of Graffiti,Estados Unidos
19420,-84.9989535,35.4917125,Kenzie Freeman,312253548,2020-02-14 04:47:10,"Tennessee, USA",city,"Dayton, TN",United States
33100,-80.134986,26.3739755,Adam Luttenberger,3122536581,2020-05-06 20:35:43,boca raton florida,city,"Boca Raton, FL",United States
21,-46.5955455,-23.682803,Gle82,3122537165,2020-02-23 13:15:54,"So Paulo, Brasil",city,"So Paulo, Brasil",Brasil
65,2.9351485,50.57346,JC,312253810,2020-03-10 18:18:06,,city,"Wavrin, France",France
128,4.32605177,50.81001785,JC,312253810,2020-05-13 20:24:23,,city,"Forest, Belgique",Belgique
65,2.9351485,50.57346,JC,312253810,2020-05-28 16:22:08,,city,"Wavrin, France",France
35620,-74.2176,40.8139,Annym,312253880,2020-03-01 22:36:08,,city,"Montclair, NJ",United States
88,135.70058521,34.92605763,HMN,3122539021,2020-02-14 03:06:34,,city, ,
205,-0.1923765,51.8071275,ALAA TALAAT,31225401,2020-03-11 11:47:59,,city,"Welwyn Garden City, East",United Kingdom
119,-99.188467,19.322823,Daniel MB,312254098,2020-02-17 15:18:17,"Mxico, D. F.",poi,Metrobs Ciudad Universitaria (Lnea 1),Mxico
26420,-95.4464865,29.838495,Joan E. Pearson,3122542050,2020-02-21 00:16:42,CFISD,city,"Houston, TX",United States
36420,-97.948281,35.0329435,Joan E. Pearson,3122542050,2020-03-28 19:38:14,CFISD,city,"Chickasha, OK",United States
26420,-95.4464865,29.838495,Joan E. Pearson,3122542050,2020-04-04 13:30:11,CFISD,city,"Houston, TX",United States
200,27.770892,37.288301000000004,lhanusta@hotmail,3122542719,2020-02-28 08:11:01,"Mula, Trkiye",city,"Milas, Trkiye",Trkiye
38,-74.24367099999999,4.2622835,Natalia Ariza Ramrez,312254299,2020-02-18 23:49:20,,city,"Bogot, D.C., Colombia",Colombia
65,-0.6809689999999999,44.786063,,3122544351,2020-03-05 09:07:29,Bordeaux,city,"Pessac, France",France
178,30.9725795,-29.900636,S'khuluSoNyambose,312254471,2020-02-22 08:29:15,Newcastle,city,"Durban, South Africa",South Africa
41180,-90.322616,38.6107965,Barb ,31225452,2020-02-16 03:43:35,"St Louis, MO",city,"Maplewood, MO",United States
21,-46.530655,-23.8040495,bertu ,3122545802,2020-03-01 00:36:04,"So Paulo, Brasil",city,"So Bernardo do Campo, Brasil",Brasil
175,39.2541285,21.5857105,walaa,3122546617,2020-02-20 10:49:18,",   ",city,",   ",  
14,90.3933,23.779491,Munna,3122547054,2020-03-28 05:04:30,"Dhaka, Bangladesh",poi,Mohakhali DOHS,Bangladesh
39740,-75.70124100000002,40.502675,Tyler Carter,312254723,2020-04-08 20:49:07,"Colorado Springs, CO",city,"Topton, PA",United States
14460,-71.04663134,42.34527898,John R. Benoit,31225480,2020-02-14 02:13:35,"West Boylston, MA",city,"Boston, MA",United States
49340,-71.78469999999999,42.355913,John R. Benoit,31225480,2020-02-16 16:08:16,"West Boylston, MA",city,"West Boylston, MA",United States
200,28.954340999999996,40.226213,Cuneyt Sener,312254939,2020-02-21 10:12:01,,city,"Nilfer, Trkiye",Trkiye
47260,-76.255686,36.895082,Andrea Walton-Boyd,31225497,2020-02-17 06:37:41,Chesapeake,city,"Norfolk, VA",United States
173,44.9563105,54.0618285,,312254975,2020-04-02 12:59:53,",  ",city,", ",
39740,-75.911089,40.348793,Dr. Rick Neff,3122550298,2020-02-26 03:58:32,"King of Prussia, PA",poi,Geigle Complex,United States
37980,-75.644536,40.250307,Dr. Rick Neff,3122550298,2020-03-09 01:29:32,"King of Prussia, PA",city,"Pottstown, PA",United States
178,28.184066499999997,-25.752605499999998,#ReadyToGather,312255034,2020-03-05 18:21:10,"Pretoria, South Africa",city,"Pretoria, South Africa",South Africa
33460,-93.05623,45.078723,Darcy,3122550810,2020-06-05 18:40:37,,poi,Goodwill,United States
40140,-117.05087350000001,34.040645,mads,3122550999,2020-05-27 17:54:26,,city,"Yucaipa, CA",United States
50,30.951859000000002,29.973396,,312255156,2020-03-01 19:21:14,"El Sharkia, Egypt",poi,6th October City,Egypt
31080,-118.4119065,34.0207895,im yo pushaaa ,31225518,2020-02-19 15:36:03,,city,"Los Angeles, CA",United States
-9999,-79.197632,3.6874905,Laco The Kid,3122552169,2020-03-01 02:37:57,"Buenaventura, Colombia",city,"Buenaventura, Colombia",Colombia
38,-77.06723411,3.87804553,Laco The Kid,3122552169,2020-04-13 04:41:27,"Buenaventura, Colombia",city,"Buenaventura, Colombia",Colombia
-9999,-79.197632,3.6874905,Laco The Kid,3122552169,2020-04-14 23:20:25,"Buenaventura, Colombia",city,"Buenaventura, Colombia",Colombia
38,-77.06743617,3.87615333,Laco The Kid,3122552169,2020-04-16 23:16:26,"Buenaventura, Colombia",city,"Buenaventura, Colombia",Colombia
-9999,-79.197632,3.6874905,Laco The Kid,3122552169,2020-04-17 01:16:55,"Buenaventura, Colombia",city,"Buenaventura, Colombia",Colombia
38,-77.0226,3.8815,Laco The Kid,3122552169,2020-04-30 23:55:05,"Buenaventura, Colombia",city,"Buenaventura, Colombia",Colombia
-9999,-79.197632,3.6874905,Laco The Kid,3122552169,2020-05-01 01:00:42,"Buenaventura, Colombia",city,"Buenaventura, Colombia",Colombia
38,-77.06743617,3.87615333,Laco The Kid,3122552169,2020-05-01 02:33:36,"Buenaventura, Colombia",city,"Buenaventura, Colombia",Colombia
-9999,-79.197632,3.6874905,Laco The Kid,3122552169,2020-05-03 00:20:58,"Buenaventura, Colombia",city,"Buenaventura, Colombia",Colombia
88,139.973355,35.859365000000004,,3122552413,2020-03-04 05:43:35,,poi,,
151,5.614602,6.287905,Abiodun Oluwaseun,3122552968,2020-06-01 12:41:57,"Edo, Nigeria",poi,University of Benin,Nigeria
33,-70.3919085,-33.293775499999995,Pellegrini_jj,3122553371,2020-04-06 12:06:03,SCL Chile,city,"Lo Barnechea, Chile",Chile
17220,-80.23509250000002,38.99049150000001,Jonathan Walker II,312255630,2020-02-14 12:10:19,"Baltimore, MD",city,"Buckhannon, WV",United States
12580,-76.8579695,39.269675,Jonathan Walker II,312255630,2020-05-15 05:29:47,"Baltimore, MD",city,"Ellicott City, MD",United States
205,-2.2841742000000003,53.35347611,Sazza,312255703,2020-03-01 15:45:58,"Sheffield, UK",city,"Manchester, England",United Kingdom
19100,-96.6021425,32.7749375,Kambry G.,3122557921,2020-02-15 19:52:55,"Dallas, TX",city,"Mesquite, TX",United States
11580,-81.85465199999999,27.1879915,Jeremy Seadorf,3122559485,2020-05-15 16:07:22,probably at the gym,city,"Southeast Arcadia, FL",United States
21,-48.9093795,-19.275948,Maria Vitria,3122559585,2020-02-26 03:46:18,"Minas Gerais, Brasil",city,"Prata, Brasil",Brasil
24660,-79.99535850000002,35.99505449999999,M_Sharee,3122562329,2020-04-05 00:36:05,"High Point, NC",city,"High Point, NC",United States
200,29.0052225,41.0213205,b,3122562959,2020-03-25 14:19:18,,city,"stanbul, Trkiye",Trkiye
82,72.545528,23.152369,varun vyas,312256314,2020-03-22 13:53:24,Ahmedabad,poi,Shantigram,India
200,28.9488258,41.026786799999996,Kadir ANDIRIN,312256326,2020-02-28 14:22:38,aramba Fatih stanbul,city,"stanbul, Trkiye",Trkiye
88,139.651673,35.420361,,3122564594,2020-03-06 03:59:52,ID: VKZ658,poi,,
21,-43.296872,-22.644558,,3122564938,2020-02-17 05:20:09,021,city,"Duque de Caxias, Brasil",Brasil
21,-47.14025,-23.423446,Tiffany Silva,3122566276,2020-05-15 03:28:30,"So Paulo, Brasil",poi,Sitio Marinelli,Brasil
26420,-95.824553,29.783996,Luke Wallis,3122566692,2020-02-16 01:11:41,"Beaumont, TX",city,"Katy, TX",United States
13140,-94.12863349999999,30.086918,Luke Wallis,3122566692,2020-02-17 15:02:43,"Beaumont, TX",city,"Beaumont, TX",United States
73,21.628265399999997,39.7040065,goulishhh,312257017,2020-02-15 21:07:24,,city,"Kalampaka, Greece",Hellas
48700,-76.7751255,41.2100685,Danielle Velkoff,31225717,2020-04-03 00:56:35,New York,city,"Muncy, PA",United States
222,107.55984986,-6.92268761,Nunung Nurjanah,3122571762,2020-03-09 14:29:48,indonesia ,city,"Cimahi Selatan, Indonesia",Indonesia
21,-43.018208,-22.821465,Rabello_ Rei,3122574501,2020-05-14 10:40:59,"Rio de Janeiro, . ",city,"So Gonalo, Brasil",Brasil
33460,-93.14820766,44.94951734,Sarah Schupanitz,31225752,2020-03-12 23:08:28,"Minneapolis, MN",city,"St Paul, MN",United States
88,139.483519,35.9838855,4c,3122579202,2020-04-29 08:05:25,,city, ,
11620,-97.139765,34.1745735,"Brandi Gill-Price, Ed.S.",3122579510,2020-03-07 18:45:42,"Ardmore, OK",city,"Ardmore, OK",United States
32820,-89.92202900000002,35.1335205, instagram: @therealitzangie,31225830,2020-02-14 16:07:21,United States,city,"Memphis, TN",United States
15980,-81.986834,26.63648, instagram: @therealitzangie,31225830,2020-06-06 06:45:39,United States,city,"Cape Coral, FL",United States
36740,-81.1972755,28.588445, instagram: @therealitzangie,31225830,2020-06-08 05:24:30,United States,city,"University, FL",United States
32820,-89.92202900000002,35.1335205, instagram: @therealitzangie,31225830,2020-06-09 19:55:49,United States,city,"Memphis, TN",United States
21,-43.441578,-22.911421500000003,Carolina Radhi,3122584403,2020-04-09 06:09:31,"Madureira, Rio de Janeiro",city,"Rio de Janeiro, Brasil",Brasil
19820,-82.89425349999998,42.4958195,Roy O'Brien Ford,31225847,2020-02-14 19:16:39,"St. Clair Shores, MI",city,"St Clair Shores, MI",United States
19100,-96.8799575,32.924548,Making Moves. (Goals & Plans) Destination: Success,3122586289,2020-04-28 19:21:41,"Texas, USA",city,"Farmers Branch, TX",United States
31540,-89.6455145,42.600535,Nick Rieder,3122589158,2020-02-15 18:53:19,"Monroe, WI",city,"Monroe, WI",United States
12020,-83.39977950000001,33.9563835,Jerphari Colbert,3122590125,2020-04-09 01:03:08,,city,"Athens, GA",United States
151,3.3180660000000004,6.590611,Moore Outfits,3122590289,2020-02-14 12:19:55,Lagos/Ilorin,city,"Ikeja, Nigeria",Nigeria
41700,-98.5406515,29.417501,ArtContreras,3122591018,2020-02-15 02:27:11,Devine tx,city,"San Antonio, TX",United States
21,-43.441578,-22.911421500000003,jaqueline,312259194,2020-04-12 17:43:01,,city,"Rio de Janeiro, Brasil",Brasil
40060,-77.49317049999998,37.529883,nai,3122594433,2020-02-16 13:15:21,"Richmond, VA",city,"Richmond, VA",United States
47900,-78.1815765,38.926365,nai,3122594433,2020-03-08 22:51:00,"Richmond, VA",city,"Front Royal, VA",United States
31740,-96.5745935,39.2099285,Mario Abdo (h),312259447,2020-03-06 23:07:18,,city,"Manhattan, KS",Estados Unidos
159,-57.60601750000001,-25.300264000000002,Mario Abdo (h),312259447,2020-03-21 00:37:36,,city,"Asuncion, Paraguay",Paraguay
18140,-83.07858900000001,40.284123,Kristin grimes,3122595464,2020-02-14 13:43:49,"Delaware, OH",city,"Delaware, OH",United States
88,136.9916465,35.1224245,ZIP-FM SCK -S-#,3122595602,2020-06-01 12:53:27,,city,  ,
41740,-117.10498899999999,32.810012,Kari Schneider,31225963,2020-02-20 20:18:38,San Diego California,city,"San Diego, CA",United States
64,-151.707201,-16.472592000000002,Kari Schneider,31225963,2020-05-26 18:58:55,San Diego California,poi,Four Seasons Resort Bora Bora,French Polynesia
17460,-81.705467,41.49593950000001,Holly Kear,3122596767,2020-02-15 16:43:36,,city,"Cleveland, OH",United States
10420,-81.511516,41.1652465,Holly Kear,3122596767,2020-02-16 18:14:17,,city,"Cuyahoga Falls, OH",United States
15940,-81.382695,40.885188,Holly Kear,3122596767,2020-02-23 01:34:53,,city,"North Canton, OH",United States
10420,-81.511516,41.1652465,Holly Kear,3122596767,2020-02-29 13:07:48,,city,"Cuyahoga Falls, OH",United States
173,32.04527778,54.78277778, ,312259725,2020-03-06 13:32:58,,city,", ",
19740,-104.845615,39.546673,The Western Athletic Conference,31225986,2020-02-22 03:43:37,"Englewood, CO",city,"Meridian, CO",United States
14260,-116.505025,43.606984999999995,The Western Athletic Conference,31225986,2020-02-28 23:23:50,"Englewood, CO",poi,Ford Idaho Sport Center,United States
19740,-104.845615,39.546673,The Western Athletic Conference,31225986,2020-04-02 20:37:50,"Englewood, CO",city,"Meridian, CO",United States
16980,-87.848928,41.499327,austyn breazeale,3122599707,2020-03-11 04:27:14,United States,city,"Frankfort, IL",United States
38,-74.0794,4.5997,Eliana Rodrguez ,3122599762,2020-06-04 04:31:53,"Bogot, Colombia",city,"Bogot, D.C., Colombia",Colombia
21,-47.13786322,-23.52757588,Ana Beatriz,3122599824,2020-03-25 17:08:26,"So Roque, So Paulo",city,"So Roque, Brasil",Brasil
41860,-122.43597849999999,37.7706565,brie,312260088,2020-02-26 17:44:10,The bay!!!,city,"San Francisco, CA",United States
19100,-96.796927,32.776278000000005,Omar Narvaez,312260192,2020-06-06 22:46:31,"Dallas, TX",poi,Dallas City Hall,United States
119,-99.17645931,19.37277392,EL BXER TORRES,312260197,2020-02-14 20:40:08,Mxico Distrito Federal,city,"Benito Jurez, Distrito Federal",Mxico
35380,-90.01100799999999,29.982601000000003,  ,3122602006,2020-04-15 01:36:27,"New Orleans, LA",city,"New Orleans, LA",United States
21,-46.6333,-23.55,Elder Black,312260233,2020-03-07 18:25:24,Itabira MG,city,"So Paulo, Brasil",Brasil
41860,-122.2816065,37.9941325,Martha Carrasco,312260330,2020-03-02 16:43:53,San Francisco,city,"Pinole, CA",United States
38060,-112.39299999999999,33.4352,Trish Nhan,312260345,2020-02-14 14:51:54,"Goodyear, AZ",city,"Goodyear, AZ",United States
16980,-87.650726,41.829733000000004,Mike Karpinski,312260539,2020-06-02 17:48:45,"Bridgeport, IL",poi,Jimmy John's,United States
21,-48.34806,-25.57056,Aline Rodrigues #palmeiras,3122607251,2020-05-16 15:55:47,,city,"Pontal do Paran, Brasil",Brasil
16700,-79.837322,32.847946500000006,Paul Karnes,312260769,2020-02-25 16:33:08,"Mount Pleasant, SC",city,"Mount Pleasant, SC",United States
8,-58.41885600000001,-34.752795500000005,Daro,3122607818,2020-04-22 12:48:15,Ciudad Autnoma de Buenos Aire,city,"Lomas de Zamora, Argentina",Argentina
45300,-82.61341999999999,28.062051,Eric Grundhoefer,3122607903,2020-05-14 18:13:27,"Tampa, FL",city,"Westchase, FL",United States
10420,-81.40530899999997,41.330573,Bob Marquardt,3122608065,2020-03-02 13:13:41,,city,"Reminderville, OH",United States
17460,-81.47324499999998,41.4433345,Bob Marquardt,3122608065,2020-03-26 16:08:10,,city,"Orange, OH",United States
10420,-81.40530899999997,41.330573,Bob Marquardt,3122608065,2020-03-28 15:31:24,,city,"Reminderville, OH",United States
17460,-81.47324499999998,41.4433345,Bob Marquardt,3122608065,2020-04-02 14:11:22,,city,"Orange, OH",United States
10420,-81.40530899999997,41.330573,Bob Marquardt,3122608065,2020-04-04 01:17:57,,city,"Reminderville, OH",United States
17460,-81.47324499999998,41.4433345,Bob Marquardt,3122608065,2020-04-21 19:00:43,,city,"Orange, OH",United States
10420,-81.40530899999997,41.330573,Bob Marquardt,3122608065,2020-04-23 12:08:33,,city,"Reminderville, OH",United States
17460,-81.47324499999998,41.4433345,Bob Marquardt,3122608065,2020-04-30 16:52:29,,city,"Orange, OH",United States
10420,-81.40530899999997,41.330573,Bob Marquardt,3122608065,2020-05-02 14:34:23,,city,"Reminderville, OH",United States
17460,-81.47324499999998,41.4433345,Bob Marquardt,3122608065,2020-05-11 16:17:13,,city,"Orange, OH",United States
10420,-81.40530899999997,41.330573,Bob Marquardt,3122608065,2020-05-26 23:19:25,,city,"Reminderville, OH",United States
17460,-81.47324499999998,41.4433345,Bob Marquardt,3122608065,2020-06-03 20:45:34,,city,"Orange, OH",United States
10420,-81.40530899999997,41.330573,Bob Marquardt,3122608065,2020-06-11 01:29:55,,city,"Reminderville, OH",United States
26420,-95.4464865,29.838495,Amanda,3122608991,2020-02-19 05:52:12,,city,"Houston, TX",United States
21,-42.01276,-22.882618,i i ,3122609004,2020-02-23 04:41:51,,poi,Praia do Forte,Brazil
9,145.0531355,-37.9725665,Rob Perry,312261224,2020-03-18 06:07:39,"Camberwell, Melbourne",city,"Melbourne, Victoria",Australia
205,-2.915427,53.4198785,Ed,312261288,2020-04-28 12:01:19,England,city,"Liverpool, England",United Kingdom
33,-73.16689550000002,-39.8334805,Carlos P Vio,312261536,2020-02-19 00:15:51,"Santiago, Chile",city,"Valdivia, Chile",Chile
41700,-97.973779,29.574386999999998,sydney,3122616104,2020-02-22 00:13:10,,city,"Seguin, TX",United States
26420,-95.4464865,29.838495,sydney,3122616104,2020-03-14 15:47:50,,city,"Houston, TX",United States
41700,-98.5406515,29.417501,sydney,3122616104,2020-03-30 07:37:02,,city,"San Antonio, TX",United States
26420,-95.4464865,29.838495,sydney,3122616104,2020-04-17 15:18:23,,city,"Houston, TX",United States
41700,-98.5406515,29.417501,sydney,3122616104,2020-04-21 18:20:48,,city,"San Antonio, TX",United States
26420,-95.4464865,29.838495,sydney,3122616104,2020-04-28 15:17:27,,city,"Houston, TX",United States
41700,-97.973779,29.574386999999998,sydney,3122616104,2020-05-04 22:01:06,,city,"Seguin, TX",United States
26420,-95.4464865,29.838495,sydney,3122616104,2020-06-04 19:53:20,,city,"Houston, TX",United States
41700,-98.5406515,29.417501,sydney,3122616104,2020-06-09 05:20:46,,city,"San Antonio, TX",United States
31080,-117.61862099999999,33.438735,Dave Pherrin,312261759,2020-02-27 05:41:04,,city,"San Clemente, CA",United States
40140,-117.462698,34.1081605,bKooL !,3122617608,2020-02-25 02:14:13,,city,"Fontana, CA",United States
31080,-117.85108899999999,33.842863,bKooL !,3122617608,2020-03-01 02:40:03,,city,"Anaheim, CA",United States
38300,-79.676229,40.353746,Gianni rizzo,3122617656,2020-03-19 17:42:22,"North Huntingdon, PA",city,"Manor, PA",United States
21,-43.151338,-22.706542000000002,Guimares,3122618011,2020-03-25 15:22:25,"Rio de Janeiro, Brasil",poi,Praia de Mau,Brasil
39340,-111.45825496,39.54417767,Wasatch Academy,312261872,2020-02-19 15:58:20,"Mount Pleasant, Utah",city,"Mount Pleasant, UT",United States
41700,-98.48358035,29.42060157,Viviana Mora,312261902,2020-02-14 18:38:38,Home,city,"San Antonio, TX",United States
15180,-97.484478,25.95009,Viviana Mora,312261902,2020-02-16 23:06:29,Home,city,"Brownsville, TX",United States
19100,-96.77833149,32.92278713,Viviana Mora,312261902,2020-02-22 22:01:07,Home,city,"Dallas, TX",United States
15180,-97.25615299,26.0816822,Viviana Mora,312261902,2020-05-16 13:40:56,Home,city,"Laguna Heights, TX",United States
19100,-96.7977,32.7774,Viviana Mora,312261902,2020-06-06 01:48:40,Home,city,"Dallas, TX",United States
19100,-96.826004,32.761005,LaDella Stone,31226192,2020-05-24 22:53:18,"Dallas, TX",poi,Methodist Dallas Medical Center - Schenkel Tower,United States
55,-89.243003,13.694726000000001,MG,312261979,2020-03-07 04:17:18,,poi,La 20 Cervecera San Benito,El Salvador
34980,-86.791549,36.200008000000004,Jean Castrillo,3122621081,2020-02-27 06:54:50,"Tennessee, USA",city,"Nashville, TN",United States
65,2.347003,48.8588335,Shin,312262210,2020-05-22 19:52:23,Wano sur Seine,city,"Paris, France",France
8,-58.200629000000006,-34.797540500000004,Pol,312262262,2020-03-19 14:04:57,Somewhere only we know,city,"Berazategui, Argentina",Argentina
200,29.425921000000002,40.774542,Mehmet Ozkan,3122624019,2020-04-13 16:36:38,,poi,Eskihisar Sahili,Trkiye
186,-0.220717,38.99533200000001,KoKoNiaKo.,3122625517,2020-05-02 02:11:12,Agatha Roth. 08/07/17,city,"Gandia, Espaa",Espaa
158,174.8562435,-36.595729,Scott Bartlett,312262578,2020-03-03 09:11:40,,city,"Auckland, New Zealand",New Zealand
16980,-87.735682,42.00629,Messi es el futbol,3122625972,2020-02-15 18:03:14,,city,"Lincolnwood, IL",United States
120,101.929233,2.450297,BOOBBY,3122627545,2020-02-29 16:53:03,,city,"Pasir Panjang, Negeri Sembilan",Malaysia
193,101.976673,6.0191705,BOOBBY,3122627545,2020-03-17 13:03:59,,city,"Bandar Kecil Rantau Panjang, Kelantan",Malaysia
120,101.9740805,5.97317,BOOBBY,3122627545,2020-05-02 12:12:45,,city,"Rantau Panjang, Kelantan",Malaysia
193,101.976673,6.0191705,BOOBBY,3122627545,2020-05-09 12:06:06,,city,"Bandar Kecil Rantau Panjang, Kelantan",Malaysia
48900,-77.870576,34.219978000000005,Brenda Sanchez,3122628365,2020-03-06 04:39:18,,poi,Graham-Hewlett Hall,United States
8,-58.47304250000001,-34.815332500000004, ,3122629022,2020-02-14 19:48:02,"Buenos Aires, Argentina",city,"Monte Grande, Argentina",Argentina
205,-0.1091815,51.5469265,Tallulah,3122629271,2020-02-15 20:23:48,London,city,"Islington, London",United Kingdom
41740,-117.10498899999999,32.810012,p.,3122631426,2020-02-14 15:32:43,,city,"San Diego, CA",United States
38900,-122.630908,45.536402,p.,3122631426,2020-02-19 21:06:39,,city,"Portland, OR",United States
171,120.99236200000001,14.599374,leli,3122634006,2020-03-09 05:37:37,central perk cafe,poi,"Intramuros, Manila",Republic of the Philippines
24,-75.7,45.4167,Casey McDermott,312263425,2020-03-01 19:06:40,,city,"Ottawa, Ontario",Canada
186,-15.43455937,28.13560865,Alessio De Luca,312263438,2020-02-15 15:33:52,Playa del Ingls Gran Canaria,city,"Las Palmas de Gran Canaria, Espaa",Spagna
33660,-88.04286718,30.68924202,VBlacK1,31226361,2020-02-26 15:19:56,Chocolate Extravagance,city,"Mobile, AL",United States
47260,-76.4291,36.9792,VBlacK1,31226361,2020-03-09 16:19:02,Chocolate Extravagance,city,"Newport News, VA",United States
46220,-87.58163601,33.24035862,VBlacK1,31226361,2020-05-12 17:35:46,Chocolate Extravagance,city,"Northport, AL",United States
35620,-73.949533,40.650364,nati,31226368,2020-03-07 06:55:50,585,poi,"Brooklyn, NY",United States
21,-50.9476615,-20.266442,PedroLucas,3122637622,2020-02-14 07:55:03,,city,"Santa F do Sul, Brasil",Brasil
37980,-74.8963555,39.958270500000005,Cipriani Remodeling,31226386,2020-06-02 16:47:35,"Southern New Jersey, USA",city,"Mount Laurel, NJ",United States
186,-5.923545000000002,37.38319799999999,Javi Lpez Rivero,312263939,2020-05-31 19:36:24,,city,"Sevilla, Espaa",Espaa
35620,-73.9685415,40.780709,Jaap J Boelens,312263985,2020-02-26 01:35:34,"New York, NY",city,"Manhattan, NY",United States
119,-99.81604345,24.09758384,Osvaldo Maldonado,312264067,2020-03-09 04:02:24,"Monterrey, Nuevo Len",city,"Aramberri, Nuevo Len",Mxico
119,-89.62284,20.976389,"Impulso Universitario, A.C.",312264110,2020-02-15 16:52:21,"Mrida, Yucatn",poi,Impulso Universitario A.C.,Mxico
12060,-84.43310600000001,33.7671945,Marvin Kurapika is Best Boy Crumbs,3122642562,2020-02-14 01:57:49,"Georgia Tech, Atlanta",city,"Atlanta, GA",United States
38300,-79.95512198,40.44582506,Achuu ,3122643455,2020-03-01 06:56:15,"Reading, Pennsylvania, USA",city,"Pittsburgh, PA",United States
205,-0.787528,51.2050445,Helen Goodridge,312264376,2020-02-15 18:40:51,"Farnham, Surrey",city,"Farnham, England",United Kingdom
171,121.08234499999999,14.5833065,Shellyyy  ,3122644022,2020-02-15 13:27:23,,city,"Pasig City, National Capital Region",Republic of the Philippines
33100,-80.397915,25.641723000000002,Dinah Alvarez Skin Care Atelier,3122644215,2020-05-04 18:54:54,"Miami, FL",city,"Three Lakes, FL",United States
88,132.6582815,34.1840315,,3122644974,2020-04-12 00:21:53,,city, ,
9,130.9333085,-12.425901,NTCOSS,3122645214,2020-03-21 11:05:43,Northern Territory,city,"Darwin, Northern Territory",Australia
46060,-110.91557350000001,32.1893905,Kelly,3122646155,2020-02-16 23:04:16,"Tucson, AZ",city,"Tucson, AZ",United States
8,-60.71245237,-32.89192552,Tobias,3122647244,2020-03-27 00:56:28,Rosario city,city,"Rosario, Argentina",Argentina
158,174.75433850000005,-41.2529975,Dooley Danger,3122649752,2020-04-05 03:32:41,"Wellington, New Zealand",city,"Wellington City, New Zealand",New Zealand
160,-76.225796,-14.083545999999998,Burcn,312265048,2020-02-24 00:37:12,Macondo,city,"Paracas, Peru",Peru
49,-78.5566815,-0.16657049999999998,Burcn,312265048,2020-03-05 04:09:25,Macondo,city,"Quito, Ecuador",Ecuador
24340,-85.3662235,42.944676,Sable Zambrana,3122650808,2020-04-10 15:34:29,,city,"Lowell, MI",United States
158,175.4080075,-39.088532,Jerry Jordan,3122652828,2020-02-14 07:14:09,,city,"Ruapehu District, New Zealand",New Zealand
205,-1.8192455,52.684339,elainesherwood,312265337,2020-03-17 09:11:29,"Birmingham, England",city,"Lichfield, England",United Kingdom
24,-123.123581,49.257639000000005,93.7 JR Country,31226566,2020-03-31 12:25:15,"Vancouver, BC",city,"Vancouver, British Columbia",Canada
21,-42.963906,-22.590788,giovana,3122657479,2020-02-25 06:22:44,rj ,city,"Guapimirim, Brasil",Brasil
82,88.551005,22.768674,suman mazumdar,312265796,2020-05-02 20:46:00,"Kolkata, India",neighborhood,"Nebadhai Duttapukur, West Bengal",India
36420,-97.552161,35.4828435,Bodaci0Us1,312265888,2020-02-14 04:00:40,"Oklahoma City, OK",city,"Oklahoma City, OK",United States
21,-48.466471999999996,-1.427684,Melm,3122659223,2020-02-29 23:54:11,"Belm, Brasil",poi,Caranguejo do Gatinho,Brasil
14460,-71.0887125,42.3136695, Martins ,3122660146,2020-03-07 23:53:23,"Braintree, MA",city,"Boston, MA",United States
16860,-85.242564,35.0919545,Sandra,312266154,2020-03-15 01:31:18,Chattanooga,city,"Chattanooga, TN",United States
186,-15.4924115,28.0318495,Katia,3122662061,2020-03-22 14:28:12,Italia,city,"Santa Brgida, Espaa",Spagna
119,-99.208364,19.199485,Andrs Prez,3122662116,2020-04-23 04:46:33,,city,"Tlalpan, Distrito Federal",Mxico
21,-46.7960545,-21.9660015,Carlo Paione,312266219,2020-05-06 23:33:39,S. Joo da Boa Vista - SP,city,"So Joo da Boa Vista, Brasil",Brasil
164,-8.621914,41.162141999999996,Alexandre guia,31226624,2020-02-15 14:09:08,"Porto, Portugal",city,"Porto, Portugal",Portugal
12060,-84.39735062,33.79363427,Hot Boy,312266259,2020-03-01 20:01:00,ATL,city,"Atlanta, GA",United States
200,29.0052225,41.0213205,omercobain,3122663401,2020-04-11 13:23:57,"Yeilky, stanbul",city,"stanbul, Trkiye",Trkiye
41860,-122.43597849999999,37.7706565,Patrick McGee,312266530,2020-02-18 05:52:30,"San Francisco, CA",city,"San Francisco, CA",United States
200,30.648911600000005,36.9083154,Emir Krncgl,312266600,2020-05-02 19:09:45,ADANA ,city,"Antalya, Trkiye",Trkiye
171,120.96262050000001,14.115378,Beau,3122666390,2020-03-07 04:22:56,,city,"Tagaytay, Calabarzon",Republic of the Philippines
21,-43.441578,-22.911421500000003,Joyce Kelly,3122667163,2020-02-14 01:33:48,"Vaz Lobo, Rio de Janeiro",city,"Rio de Janeiro, Brasil",Brasil
19780,-93.6209,41.5909,Bill Kalmenson,31226703,2020-02-18 20:54:11,Los Angeles,city,"Des Moines, IA",United States
16300,-91.6685,41.9831,Bill Kalmenson,31226703,2020-02-20 22:38:13,Los Angeles,city,"Cedar Rapids, IA",United States
11180,-93.6169,42.025,Bill Kalmenson,31226703,2020-02-23 19:21:30,Los Angeles,city,"Ames, IA",United States
31080,-118.31807989,34.12066109,Bill Kalmenson,31226703,2020-03-19 18:04:03,Los Angeles,city,"Los Angeles, CA",United States
11700,-82.5558,35.5799,Bill Kalmenson,31226703,2020-04-04 03:59:29,Los Angeles,city,"Asheville, NC",United States
31080,-118.3189,34.1208,Bill Kalmenson,31226703,2020-04-17 19:59:26,Los Angeles,city,"Los Angeles, CA",United States
31140,-85.7554,38.2525,Bill Kalmenson,31226703,2020-04-24 18:56:23,Los Angeles,city,"Louisville, KY",United States
31080,-118.3189,34.1208,Bill Kalmenson,31226703,2020-04-30 20:06:11,Los Angeles,city,"Los Angeles, CA",United States
21,-40.537349,-3.952579,moana,3122670952,2020-02-14 00:01:18,freguesia,city,"Carir, Brasil",Brasil
85,12.872485000000001,41.4726865,Graziano Pacenza,312267307,2020-03-04 13:10:05,,city,"Latina, Lazio",Italia
200,27.26209,37.86408,brahim H YEDKARDE,312267400,2020-05-31 21:22:59,Kuadas,poi,Kuadas Sahili,Trkiye
222,127.500157,0.8858030000000001,Oyoeth.,3122674916,2020-02-17 10:21:45,"Ternate, Indonesia",poi,Pelabuhan Ferry Sidangoli,Indonesia
21,-43.441578,-22.911421500000003,Ellen Costa ,3122675513,2020-02-25 20:05:21,,city,"Rio de Janeiro, Brasil",Brasil
88,139.6262955,35.69816249999999,shuks ,3122676169,2020-05-25 10:31:13, shuks,city, ,
16980,-88.130387,41.9152895,Phil Allen,3122676386,2020-02-17 19:07:46,,city,"Carol Stream, IL",United States
205,-2.593709,53.389872,Kylie-Jayne ,31226772,2020-03-09 16:04:10,"Liverpool, England",poi,The Blue Bell,United Kingdom
205,-0.092309,51.515294,detlef schmidt,3122677637,2020-04-27 20:34:18,"deutschland, 16244 schorfheide",poi,St. Lawrence Jewry,Vereinigtes Knigreich
159,-57.60601750000001,-25.300264000000002,Mave Vargas,3122678651,2020-03-14 13:10:59,,city,"Asuncion, Paraguay",Paraguay
21,-46.5955455,-23.682803,Reis Lobo,312267959,2020-02-17 17:57:21,So Paulo / Brasil,city,"So Paulo, Brasil",Brasil
21,-42.1347125,-22.9346425,day dias,3122680205,2020-02-16 08:56:43,"Rio de Janeiro, Brasil",city,"Arraial do Cabo, Brasil",Brasil
21,-38.620760499999996,-3.7871980000000005,William Rosendo,3122680729,2020-05-23 22:31:24,"Fortaleza, Brasil",neighborhood,"Granja Lisboa, Fortaleza",Brasil
36420,-97.35762,35.47036400000001,Riley Mccoy,3122681688,2020-02-14 20:21:31,Choctaw America,city,"Midwest City, OK",United States
14500,-105.2426865,40.02398150000001,aug ,3122681887,2020-02-14 00:15:15,"denver, co",city,"Boulder, CO",United States
19740,-105.12818850000001,39.8202065,aug ,3122681887,2020-03-03 20:59:02,"denver, co",city,"Arvada, CO",United States
14500,-105.2426865,40.02398150000001,aug ,3122681887,2020-03-04 02:52:02,"denver, co",city,"Boulder, CO",United States
19740,-105.1233195,39.685852000000004,aug ,3122681887,2020-03-15 19:34:57,"denver, co",city,"Lakewood, CO",United States
14500,-105.2426865,40.02398150000001,aug ,3122681887,2020-03-22 02:45:18,"denver, co",city,"Boulder, CO",United States
29820,-115.17622232,36.10762073,Jason Danger Diaz,31226825,2020-02-14 06:53:22,Houston,city,"Paradise, NV",United States
26420,-95.3694,29.7602,Jason Danger Diaz,31226825,2020-02-22 06:42:17,Houston,city,"Houston, TX",United States
17,-66.155011,-17.389113000000002,Gary C A R A C O L,3122683462,2020-03-13 21:28:03,,poi,Plaza Coln,Bolivia
38300,-80.171236,40.252413,Em,3122684794,2020-03-12 19:30:38,"Pittsburgh, PA",poi,Sheetz,United States
186,1.9323341,41.512353499999996,Sergio Hernandez,312268481,2020-04-19 10:21:49,"Abrera, Espaa",city,"Abrera, Espaa",Espaa
10900,-75.20573953,40.68997953,Tarre Apreala,3122685876,2020-02-22 19:21:37,"Allentown, PA",city,"Easton, PA",United States
20700,-75.17024451,40.99697147,Tarre Apreala,3122685876,2020-03-01 00:31:15,"Allentown, PA",city,"East Stroudsburg, PA",United States
37980,-75.18980742,39.949884999999995,Tarre Apreala,3122685876,2020-04-24 23:02:21,"Allentown, PA",city,"Philadelphia, PA",United States
20020,-85.39041,31.22283,Dj Kru5h,3122686360,2020-02-27 22:11:48,"Panama City Beach, FL",city,"Dothan, AL",United States
37460,-85.8515,30.2074,Dj Kru5h,3122686360,2020-04-11 14:57:56,"Panama City Beach, FL",city,"Panama City Beach, FL",United States
33100,-80.18247249999997,25.9605825,Timothy Warner Miami Realtor,312268691,2020-03-04 23:33:46,"Miami Beach, FL",city,"Ives Estates, FL",United States
200,34.67511758,37.96781111,Mustafa KARAAA,312268818,2020-03-11 19:21:07,"Erzincan, Trkiye",city,"Nide, Trkiye",Trkiye
16740,-80.651287,35.196751000000006,Mark Atwater,3122689381,2020-02-16 04:40:04,"Charlotte, NC",city,"Mint Hill, NC",United States
28700,-82.5421,36.5368,Engage Tri-Cities,3122693990,2020-02-15 18:25:03,"Kingsport, TN",city,"Kingsport, TN",United States
205,-2.131836,53.383901,Casey Govier,31226942,2020-04-15 21:51:20,"Hazel Grove, Stockport",city,"Stockport, England",United Kingdom
205,-2.896507,53.2789415,Hayley,312269427,2020-04-08 13:11:55,"North West, England",city,"Ellesmere Port, England",United Kingdom
35620,-73.1534595,40.881978,David Trabulsi,3122694379,2020-03-05 11:41:22,,city,"St James, NY",United States
119,-99.15451671,19.42490998,Fernanda de la Parra,312269517,2020-02-22 22:51:41,D.F,city,"Cuauhtmoc, Distrito Federal",Mxico
200,30.680889,36.89007,Ercment AKSOY,312269599,2020-02-14 15:56:52,"Antalya, Trkiye",city,"Antalya, Trkiye",Trkiye
193,101.093052,13.639178,GEMINI GIRL  ,3122696166,2020-03-14 11:20:48,Aynapnaeur,poi,Boss Thai & Seafood Restaurant,
14460,-71.11081999999998,42.424952000000005,morgs,312269741,2020-02-17 23:09:33,,city,"Medford, MA",United States
88,138.8624695,35.288426,KIRAsan@KiLa Ri,3122697626,2020-04-04 23:42:51, ,city, ,
17140,-84.581599,39.2458695,Jonathan Fairbanks,312269799,2020-04-14 00:07:14,"Cincinnati, OH",city,"Northbrook, OH",United States
205,-2.915427,53.4198785,Christine Derby,312269926,2020-05-20 23:18:14,Liverpool,city,"Liverpool, England",United Kingdom
21,-43.5243665,-22.696528,Rogeriaandrade,3122699451,2020-04-02 20:16:36,,city,"Nova Iguau, Brasil",Brasil
186,-8.422813000000001,43.345661,Jorge Alvarez,312270031,2020-02-14 15:29:29,La Corua,city,"A Corua, Espaa",Espaa
222,112.7247065,-7.275803, ,3122700878,2020-05-25 12:58:22,INDONESIA,city,"Sawahan, Indonesia",Indonesia
36220,-102.470691,31.845178999999998,Brandon v,312270303,2020-02-18 11:42:45,,city,"West Odessa, TX",United States
21340,-106.4174305,31.793368,Brandon v,312270303,2020-03-08 23:05:07,,city,"El Paso, TX",United States
36220,-102.344087,31.8738385,Brandon v,312270303,2020-03-25 04:38:56,,city,"Odessa, TX",United States
21340,-106.4174305,31.793368,Brandon v,312270303,2020-05-16 16:51:47,,city,"El Paso, TX",United States
34020,-91.32114,29.6999645,mar,312270566,2020-03-05 06:25:05,"Patterson, LA",city,"Patterson, LA",United States
164,-9.4016045,39.381835,e,3122706383,2020-04-25 00:51:20,Rio Maior | CDR | CSL,city,"Peniche, Portugal",Portugal
8,-64.1980255,-31.4154565,,3122706669,2020-05-15 00:08:57,"Crdoba, Argentina",city,"Crdoba, Argentina",Argentina
33,-71.51564599999999,-33.0263575,cristian elgueta q,3122707769,2020-03-01 20:08:35,,city,"Via del Mar, Chile",Chile
21,-35.010471,-7.095521499999999,Ivan Bonito#GOFIMO,3122707871,2020-02-15 00:42:29,"Santa Rita, Paraba, Brasil",city,"Santa Rita, Brasil",Brasil
222,106.7648215,-6.115696,Adhitia Anwar Febrianto,3122710580,2020-02-20 17:07:56,Wonogiri,city,"Penjaringan, Indonesia",Indonesia
40380,-77.94353100000002,43.209482,NiCk PaGs,3122710901,2020-03-11 04:04:35,"Liverpool, NY",city,"Brockport, NY",United States
45060,-76.221104,43.1630775,NiCk PaGs,3122710901,2020-04-15 22:11:52,"Liverpool, NY",city,"Clay, NY",United States
186,-3.967403,40.486159,carmelopradas,312271159,2020-02-14 17:44:54,"Villanueva del Pardillo, Espa",city,"Villanueva del Pardillo, Espaa",Espaa
137,7.424291999999999,43.73834700000001,Adrien Monfray,312271178,2020-04-08 07:19:25,"Grenoble, France",city,Monaco,Monaco
44700,-121.2452155,37.9306695,  ,3122712637,2020-02-14 21:02:16,california,city,"Kennedy, CA",United States
33700,-120.98746799999999,37.663817,  ,3122712637,2020-02-17 19:28:10,california,city,"Modesto, CA",United States
44700,-121.2452155,37.9306695,  ,3122712637,2020-02-18 03:39:02,california,city,"Kennedy, CA",United States
33700,-120.98746799999999,37.663817,  ,3122712637,2020-02-19 16:17:49,california,city,"Modesto, CA",United States
44700,-121.2452155,37.9306695,  ,3122712637,2020-02-20 07:21:20,california,city,"Kennedy, CA",United States
41860,-122.136082,37.467999,  ,3122712637,2020-04-15 18:38:38,california,city,"East Palo Alto, CA",United States
44700,-121.2452155,37.9306695,  ,3122712637,2020-04-28 07:16:13,california,city,"Kennedy, CA",United States
41860,-122.136082,37.467999,  ,3122712637,2020-05-06 01:20:21,california,city,"East Palo Alto, CA",United States
44700,-121.2452155,37.9306695,  ,3122712637,2020-05-13 19:34:32,california,city,"Kennedy, CA",United States
41860,-122.36241399999999,37.948843,  ,3122712637,2020-05-19 20:09:02,california,city,"Richmond, CA",United States
44700,-121.2452155,37.9306695,  ,3122712637,2020-05-20 03:10:24,california,city,"Kennedy, CA",United States
41860,-122.2286855,37.791994,  ,3122712637,2020-06-10 00:19:35,california,city,"Oakland, CA",United States
