currentGEOID,lon,lat,name,author_Id,created_at,location,place_type,place_full_name,place_country
35620,-73.679959,41.41346950000001,Annika,711453,2020-04-17 20:35:52,Planet earth for now,city,"Carmel, NY",United States
171,123.846722,10.3748325,,711453022274977792,2020-04-19 05:05:15,sevi,city,"Cebu City, Central Visayas",Republic of the Philippines
38,-74.24367099999999,4.2622835,tess aibar,711453028,2020-04-11 15:32:26,,city,"Bogot, D.C., Colombia",Colombia
82,88.352242,22.6127055,Nitesh Singh,711453394095837184,2020-02-14 14:38:06,"Mumbai, India",city,", ",
173,30.328698,59.934148,.V,711453786909364225,2020-02-15 07:25:39,", ",city,"-, ",
38,-76.52123885,3.46513987,Ma. Betty,711454176128212993,2020-02-19 19:43:47,"Cali, Colombia",city,"Palmira, Colombia",Colombia
41700,-98.47985486,29.442735100000004,Pablo Cantu,711454471,2020-02-15 00:28:51,Hawaii San Antonio,city,"San Antonio, TX",United States
24,-66.8833,47.9833,Pablo Cantu,711454471,2020-02-24 00:25:34,Hawaii San Antonio,city,"Addington, New Brunswick",Canada
41700,-98.5406515,29.417501,Pablo Cantu,711454471,2020-02-25 14:42:54,Hawaii San Antonio,city,"San Antonio, TX",United States
12420,-97.7475,30.2677,Pablo Cantu,711454471,2020-05-30 19:14:26,Hawaii San Antonio,city,"Austin, TX",United States
41700,-98.4875821,29.427198100000002,Pablo Cantu,711454471,2020-06-02 00:02:25,Hawaii San Antonio,city,"San Antonio, TX",United States
82,79.498897,27.399743,Rakesh Kumar Sagar,711454583780827136,2020-06-05 18:29:20,,city,"Farrukhabad-Fatehgarh, India",India
48,-70.75202349999999,19.4558675, Th3 Bss f Bitch,711454777,2020-06-09 06:41:18,"Santiago, Dominican Republic",city,"Santiago, Dominican Republic",Dominican Republic
26420,-95.538134,30.337514000000002,Juan Mata,71145481,2020-04-25 19:53:50,"Houston, TX ",city,"Conroe, TX",United States
31080,-117.92298899999999,33.813904,Sophie,711454911,2020-03-12 17:22:41,,poi,Star Wars: Galaxy's Edge,United States
171,120.93235,15.736063,  NERWIN,711455504891940864,2020-03-03 10:47:41,Bulacan  Nueva Ecija,poi,CLSU,Republic of the Philippines
21,-49.261299,-16.642782500000003,A gacha das anca grande,711456134,2020-02-14 02:39:37,Goinia,city,"Goinia, Brazil",Brazil
161,74.3584865,31.5318195,WamiQa Hassan,711456261074788352,2020-02-24 07:40:34,"Lahore, Pakistan",city,"Lahore, Pakistan",Pakistan
31080,-117.913343,34.104738,sweetheart,711456492713582592,2020-02-14 19:08:35,,poi,Gladstone High School,United States
8,-62.09394449999999,-31.422969,Sportivo Belgrano,711456601,2020-02-14 13:36:34,San Francisco,city,"San Justo, Argentina",Argentina
23540,-82.375086,29.625996999999998,daneshka,711456816,2020-02-16 02:45:05,"Summerfield, FL",poi,Cheesecake Factory,United States
36740,-81.3677725,28.5016785,daneshka,711456816,2020-04-14 12:58:40,"Summerfield, FL",city,"Orlando, FL",United States
41980,-66.393911,18.4369105,daneshka,711456816,2020-06-01 03:07:07,"Summerfield, FL",city,"Vega Baja, Puerto Rico",United States
82,81.2821455,24.5377175,Pravin Kumar Dubey,711456860486762496,2020-03-28 15:37:31,,city,"Rewa, India",India
46620,-100.010248,29.668948999999998,Dakota New,711456889,2020-03-30 00:17:33,"Stephenville, TX",poi,Campwood Texas,United States
44500,-98.219125,32.21631,Dakota New,711456889,2020-04-17 13:38:16,"Stephenville, TX",city,"Stephenville, TX",United States
24,-79.27256949999999,43.629311,Scott Rairdan,71145719,2020-02-25 15:54:31,"Toronto, Ontario",city,"Toronto, Ontario",Canada
21,-43.441578,-22.911421500000003,EXAUSTA,711457513,2020-02-14 08:54:58,"Rio de Janeiro ,Guaratiba",city,"Rio de Janeiro, Brasil",Brasil
120,100.40345,5.380142,you,711459157413474304,2020-04-27 00:36:10,"Kulim, Kedah",poi,Tanah Perkuburan Islam Seberang Jaya,Malaysia
88,131.505608,32.2095975,,711459418815070208,2020-04-14 09:09:18,,city,"Kawaminami-cho, Miyazaki",Japan
134,-4.495979,54.161704500000006,Social Jungle,711459551682433024,2020-02-19 14:09:40,,city,"Douglas, Isle of Man",Isle of Man
205,-2.334905,50.825034,Social Jungle,711459551682433024,2020-02-29 07:27:07,,city,"Melcombe Bingham, England",United Kingdom
134,-4.388893,54.3240645,Social Jungle,711459551682433024,2020-03-07 07:47:13,,city,"Ramsey, Isle of Man",Isle of Man
65,2.3191509999999997,48.874395,sasori,711459620359950336,2020-05-10 00:26:26,Village cach de konoha,poi,La Redoute,France
193,100.735185,13.671439000000001,B.Bitch,711459936450977792,2020-04-27 02:53:59,,city,", ",
200,32.841937,40.000465999999996,Alaattin Tankir,711460221,2020-05-12 21:03:58,,city,"Keiren, Trkiye",Trkiye
175,49.6276765,25.458642, ,711460245931958272,2020-06-03 20:40:22,",   ",city,",   ",  
41860,-122.43597849999999,37.7706565,"Go, Cat, Go!",711460351,2020-04-28 22:22:03,San Francisco,city,"San Francisco, CA",United States
96,47.93799350000001,29.28411,.   ,711460608,2020-02-20 22:02:36,,city,",  ", 
225,55.131761,25.076857999999998,.   ,711460608,2020-02-25 17:53:40,,poi,The Walk at JBR /    ,  
120,101.769304,2.802444,Ryzall,711460644,2020-03-09 02:21:09,"Tampin, Negeri sembilan",poi,Taman Desa Chempaka,Malaysia
88,127.896051,26.3458325,shintaro,711460837051879424,2020-02-15 07:39:06, ,city,"Uruma-shi, Okinawa",Japan
80,19.129828,47.4812305,Cathal OSullivan,711460864,2020-02-21 21:04:29,"Portlaoise, Ireland",city,"Budapest, Hungary",Hungary
82,77.32308499999999,28.407619,Sajal Chauhan,71146094,2020-03-28 17:18:13,Delhi/NCR,poi,Faridabad Sec 16,India
205,-1.9992590000000001,52.596259499999995,Alistair Rowland,711461033,2020-03-11 17:48:35,"Walsall, England",city,"Walsall, England",United Kingdom
8,-58.49501653,-34.50312392,Lara,711461894,2020-02-16 22:52:24,,city,"Vicente Lpez, Argentina",Argentina
42200,-119.8550785,34.421639,La Lz,711461937146531840,2020-02-26 22:48:46,UCSB,city,"Isla Vista, CA",United States
31080,-118.1361935,34.1938085,La Lz,711461937146531840,2020-03-24 23:00:30,UCSB,city,"Altadena, CA",United States
82,88.352242,22.6127055,Sebananda Roy,711462729370836992,2020-02-20 10:25:07,"Kolkata, India",city,"Kolkata, India",India
171,120.35375049999999,16.608753,elyyyyy ,711463012037582848,2020-04-20 16:58:18,"San Fernando City, Ilocos Region",city,"San Fernando City, Ilocos Region",Republic of the Philippines
175,39.2541285,21.5857105,_ ' 3,711463178,2020-02-16 12:15:39,  ,city,",   ",  
88,139.69262600000002,35.666851,,711463541719441408,2020-02-15 09:21:23,132-0025  5-10-2,city, ,
35980,-72.10271800000002,41.5492885,Christina Scanlon,711463561,2020-05-29 05:48:28,"Norwich, Connecticut",city,"Norwich, CT",United States
88,139.0219315,34.824064,,711463643167109120,2020-02-16 03:54:49,,city,"Higashiizu-cho, Shizuoka",Japan
21,-48.4914895,-27.1655635,Brenda Zanella,71146382,2020-06-03 12:10:15,"Bombinhas, Brasil",city,"Bombinhas, Brasil",Brazil
21,-46.5955455,-23.682803,Sergio R. Hindley,711463975,2020-03-31 12:43:13,Brasil,city,"So Paulo, Brasil",Brasil
35620,-73.8311875,40.6708795,,71146398,2020-03-06 21:15:24,"Queens, NY",city,"Queens, NY",United States
205,-0.33706250000000004,51.595833,BHASKAR YOGI,711463986064023553,2020-04-08 13:35:31,"Har Ki Puri Haridwar, Haridwar",city,"Harrow, London",United Kingdom
205,-0.8477889999999999,53.092388,Kyle doney,711464120915255297,2020-03-08 11:12:07,"Daventry, England",poi,Kelham Hall,United Kingdom
28140,-94.3783325,39.0880045,Harry Dorman,711464323,2020-04-16 15:05:37,,city,"Independence, MO",United States
88,139.58203650000002,35.906065999999996,shoheiyokoyama,711464989953884160,2020-05-28 12:12:59,,city,  ,
19820,-83.1480435,42.579003,Tiffany Marshall,71146500,2020-02-23 03:36:46,,city,"Troy, MI",United States
38,-74.24367099999999,4.2622835,kaliche,71146514,2020-02-19 09:54:55,"bogota, colombia",city,"Bogot, D.C., Colombia",Colombia
171,123.0001315,10.652827,Maitee V.,711465354686377984,2020-02-26 15:07:33,"Bacolod City, Western Visayas",city,"Bacolod City, Western Visayas",Republic of the Philippines
21,-49.3591675,-20.784981,Pedro A Natal,711465611356971008,2020-02-18 12:55:19,,city,"So Jos do Rio Preto, Brasil",Brasil
222,110.4050255,-7.712573,Lix.,711465627014180864,2020-02-14 00:54:43,"Sleman, Indonesia",city,"Ngaglik, Indonesia",Indonesia
88,139.61760099999998,35.586851,@,711465630130528257,2020-02-14 07:17:36,  ,city,  ,
82,73.9812235,17.645493000000005,Prathmesh Thombre,711465784849997824,2020-04-03 12:27:43,"Satara, Maharashtra ",city,"Satara, India",India
222,101.520524,0.5351575,Nirwandi Mora,711465882715865088,2020-03-14 15:24:40,,city,"Bukit Raya, Indonesia",Indonesia
26420,-95.4464865,29.838495,Ashley / Lover Fest East & West/ Swiftish Podcast,711466117,2020-02-14 16:29:21,"Houston, TX",city,"Houston, TX",United States
12420,-97.688146,29.878922999999997,Ashley / Lover Fest East & West/ Swiftish Podcast,711466117,2020-05-25 17:23:14,"Houston, TX",city,"Lockhart, TX",United States
26420,-95.4464865,29.838495,Ashley / Lover Fest East & West/ Swiftish Podcast,711466117,2020-06-01 04:17:45,"Houston, TX",city,"Houston, TX",United States
15380,-79.008801,43.101794,Paul Korom,711466476,2020-02-16 13:30:06,,city,"Niagara Falls, NY",United States
49660,-80.65759299999998,41.01594,Paul Korom,711466476,2020-02-19 16:11:59,,city,"Boardman, OH",United States
17460,-82.21399749999999,41.292714,Paul Korom,711466476,2020-05-06 11:32:34,,city,"Oberlin, OH",United States
49660,-80.7517875,41.037097499999994,Paul Korom,711466476,2020-05-24 02:38:34,,city,"Canfield, OH",United States
128,4.444806,51.454842,Scheurijzer2910,711466589711949824,2020-04-06 18:36:45,"Essen, Belgi",poi,Proxy Delhaize,Belgi
88,129.955018,33.447796999999994,,711466673513967616,2020-04-28 22:12:00,,city, ,
242,121.55686000000001,25.039606, Wolfken,711466757878210566,2020-03-16 03:22:59,Taiwan,poi,Sugar Miss,
71,13.339398000000001,52.508869,Wolfken@Taiwan,711466757878210566,2020-05-24 14:00:04,Taiwan,poi,Zoologischer Garten Berlin,Deutschland
242,120.9558625,24.2208365,Wolfken@Taiwan,711466757878210566,2020-05-26 00:25:20,Taiwan,city,", ",
29820,-115.13337299999999,36.24912449999999,Tarina Hartley,71146678,2020-03-16 05:29:50,"Las Vegas, NV",city,"North Las Vegas, NV",United States
15380,-78.85356300000002,42.8962295,Michael Slepian,71146708,2020-03-16 13:14:33,,city,"Buffalo, NY",United States
88,135.47464399999998,34.777811,,711467217267740673,2020-04-13 11:01:36, ,city,"Toyonaka-shi, Osaka",Japan
24,-79.24088,43.16021,Pride Niagara,711467744,2020-02-18 03:37:08,Niagara Region,city,"St. Catharines, Ontario",Canada
193,100.5119595,13.748743, o o h  ,71146790,2020-06-03 10:56:12,BKK,city,"Wat Thep Sirin, Thailand",Thailand
88,133.87482699999998,34.3468425,achan,711468067268595712,2020-04-24 09:16:27,,city,"Sakaide-shi, Kagawa",Japan
119,-99.310428,19.473794,Arq.Vernica Garcia,71146808,2020-03-26 01:20:26,Mxico,city,"Naucalpan de Jurez, Mxico",Mxico
45300,-82.7011465,28.1095625,Tixketja,711468414,2020-02-14 21:14:42,Florida,city,"East Lake, FL",United States
38,-73.46328600000002,10.324450500000001,Hb ,711468729222217728,2020-03-22 01:51:47,"Valledupar, Colombia",city,"Valledupar, Colombia",Colombia
39900,-119.82718200000001,39.512436,lizzie ,711468804,2020-02-24 18:03:30,"Las Vegas, NV",city,"Reno, NV",United States
29820,-115.223125,36.232915000000006,lizzie ,711468804,2020-03-21 19:53:07,"Las Vegas, NV",city,"Las Vegas, NV",United States
191,9.876800999999999,46.869325,dudi2607,711468826366443520,2020-02-16 13:44:35,,poi,Madrisa,Switzerland
205,-2.5853900000000003,51.457877,Paul Sargent,711469394652733440,2020-05-11 05:45:14,"Bristol, England",city,"Bristol, England",United Kingdom
14460,-71.0887125,42.3136695,Alicea Riley,711469446,2020-03-22 22:04:41,Tucson,city,"Boston, MA",United States
205,-1.724596,54.988777,Brian Armstrong,711469486457622528,2020-02-15 22:51:53,"Brunswick Village, England",city,"Newburn, England",United Kingdom
242,121.23213999999999,24.854815,,711469504744726528,2020-04-09 16:27:59,", ",city,", ",
88,136.907872,35.167362,,711469509496844290,2020-03-21 12:19:14,,poi,NAGOYA BOX CAFE&SPACE,
164,-8.8,40.31666667,Luis Duarte,711469858,2020-02-23 17:50:07,Coimbra,city,"Cantanhede, Portugal",Portugal
37980,-75.22838250000002,40.186814,Anthony Lloyd,711470064,2020-06-04 23:47:15,"Lower Gwynedd, PA",city,"Spring House, PA",United States
65,-1.6838190000000002,47.275031,fourre christophe,711470081,2020-03-16 14:45:02,"Loire-Atlantique, Pays de la L",city,"Sautron, France",France
8,-58.02424499999999,-34.890239,M. Gisele Orio Daz,711470090,2020-03-04 18:00:07,"La Plata, Argentina",city,"La Plata, Argentina",Argentina
161,72.046265,34.198,Asad Ali,71147032,2020-04-14 15:19:22,Peshawar,city,"Mardan, Pakistan",Pakistan
120,101.519374,3.072641,Ahn AhRa,711470631984848896,2020-02-16 12:15:35,,city,"Petaling Jaya, Selangor",Malaysia
200,28.79015,40.99307,kokoreccinafizusta,711470699014127616,2020-02-14 12:25:32,"Kkekmece, stanbul",city,"stanbul, Trkiye",Trkiye
82,80.045128,13.121379,Pratheep DMK,711470851766366209,2020-05-07 10:10:25,Nemelicheri,city,"Thirunindravur, India",India
222,107.03782700000001,-6.247207,Adang,711471166943178752,2020-02-25 03:32:44,Bekasi betawi ,poi,Taman Setia Mekar,Indonesia
9,150.931975,-33.848244,Scourge(wo)man ne Spokes(wo)man ,711471486419120129,2020-02-14 06:46:35,Australia New Scourge Wales ,city,"Sydney, New South Wales",Australia
10580,-73.60221,42.6480205,Rob Ducharme,711471524,2020-03-05 23:14:55,"West Sand Lake, NY",city,"West Sand Lake, NY",United States
44140,-72.672722,42.332127500000006,Rob Ducharme,711471524,2020-04-11 18:50:58,"West Sand Lake, NY",city,"Northampton, MA",United States
10580,-73.60221,42.6480205,Rob Ducharme,711471524,2020-05-02 14:08:50,"West Sand Lake, NY",city,"West Sand Lake, NY",United States
33,-70.728172,-33.6395845,Miguel Pavez Donoso,711471535,2020-04-10 02:26:16,"San Bernardo, Chile",city,"San Bernardo, Chile",Chile
88,139.73951449999998,35.56689400000001,(^o^),71147168,2020-03-26 08:55:39,,city, ,
88,130.57243899999997,33.3958195,shk,711472086686957568,2020-02-28 08:46:03,,city,"Ogori-shi, Fukuoka",Japan
175,39.2541285,21.5857105,Husain-Aldowsari,711472087,2020-02-21 00:52:53,,city,",   ",  
40140,-117.58565800000001,33.859093,NessaMe,711472644,2020-03-24 00:35:56,,city,"Corona, CA",United States
3,49.958176,40.406088000000004,Kanan Mikhailov,711473289558941696,2020-02-28 03:41:34,Vasmoy,poi,Mhlmiz,Azerbaijan
88,127.76795200000001,26.244172999999996, ,711473446127964160,2020-05-11 08:40:52,,poi,HAIR AND NAIL SILLY,Japan
200,29.1467765,41.0078515,lizar,711473634,2020-03-21 18:21:31,Trkiye,neighborhood,"Yukar Dudullu, stanbul",Trkiye
8,-60.674902,-31.6191365,,711473652,2020-05-07 00:34:12,"Santa F, Argentina",city,"Santa F, Argentina",Argentina
88,140.731558,38.3456355, ,711474397,2020-04-25 09:45:56,,city, ,
9,140.78073500000002,-37.823456,Bridget Herrmann,711474587062521856,2020-02-24 07:47:40,"Adelaide, South Australia",city,"Mount Gambier, South Australia",Australia
82,88.352242,22.6127055,rituparna poddar,711474921646391296,2020-04-08 11:07:28,"Kolkata, India",city,"Kolkata, India",India
173,60.613638,56.815532999999995,Nata__Nata__,711474922778972160,2020-04-05 12:48:08,,city,", ",
32580,-98.14361,26.199082500000003,Victoria Lyn,71147504,2020-04-05 03:28:16,TEXAS,city,"San Juan, TX",United States
15180,-97.168476,26.1147355,Victoria Lyn,71147504,2020-05-30 14:09:51,TEXAS,city,"South Padre Island, TX",United States
32580,-98.14361,26.199082500000003,Victoria Lyn,71147504,2020-06-10 03:43:45,TEXAS,city,"San Juan, TX",United States
35620,-73.95887990000001,40.71891,Smoochie Baby,71147517,2020-03-17 13:02:41,"Brooklyn, NY",city,"Brooklyn, NY",United States
88,136.883708,35.161859,Kazuma,71147518,2020-04-25 08:12:19,"Aichi,Japan",poi, ,Japan
88,141.5404928,43.09997511,  ,711475315831214081,2020-02-15 01:25:09,,city,"Ebetsu-shi, Hokkaido",Japan
120,116.1405425,5.9882775000000015,,711475399,2020-02-17 13:38:24,Malaysia,city,"Kota Kinabalu, Sabah",Malaysia
88,130.61686550000002,32.619996,natural split,711475412505747457,2020-02-14 07:58:16,,city, ,
82,72.87424399999999,19.174139999999998,ACC TRUST,711475764051505152,2020-02-14 09:07:50,"Mumbai, India",city,"Mumbai, India",India
88,136.46190487,34.61285435,,711475783517143040,2020-02-15 00:04:36,,city, ,
205,-5.883101,54.5667035,Brian Hamilton,711475954040872960,2020-02-15 00:00:13,"Belfast, Northern Ireland",city,"Castlereagh, Northern Ireland",United Kingdom
88,139.5553615,35.78968000000001,,711476018297503745,2020-05-06 22:59:15, ,city,"Niiza-shi, Saitama",Japan
222,109.7120064,-7.3163099,Anonim,711476023326408704,2020-03-04 15:45:59,,city,"Banjarmangu, Indonesia",Indonesia
175,39.8016865,21.389833000000007,Fouad Abdulghani,711476129,2020-02-27 08:26:45,,city," ,   ",  
175,46.685077,24.7219435,mousa1973,711476162560712704,2020-03-13 21:24:18,,city,",   ",  
205,-1.8950105,50.795434,Steve Randall,711476422,2020-02-14 07:05:10,Bournemouth ,city,"Ferndown, England",United Kingdom
37980,-75.1651,39.9527,The Missing Frets,711476548134707200,2020-02-25 13:46:29,"King of Prussia, PA",city,"Philadelphia, PA",United States
12580,-76.06444444,39.04611111,The Missing Frets,711476548134707200,2020-03-18 12:58:01,"King of Prussia, PA",city,"Centreville, MD",United States
37980,-75.1651,39.9527,The Missing Frets,711476548134707200,2020-03-19 13:08:37,"King of Prussia, PA",city,"Philadelphia, PA",United States
12580,-76.06444444,39.04611111,The Missing Frets,711476548134707200,2020-03-20 14:29:05,"King of Prussia, PA",city,"Centreville, MD",United States
37980,-75.1651,39.9527,The Missing Frets,711476548134707200,2020-03-22 16:41:26,"King of Prussia, PA",city,"Philadelphia, PA",United States
12580,-76.06444444,39.04611111,The Missing Frets,711476548134707200,2020-05-29 11:56:40,"King of Prussia, PA",city,"Centreville, MD",United States
37980,-75.2958,39.9292,The Missing Frets,711476548134707200,2020-06-03 16:30:17,"King of Prussia, PA",city,"Clifton Heights, PA",United States
41860,-121.91443,37.821165,Cali kid,711476605651058688,2020-02-14 10:58:05,"Blackhawk, CA",city,"Blackhawk, CA",United States
20940,-115.5480365,32.774584499999996,Jonathan Medina,711477007721172993,2020-02-20 05:10:39,"El Centro, CA",city,"El Centro, CA",United States
193,98.3506365,7.8445684999999985,,711477319177793536,2020-02-20 05:15:41,"., .",city,"Chalong, Thailand",Thailand
96,47.959307,29.340185499999997,mimi,711477454,2020-05-06 22:30:01, ,city,",  ", 
85,17.2943415,40.460957,Zanzibar,711477510,2020-02-29 20:02:16,"Taranto, Puglia",city,"Taranto, Puglia",Italia
205,-0.44236099999999995,51.537061,Tim Harris,711477610,2020-03-01 20:19:17,"West Drayton,  west London",city,"Hillingdon, London",United Kingdom
16980,-87.732013,41.8335845,YORTney ,71147818,2020-02-14 02:33:06,EPATXCHI,city,"Chicago, IL",United States
222,110.4087895,-7.7676955,Fubar,711478218398830594,2020-02-16 14:05:49,"Yogyakarta, Indonesia",city,"Depok, Indonesia",Indonesia
21,-46.5955455,-23.682803,Susan Ximenes,71147865,2020-03-02 19:35:22,So Paulo,city,"So Paulo, Brasil",Brasil
8,-58.5641745,-34.544659,shenoo de inseguridades,711478742,2020-02-14 01:12:04,"Buenos Aires, Argentina",city,"Ciudad del Libertador General San Martn, Argentina",Argentina
41860,-121.99864450000001,37.973327000000005,DustInTheWind ,711478914875396096,2020-02-14 01:26:58,"Los Angeles, CA",city,"Concord, CA",United States
31080,-118.4119065,34.0207895,DustInTheWind ,711478914875396096,2020-02-18 02:23:17,"Los Angeles, CA",city,"Los Angeles, CA",United States
40140,-117.1195165,33.501021,DustInTheWind ,711478914875396096,2020-06-07 05:34:39,"Los Angeles, CA",city,"Temecula, CA",United States
31080,-118.4119065,34.0207895,DustInTheWind ,711478914875396096,2020-06-07 13:05:11,"Los Angeles, CA",city,"Los Angeles, CA",United States
200,29.739913,40.526221,engincan4k,711479159,2020-03-26 23:20:18,boLuktaym,poi,Tacir Ky Meydan,Trkiye
88,139.4224145,35.74964350000001,,711479544272670720,2020-06-10 15:38:28,,city,"Higashiyamato-shi, Tokyo",Japan
205,-2.5853900000000003,51.457877,Bob,711479601,2020-02-16 11:00:56,"Bristol , England",city,"Bristol, England",United Kingdom
88,140.354965,38.247776,,711480091864203264,2020-04-28 04:19:40, ,city,"Yamagata-shi, Yamagata",Japan
171,121.03131,14.407882999999998,,711480120146399232,2020-02-14 12:43:01,,city,"Muntinlupa City, National Capital Region",Republic of the Philippines
88,139.69649809999999,35.69982535,R,711480227323510784,2020-03-10 01:30:57,,city,"Shinjuku-ku, Tokyo",Japan
82,88.352242,22.6127055,Pranil Acharya,711480254729072641,2020-03-19 07:24:22,"Shyampur,Budge Budge,Kolkata",city,"Kolkata, India",India
37980,-75.117998,40.0048655, ,711480324,2020-03-09 00:05:12,"Riyadh, Kingdom of Saudi Arabia",city,"Philadelphia, PA",United States
222,107.11378799999999,-6.242402500000002,Devi Novita Sari,711480424678076416,2020-02-15 06:07:47,"Cikarang, Indonesia",city,"Cibitung, Indonesia",Indonesia
88,139.098411,37.865369,,711480476700008448,2020-04-23 05:07:31,,city,"Niigata-shi Konan-ku, Niigata",Japan
88,139.69262600000002,35.666851,,71148055,2020-02-21 10:09:44,"Tokyo,Japan",city, ,
222,106.8656125,-6.160423000000001,gW baNGet,71148076,2020-02-20 01:24:43,,city,"Kemayoran, Indonesia",Indonesia
205,-4.2417515,55.85830249999999,Shirley,7114812,2020-02-24 14:05:55,Scotland,city,"Glasgow, Scotland",United Kingdom
222,101.1435735,0.2555325,Rahma Nur Hidayah,711481333537644544,2020-04-09 11:27:28,"Bangkinang, Indonesia",city,"Bangkinang, Indonesia",Indonesia
161,67.09209200000001,24.896285,Ibrahim Anwer Baig,711481475900776448,2020-02-21 08:23:28,"Karachi, Pakistan",poi,National Cricket Stadium,Pakistan
119,-99.139228,19.356339000000002,Fernanda Quiroz,71148167,2020-03-06 20:19:21,Mxico D.F.,poi,Teatro de las Artes,Mexico
36500,-122.92351599999999,47.064528,Exit Puzzles,711481877287186432,2020-02-14 00:23:01,"Olympia, WA ",city,"Olympia, WA",United States
88,139.02325050000002,36.5202655,TKZ,711481911319728128,2020-04-26 11:13:51,Exegol,city,"Shibukawa-shi, Gunma",Japan
14460,-71.0565,42.3577,COVELLE & COMPANY Real Estate,71148198,2020-02-16 21:20:33,"Boston, MA",city,"Boston, MA",United States
49340,-71.83643000000001,42.33783,COVELLE & COMPANY Real Estate,71148198,2020-03-31 22:02:49,"Boston, MA",city,"Holden, MA",United States
14460,-71.1558,42.416000000000004,COVELLE & COMPANY Real Estate,71148198,2020-04-07 23:05:36,"Boston, MA",city,"Arlington, MA",United States
8,-68.54444444,-31.53177778,Sandra Di Rocco,711482072,2020-02-21 01:06:38,"San Juan, Argentina",city,"San Juan, Argentina",Argentina
39660,-103.45396,43.876118,(  ),711482353881714688,2020-05-24 00:40:56,Bakugos house,poi,Mount Rushmore National Memorial,United States
33,-73.16689550000002,-39.8334805,Josue Silva,711482424,2020-04-11 02:09:52,"Valdivia, Chile",city,"Valdivia, Chile",Chile
151,3.5018455000000004,6.441530500000002,Eagle Global Markets,711482536157913088,2020-02-14 10:59:33,"Lagos, Nigeria",city,"Victoria Island, Nigeria",Nigeria
35620,-73.1152225,40.8305215,D U K E ,711482744,2020-05-02 02:55:33,"Fort Lauderdale, FL ",city,"Lake Ronkonkoma, NY",United States
151,5.2292464999999995,13.032478,#AmmaCULE,711482775,2020-05-03 10:25:52,"Kano, Nigeria",city,"Sokoto, Nigeria",Nigeria
26420,-95.4464865,29.838495,BreSkee ,711482786,2020-02-14 16:54:05,Bay Area  Houston,city,"Houston, TX",United States
19100,-96.7617535,32.819858499999995,BreSkee ,711482786,2020-03-10 23:28:34,Bay Area  Houston,city,"Dallas, TX",United States
26420,-95.4464865,29.838495,BreSkee ,711482786,2020-03-14 05:15:03,Bay Area  Houston,city,"Houston, TX",United States
88,132.589248,33.655078,@MCBB,711482826613338112,2020-03-26 08:27:39,,poi, (Shimonada Sta.),
2,5.6105599999999995,35.555,Ayoub Meguellati,711482829096361984,2020-03-19 23:56:03,Algiers                       ,city,"N'Gaous                                                                                             , Algeria",Algrie
88,139.77664,35.62968,P,711483547018600448,2020-03-15 07:45:27,,poi,ODAIBA,
193,98.636325,9.041261,,71148373,2020-02-15 01:03:49,"., .",poi,,Thailand
171,120.3465635,16.0624505,ashiannaol may hiro,711483752107499520,2020-06-11 11:20:46,'06,city,"Dagupan City, Ilocos Region",Republic of the Philippines
8,-58.56449,-34.4587225,Ro,711483978,2020-02-15 20:34:56,,city,"San Fernando, Argentina",Argentina
85,7.6777,45.0702,Alex Berenguer,711484172,2020-05-29 18:08:50,Baraain,city,"Turn, Piamonte",Italia
19100,-96.7617535,32.819858499999995,Rbeezy ,711484602,2020-02-15 04:35:31,,city,"Dallas, TX",United States
21,-34.8627,-7.1207,Camila Ribeiro,71148475,2020-06-02 21:50:06,Brasil,city,"Joo Pessoa, Brasil",Brasil
29820,-115.1678655,36.1075595,PHXNTOM,711484760,2020-05-30 06:21:51,"Las Vegas, NV",neighborhood,"The Las Vegas Strip, Paradise",United States
171,121.10293850000001,13.6820315,,711485012227457024,2020-03-20 01:23:48,,city,"Batangas City, Calabarzon",Republic of the Philippines
205,-3.2030084999999997,55.943195499999995,Cal,711485016392523777,2020-05-11 20:06:36,WN5,city,"Edinburgh, Scotland",United Kingdom
186,-1.1177955,37.916841,Miguel ngel,711485320,2020-02-24 21:36:17,"Murcia,Espaa",city,"Murcia, Espaa",Espaa
200,29.0052225,41.0213205,s_demirhan,711485615997652992,2020-03-20 06:04:00,,city,"stanbul, Trkiye",Trkiye
186,2.270074,41.626616,Rosendo,711485864086511616,2020-05-11 04:44:16,"Canovelles, Espaa",city,"Canovelles, Espaa",Espaa
205,-2.378432,53.751716,Chris Heyes,711486002695704576,2020-03-13 07:00:20,"North West, England",city,"Accrington, England",United Kingdom
205,-1.4929649999999999,53.384928,Ghader,711486216634552320,2020-04-15 15:18:44,United Kingdom,poi,Crookes Valley Park,United Kingdom
82,88.3697,22.5697,PABITRA MONDAL,711486231033450496,2020-03-25 08:24:49,West Bengal hatisala,city,"Kolkata, India",India
19100,-97.2859135,32.7799665,Frank Anguiano,711486350,2020-02-14 04:57:51,Fort Worth and Lubbock.,city,"Fort Worth, TX",United States
31180,-101.897173,33.5705265,Frank Anguiano,711486350,2020-02-20 16:56:45,Fort Worth and Lubbock.,city,"Lubbock, TX",United States
19100,-97.2859135,32.7799665,Frank Anguiano,711486350,2020-02-24 18:48:22,Fort Worth and Lubbock.,city,"Fort Worth, TX",United States
31180,-101.897173,33.5705265,Frank Anguiano,711486350,2020-03-06 19:45:26,Fort Worth and Lubbock.,city,"Lubbock, TX",United States
19100,-97.1742045,32.8467245,Frank Anguiano,711486350,2020-03-08 17:38:29,Fort Worth and Lubbock.,city,"Hurst, TX",United States
31180,-101.897173,33.5705265,Frank Anguiano,711486350,2020-05-06 02:26:48,Fort Worth and Lubbock.,city,"Lubbock, TX",United States
19100,-97.2859135,32.7799665,Frank Anguiano,711486350,2020-05-11 02:49:55,Fort Worth and Lubbock.,city,"Fort Worth, TX",United States
31180,-101.897173,33.5705265,Frank Anguiano,711486350,2020-05-14 16:34:16,Fort Worth and Lubbock.,city,"Lubbock, TX",United States
19100,-97.35412273,32.70924407,Frank Anguiano,711486350,2020-05-20 22:44:13,Fort Worth and Lubbock.,city,"Fort Worth, TX",United States
31180,-101.897173,33.5705265,Frank Anguiano,711486350,2020-05-21 19:30:22,West Texas ,city,"Lubbock, TX",United States
11060,-99.7435779,34.28511633,Frank Anguiano,711486350,2020-06-01 18:24:01,West Texas ,city,"Quanah, TX",United States
31180,-101.897173,33.5705265,Frank Anguiano,711486350,2020-06-02 03:12:04,West Texas ,city,"Lubbock, TX",United States
50,29.902821999999997,31.200784999999996,Ahmed Belal,71148647,2020-02-23 18:39:37,Alexandria-Egypt,poi,Cathedral of Copts Catholic Alexandria,Egypt
65,2.347003,48.8588335,Darren Goebel,71148682,2020-02-29 21:48:09,"T: 44.763535,-85.520394",city,"Paris, France",France
21780,-87.5746905,38.003466499999995,Darren Goebel,71148682,2020-05-21 00:02:47,"T: 44.763535,-85.520394",city,"Evansville, IN",United States
31080,-118.4119065,34.0207895,Muriah Reyes,711487098851713024,2020-03-18 18:17:47,"Upland, CA",city,"Los Angeles, CA",United States
40140,-117.661853,34.119646,Muriah Reyes,711487098851713024,2020-03-20 00:43:45,"Upland, CA",city,"Upland, CA",United States
31080,-117.896662,34.0471795,Muriah Reyes,711487098851713024,2020-04-13 22:25:27,"Upland, CA",city,"West Covina, CA",United States
40140,-117.661853,34.119646,Muriah Reyes,711487098851713024,2020-04-18 04:01:36,"Upland, CA",city,"Upland, CA",United States
205,-0.306996,51.4405145,Linda Hansell,711487176144527361,2020-05-31 10:23:58,Twickenham,city,"Richmond, London",United Kingdom
186,-3.9887785000000004,40.6488355,Dolce vita,711487244,2020-02-14 06:58:37,28400,city,"Collado Villalba, Espaa",Espaa
120,102.71919477,5.91558321,Ahmet Alkan,711487343,2020-02-29 06:45:17,"England, United Kingdom",city,"Pulau Perhentian, Terengganu",Malaysia
200,28.66483171,41.07348851,Ahmet Alkan,711487343,2020-06-04 10:46:58,"England, United Kingdom",city,"stanbul, Trkiye",Trkiye
85,9.8610545,46.18477,72,711487355,2020-02-14 06:34:19,Sondrio Valtellina Land ,city,"Sondrio, Lombardia",Italia
38,-74.24367099999999,4.2622835,Daniel Garzon,711487411,2020-02-14 01:05:06,Bogota,city,"Bogot, D.C., Colombia",Colombia
88,135.76510416,35.12863705,sohma_kawamura,711487457091461120,2020-02-18 11:38:45,,city, ,
27260,-81.404855,30.27988,CLB,711487641,2020-05-02 19:44:29,"Jacksonville, Fl",city,"Jacksonville Beach, FL",United States
85,10.46826,43.8587165,Matteo Rovai,711487712197525505,2020-02-14 09:02:46,"Lucca, Toscana",city,"Lucca, Toscana",Italia
222,112.737471,-7.294249000000001,Yunan 'Nick',711487712675532802,2020-02-16 19:38:56,"Surabaya, Indonesia",city,"Wonokromo, Indonesia",Indonesia
119,-99.15823,19.41751,El Rey Culinario,71148874,2020-03-10 20:59:39,Mxico,city,"Cuauhtmoc, Distrito Federal",Mexico
88,139.77,35.68,El Rey Culinario,71148874,2020-03-22 21:15:17,Mxico,city,"Chuo-ku, Tokyo",Japan
119,-99.1332,19.4326,El Rey Culinario,71148874,2020-05-29 18:49:05,Mxico,city,"Cuauhtmoc, Distrito Federal",Mexico
88,139.69733165,35.58097146,El Rey Culinario,71148874,2020-06-04 00:33:26,Mxico,city,"Ota-ku, Tokyo",Japan
88,139.7926315,35.90661400000001,@,711488818327658496,2020-02-14 11:54:20,,city, ,
171,121.05104471,14.54850506,Kuuya Kaze,711488935,2020-03-05 22:15:38,Republic of the Philippines,city,"Makati City, National Capital Region",Republic of the Philippines
88,139.7091805,35.701657,i,711489333157474304,2020-02-15 04:29:00,,city, ,
88,141.50051499999998,40.476677,TK,711489385728856066,2020-02-22 01:07:25, ,city,"Hachinohe-shi, Aomori",Japan
12420,-97.754724,30.3233455,Brandon Downer,71148939,2020-03-21 06:15:32,"Austin, TX / Fayetteville, AR",city,"Austin, TX",United States
82,75.630071,14.618446,Vinod J Chavan,711489795856277504,2020-03-18 05:41:26,"Basavakalyan, India Karnataka",city,"Ranebennur, India",India
96,48.056999999999995,29.256999999999998,Dr.Alaslawi,711489846,2020-04-11 17:44:20,Dubai,city,"Sabah Al Salem, Kuwait",Kuwait
200,28.865515000000002,40.993739,Gloria Jean's Coffees Trkiye,711490099,2020-04-10 16:51:59,Turkey,poi,Bakrky Dr. Sadi Konuk Eitim ve Aratrma Hastanesi,Trkiye
88,135.496902,34.703702, ,711490202292736000,2020-02-22 09:08:12,Instagram,poi,,Japan
171,121.1242275,14.606717499999998,Christopher Sanchez,711490222135975940,2020-02-25 11:10:39,"Cainta Rizal, Philippines",city,"Cainta, Calabarzon",Republic of the Philippines
33,-70.501087,-33.39602,La Msica No Se Mancha,71149043,2020-02-25 23:23:39,,poi,Estadio San Carlos de Apoquindo,Chile
28940,-84.144362,36.093824,Evan Winchester,711490717,2020-03-01 23:56:56,"Claxton, TN",poi,Clinton High School Gym,United States
200,34.580804,36.805240000000005,ICN,711490776488931328,2020-05-04 10:11:25,"Mersin, Trkiye",poi,Betl Fuatmorel,Trkiye
88,132.419552,34.394147499999995,,711490824920371200,2020-03-08 13:25:17,,city,  ,
34980,-86.791549,36.200008000000004,Leia Brown,711490867178164224,2020-03-02 17:25:43,"Nashville, TN",city,"Nashville, TN",United States
69,-0.1842935,5.6231985,Staph Gausu,711491269,2020-02-15 13:02:30,"accra, Ghana",city,"Accra, Ghana",Ghana
82,76.9485365,19.0118175,Shaikh gous,711491335,2020-02-17 07:20:54,palam,city,"Paalam, India",India
19740,-104.9220935,39.713563,Tas Lydianne ,711492124441575428,2020-02-14 18:11:09,"Denver, CO, USA ",city,"Denver, CO",United States
58,14.458522,50.010117,ruda.,711492295602905089,2020-03-08 14:17:34,Hlavn msto Praha,poi,Cirkus Cirkus Classic,esk republika
51,-9.0333065,51.903863,sean paul,711492425,2020-02-28 12:15:12,Ballyctton,city,"Cork, Ireland",Ireland
88,139.745379,35.652789,Kenn Ejima,711493,2020-02-28 13:43:44, USA |  Japan,city,"Minato-ku, Tokyo",Japan
171,121.1383,14.1977,amado encarnacion,711493561091371008,2020-03-01 07:20:18,calamba laguna,city,"Calamba City, Calabarzon",Republic of the Philippines
65,4.8805795,45.7011555,Lossa,711493638379991040,2020-03-07 12:34:57,,city,"Vnissieux, France",France
205,-2.1168695,53.54286550000001,Tracey Kall,711493887999791104,2020-03-08 21:33:48,"Oldham, England",city,"Oldham, England",United Kingdom
119,-87.0316645,21.048719000000002,El Burno,711494100,2020-04-07 05:55:13,,city,"Benito Jurez, Quintana Roo",Mexico
21,-51.211133000000004,-30.051659,:( nota de voz 8,711494101,2020-03-25 06:35:17,Brasil - Porto Alegre - Rs,poi,Way,Brasil
222,104.09808517,1.12263386,Marada Situmorang,711494227062951936,2020-02-19 12:02:03,Batam-Center,city,"Nongsa, Indonesia",Indonesia
119,-99.14298534,19.43264601,Alejandro Rocha,71149425,2020-05-01 03:52:22,"Len, Guanajuato",city,"Cuauhtmoc, Distrito Federal",Mxico
171,120.9304795,14.3994195,Bill Erestain,711494511868837890,2020-02-15 16:41:55,"National Capital Region, Repub",city,"Imus, Calabarzon",Republic of the Philippines
100,24.1286565,56.971492500000004,Raimonds Kokarevis,711494583,2020-02-21 06:32:51,Latvia,city,"Riga, Latvia",Latvia
21,-46.5955455,-23.682803,vp,711495007,2020-02-18 06:36:23,Ireland,city,"Sao Paulo, Brazil",Brazil
51,-6.395643,53.90604200000001,vp,711495007,2020-03-23 16:06:00,Ireland,city,"Louth, Ireland",Ireland
88,137.152514,34.974476,'LHH,711495127521304576,2020-02-23 05:02:11,(8),poi,,
65,6.662959,47.92041,Assia Kelly 7,711495410796339200,2020-02-15 11:08:28,"Lorraine, France",poi,TOTAL,France
38,-74.26612800000001,4.7540565,Sam,711495672,2020-02-14 04:35:18,"Madrid, Colombia",city,"Madrid, Colombia",Colombia
205,-2.9402835,54.902331499999995,Laura,711496017,2020-03-03 12:53:16,"Carlisle, England",city,"Carlisle, England",United Kingdom
85,8.42951065,44.28462265,Diego Tovano,711496125170245632,2020-05-13 14:23:46,"Savona, Liguria",city,"Quiliano, Liguria",Italia
21,-45.400766499999996,-21.572275,ENIO GOMES BRAGA,711496615,2020-02-26 08:40:55,"Caxambu, Brasil",city,"Varginha, Brasil",Brasil
82,87.42879350000001,25.7794555,Ganesh Kumar Chaurasiya,711496646085971968,2020-04-23 13:59:37,"Purnia, India",city,"Purnia, India",India
12060,-84.340338,34.041211499999996,Kevin Martin,711497394,2020-03-09 13:39:20,"Alpharetta, GA",city,"Roswell, GA",United States
24,-75.850549,45.646227,zy,711497411240263680,2020-02-20 23:28:09,"Brooklyn, NY",poi,Edelweiss Ski Lodge,Canad
35620,-73.964203,40.632952,zy,711497411240263680,2020-05-27 01:02:37,"Brooklyn, NY",poi,New York,Estados Unidos
175,46.685077,24.7219435,sarah Alsaif,711497460,2020-02-19 16:34:05,Riyadh,city,",   ",  
200,27.006511,38.4079305,Beyza ,711497465950822400,2020-05-22 00:00:37,"zmir, Trkiye",city,"zmir, Trkiye",Trkiye
31080,-117.8874385,33.739992,Leo Prado,711497614890561536,2020-02-14 00:24:04,"Orange County, CA, USA",city,"Santa Ana, CA",United States
41740,-117.10498899999999,32.810012,Leo Prado,711497614890561536,2020-05-30 03:37:10,"Orange County, CA, USA",city,"San Diego, CA",United States
31080,-117.9056455,33.6636085,Leo Prado,711497614890561536,2020-05-31 07:40:02,"Orange County, CA, USA",city,"Costa Mesa, CA",United States
200,38.386185,40.916022999999996,ABDULLAH ALTINDA,711497657076871168,2020-02-14 18:04:48,"Giresun Merkez, Giresun",city,"Giresun, Trkiye",Trkiye
82,91.74562,26.18208,Ipshita Das,711497783333617668,2020-02-15 07:24:33,"Guwahati, India",city,"Guwahati, India",India
12060,-84.433408,33.640544,LTA,711497892,2020-04-05 19:30:10,,poi,Hartsfield-Jackson Atlanta International Airport (ATL),United States
82,87.42879350000001,25.7794555,Nitish  kumar,711498022631268352,2020-05-18 15:44:19,"Purnia, India",city,"Purnia, India",India
88,138.88368450000002,37.443303,,711498075315933184,2020-02-14 10:12:36,,city, ,
41700,-98.5,29.4167,Cool Beans Box,711498159390765056,2020-02-20 02:13:59,"Dallas, TX",city,"San Antonio, TX",United States
35620,-73.97535,40.75795,Cool Beans Box,711498159390765056,2020-02-26 16:01:48,"Dallas, TX",city,"Manhattan, NY",United States
26420,-95.393222,29.840338,Cool Beans Box,711498159390765056,2020-03-13 20:47:00,"Dallas, TX",city,"Houston, TX",United States
19100,-96.7977,32.7774,Cool Beans Box,711498159390765056,2020-03-22 17:38:49,"Dallas, TX",city,"Dallas, TX",United States
12060,-84.3889,33.7566,Cool Beans Box,711498159390765056,2020-04-10 22:50:57,"Dallas, TX",city,"Atlanta, GA",United States
41700,-98.5,29.4167,Cool Beans Box,711498159390765056,2020-04-11 00:33:35,"Dallas, TX",city,"San Antonio, TX",United States
19100,-96.7977,32.7774,Cool Beans Box,711498159390765056,2020-04-11 19:59:30,"Dallas, TX",city,"Dallas, TX",United States
14720,-106.044,39.4864,Cool Beans Box,711498159390765056,2020-04-15 00:03:36,"Dallas, TX",city,"Breckenridge, CO",United States
19100,-96.9663,32.8471,Cool Beans Box,711498159390765056,2020-04-26 00:58:26,"Dallas, TX",city,"Irving, TX",United States
41700,-98.49001,29.424609999999998,Cool Beans Box,711498159390765056,2020-05-15 12:44:16,"Irving, TX",city,"San Antonio, TX",United States
19100,-96.7977,32.7774,Cool Beans Box,711498159390765056,2020-05-16 17:24:04,"Irving, TX",city,"Dallas, TX",United States
82,72.87424399999999,19.174139999999998,Pooja Arora,711498270845997057,2020-02-19 05:03:24,"Mumbai, India",city,"Mumbai, India",India
21,-44.3025505,-2.6292855,Rafinha,711498799185842177,2020-02-14 18:41:56,"So Lus, Brasil",city,"So Lus, Brasil",Brasil
88,124.2050055,24.469803,S.Mori,711499187670482946,2020-03-06 13:59:43,,city, ,
47260,-76.2958955,36.7632155,Bruce Bossuot,711499357762158593,2020-03-23 11:08:16,"Chesapeake, VA",city,"Chesapeake, VA",United States
178,28.184066499999997,-25.752605499999998,Olaifa Olaleye Leo,711499379,2020-02-14 19:03:52,Ibadan ,city,"Pretoria, South Africa",South Africa
186,3.136577,41.86537850000001,Sandheces,711499618756988928,2020-02-14 12:46:16,"Hell, MI",city,"Palams, Espaa",Espaa
21,-53.824203000000004,-29.753085,Lucas ndio ,71149964,2020-02-16 03:08:24,Santa Maria - Brasil,city,"Santa Maria, Brasil",Brasil
8,-60.674902,-31.6191365,Lea Turn,711500161,2020-03-02 22:29:39,,city,"Santa F, Argentina",Argentina
171,125.4432615,7.317582499999999,Yra ,711500278470676480,2020-02-17 04:07:58,"Davao City, Davao Region",city,"Davao City, Davao Region",Republic of the Philippines
152,4.5783215,51.935765,jose charmes,711501026436710400,2020-03-26 01:48:54,,city,"Capelle aan den IJssel, Nederland",Nederland
82,77.4044755,23.272495000000003,Santosh Ahuja,711501237091368960,2020-02-27 16:59:58,"Lalghati ,Bhopal ,M P ,India",city,"Bhopal, India",India
186,-3.7035075,40.4777945,Isabela,711501314220498944,2020-04-15 08:21:55,,city,"Madrid, Spain",Spain
88,137.89451599999998,34.677353000000004,,711501654906896384,2020-06-04 03:19:01, ,poi,,
171,124.9511735,10.079414,juhanie_Young,711502129026863104,2020-02-14 15:10:40,,city,"Macrohon, Eastern Visayas",Republic of the Philippines
69,-1.756256,4.929526,mfantenyiba Kofi credo,711502578048221185,2020-02-23 07:09:07,"Sekondi Takoradi, Ghana",city,"Sekondi Takoradi, Ghana",Ghana
33100,-80.134986,26.3739755,Whitney B.,711502889,2020-02-17 00:16:03,"Florida, USA",city,"Boca Raton, FL",United States
36100,-82.1608655,29.120222499999997,Whitney B.,711502889,2020-03-16 02:04:27,"Florida, USA",city,"Ocala, FL",United States
88,137.3108565,35.140860499999995,,711502906080362497,2020-03-07 22:35:30,,city,"Toyota-shi, Aichi",Japan
88,132.44895200000002,34.3857005,,711502944022081537,2020-03-30 14:24:10,  ,city,"Hiroshima-shi Naka-ku, Hiroshima",Japan
159,-57.60601750000001,-25.300264000000002,Quyquyho,711503020979261440,2020-05-28 11:20:38,"Asuncion, Paraguay",city,"Asuncion, Paraguay",Paraguay
200,29.2659245,40.648469,Abdullah Dnmez,711503025,2020-04-13 16:16:05,Yalova,city,"Yalova, Trkiye",Trkiye
65,2.347003,48.8588335,David Mnochet,711503151,2020-05-10 19:27:39,"Enstone, England",city,"Paris, France",France
222,110.7929635,-7.561752,itsnania syarifah,711504078526767104,2020-02-21 07:51:04,Surakarta,city,"Laweyan, Indonesia",Indonesia
88,133.50985500000002,33.5703455,,711504290922123264,2020-02-14 00:00:31,,city,"Kochi-shi, Kochi",Japan
205,-1.58996718,50.73503934,Southlawnhotel,711504354226864128,2020-02-14 10:59:50,"Milford on Sea, England",city,"Milford on Sea, England",United Kingdom
171,121.19935249999999,15.314366,Christine,711504594484858882,2020-04-08 14:27:09,"National Capital Region, Repub",city,"General Tinio, Central Luzon",Republic of the Philippines
21,-34.91946,-8.112485000000001,thiago henrique,711504637,2020-02-14 15:33:30,"Ipsep, Recife",city,"Recife, Brasil",Brasil
82,78.877781,11.235648,. ME,711504926950555648,2020-04-11 02:53:53,"Velur, India",poi,Perambalur,India
88,141.679273,42.787428999999996,        ,711505666842595329,2020-02-15 02:20:46,,poi, (New Chitose Airport) (CTS),
24,-73.723025,45.5578305,Suzanne Hinks,71150568,2020-03-21 16:01:17,"Montreal, QC",city,"Montral, Qubec",Canada
205,-0.159403,51.5424365,amy mctague,711505822,2020-02-14 09:41:34,"London, England",city,"Camden Town, London",United Kingdom
171,120.77003400000001,14.922665,,711505926239309824,2020-04-18 08:08:30,ph,poi,Sa Kwarto Ko,Republic of the Philippines
82,82.93295549999998,25.3733755,Abhishek srivastav,711506534828617728,2020-04-12 10:40:57,", ",city,"Varanasi, India",India
21,-49.05338035,-22.330996600000002,Vincius,711506581,2020-05-03 16:53:27,"Bauru, SP",city,"Bauru, Brasil",Brasil
205,-3.2030084999999997,55.943195499999995,Anna Henschel,711507096215404544,2020-02-19 20:31:28,,city,"Edinburgh, Scotland",United Kingdom
71,11.5417535,48.154879,Anna Henschel,711507096215404544,2020-06-02 22:37:41,,city,"Munich, Germany",Germany
33100,-80.307064,25.976124,Fukwang,711508034,2020-06-02 11:18:34,,city,"Miramar, FL",United States
88,140.1212765,35.636506,,711508098108694529,2020-03-10 07:03:04,,city,  ,
82,77.5584485,12.9231145, -,711508341298749440,2020-04-09 19:40:02,"Bengaluru, India",city,"Bengaluru South, India",India
186,-0.5312104999999999,38.6815795,Indira Amaya de Ameglio,711508546664468480,2020-02-19 20:14:01,"Alcoy, Espaa",city,"Alcoy, Spain",Spain
186,-1.906277,43.312545,irrata,711508803217453056,2020-05-27 21:46:28,Ariana Grande ,poi,Galtzarabordako Geltokia / Estacin de Galtzaraborda,Espaa
21,-47.796623,-15.776254000000002,Marco,71150888,2020-04-08 02:34:48,,city,"Braslia, Brasil",Brasil
21,-46.2900965,-23.86332,elas q lutem,71150895,2020-03-04 12:04:06,Brasil,city,"Santos, Brasil",Brasil
82,73.07930999999999,19.071586,Navneet Singh,711509172127334400,2020-03-16 02:45:10,,poi,Fortune Spring,India
175,46.7079,24.812139000000002,Majed alOtaibi,711509242046500864,2020-03-26 04:36:47,,poi,  |   ,Kingdom of Saudi Arabia
171,121.055222,14.541442000000002,Paul Adrian,711509264993398785,2020-04-17 12:24:40,,poi,Ridgewood Towers,Republic of the Philippines
19100,-97.2859135,32.7799665,DeRicki Johnson,71150938,2020-02-14 00:00:33,"Fort Worth, TX",city,"Fort Worth, TX",United States
120,100.552698,5.37869,sissyny,711509385000787969,2020-02-20 13:00:28,"Kulim, Kedah",city,"Bandar Kulim, Kedah",Malaysia
71,6.7805,51.2185,,711509460,2020-02-25 07:18:17,,city,"Dsseldorf, Deutschland",Deutschland
21,-48.6351228,-26.84812877,Cristof William pereira,711509623,2020-02-25 23:48:07,"So Paulo, Brasil",city,"Navegantes, Brasil",Brasil
113,-7.636083500000001,33.570103499999995,Salma,711509796458008577,2020-03-25 20:50:13,,city,"El Maarif, Royaume du Maroc",Royaume du Maroc
16980,-87.65706999999999,41.989345,HoneyWire,711510157,2020-02-17 23:04:27,"Chicago, IL",poi,"Chicago,IL",United States
45780,-83.574671,41.65659049999999,Morgan,711510176,2020-03-16 14:31:14,,city,"Toledo, OH",United States
85,9.7142305,45.752845,Michele,711510252915728385,2020-06-10 19:47:47,Bergamo e provincia,city,"Alzano Lombardo, Lombardia",Italy
186,2.769968,39.39169800000001,A.,711510313510817792,2020-02-20 06:41:14,"Baleares, Islas Baleares",city,"Palma, Spain",Spain
193,100.55814769,13.73865484,,711510438056304641,2020-02-20 08:37:02, ,city,"Khlong Toei, Thailand",Thailand
21,-43.959822499999994,-19.918692,o darkpsy judia,711510638665854976,2020-02-14 00:23:40,,city,"Belo Horizonte, Brasil",Brasil
28780,-97.8618825,27.500592500000003,Sarah Christiansen,711510744,2020-05-15 21:59:09,,city,"Kingsville, TX",United States
32580,-98.24567449999999,26.24069,Sarah Christiansen,711510744,2020-05-18 20:02:36,,city,"McAllen, TX",United States
47900,-77.0908695,38.81738,KCCure,711510770559782912,2020-02-28 05:57:11,"Alexandria, VA",city,"Alexandria, VA",United States
186,-2.9908330000000003,43.315234000000004,onditz,711510808463802368,2020-02-18 22:11:09,Espaa,poi,Edificio Udondo,Espaa
186,-3.0096465,43.271645,Javi - Je1ken,711510810,2020-04-18 08:43:34,Bilbao. Capital del Mundo,city,"Barakaldo, Espaa",Espaa
205,-2.7016375000000004,53.774091000000006,Melissa,711511028761284608,2020-02-14 18:58:04,,city,"Preston, England",United Kingdom
205,-0.178233,51.260315000000006,J Gale,711511079134879744,2020-03-25 08:21:57,"Surrey, UK",poi,Gatton Park,United Kingdom
82,72.57023199999999,23.013959,cma.audi@gmail.com,711511221984333824,2020-04-03 17:55:35,Ahmedabad,city,"Ahmadabad City, India",India
21,-43.459276,-23.025759,Ovelha negra .. ,711511327,2020-02-24 16:27:28,16/05 ,poi,Posto 10,Brasil
205,-0.42652700000000004,51.967123,Peter Breslin,711511388548681728,2020-04-22 07:04:07,,city,"Barton-le-Clay, England",United Kingdom
171,120.6619125,15.0677605,Miguel,711511858667061248,2020-03-07 12:28:17,,city,"San Fernando City, Central Luzon",Republic of the Philippines
205,-0.7466815,53.57399399999999,Alison J Clay,711511980390129664,2020-02-14 16:30:13,Scunthorpe ,city,"Althorpe, England",United Kingdom
88,138.24151899999998,36.3859015,nikkaOEC,711512105862606848,2020-02-18 06:48:20, ,city,"Ueda-shi, Nagano",Japan
88,135.3070135,34.775017999999996,,711512268337340416,2020-02-14 03:20:56,,city, ,
69,-0.224597,5.600079,Nana Serwaa,711512473078272000,2020-03-19 09:06:24,,poi,PeaceFM,Ghana
88,139.940606,35.79810000000001, ,711512581,2020-03-15 12:51:05,CHIBA Ichihara ,city, ,
151,3.3180660000000004,6.590611,abu.snr,711512719535505408,2020-04-15 08:33:08,,city,"Ikeja, Nigeria",Nigeria
88,135.18969199999998,34.691941, @0429,711512738304905216,2020-03-26 05:44:58,Kyoto;Hyogo,poi,,
173,30.328698,59.934148,,711513541140946944,2020-06-04 00:58:56,"-, ",city,"-, ",
205,0.5861639999999999,51.977115500000004,Miss Stevens,711513759664234497,2020-03-08 08:47:39,Essex,city,"Sible Hedingham, East",United Kingdom
46020,-121.19145300000001,39.2394905,"Tyler Knight, PGA",71151408,2020-02-14 06:37:09,"Penn Valley, CA",city,"Lake Wildwood, CA",United States
13460,-121.311582,44.059938,Tyler Knight,71151408,2020-04-11 08:24:18,"Penn Valley, CA",city,"Bend, OR",United States
46020,-121.19145300000001,39.2394905,Tyler Knight,71151408,2020-04-14 06:19:54,"Penn Valley, CA",city,"Lake Wildwood, CA",United States
200,30.8341665,36.9442685,Ricardo Rambo,71151428,2020-03-02 09:35:57,"iPhone: 22.458120,113.999290",city,"Aksu, Trkiye",Turkey
27860,-90.694,35.8281,Madison Bibbs,711514568,2020-02-29 22:47:24,"Manila, AR",city,"Jonesboro, AR",United States
193,100.526313,13.7412975,ohm  ,71151482,2020-02-20 11:48:03,,city,", ",
171,121.0627355,14.683012,safiya,711514943388921856,2020-05-07 01:20:20,"Greendale, WI",city,"Quezon City, National Capital Region",Republic of the Philippines
14860,-73.49113349999998,41.5050785,Pat Cal,711514972992507905,2020-02-16 19:58:26,"New Fairfield, CT",city,"New Fairfield, CT",United States
39,-84.08206899999998,9.9523735,D Salas,71151513,2020-02-20 02:13:58,,city,"Colima, Costa Rica",Costa Rica
24,-71.3410585,46.855857,Guillaume Simard,71151524,2020-04-06 18:14:25,Quebec,city,"Qubec, Canada",Canada
88,132.7088955,33.880532,**,711515364014759938,2020-02-14 04:30:10,,city, ,
82,75.96818400000002,22.6714825,Aap#Sonu Suryavanshi,711515629472223232,2020-03-25 07:05:23,"Narsinghgarh, madhya pradesh,",city,"Indore, India",India
65,4.355087999999999,49.48678,ll,711515890001514496,2020-04-21 18:49:47,"Lille, France",city,"Sault-ls-Rethel, France",France
205,-4.2417515,55.85830249999999,Steven Lynch,711515908271972356,2020-03-05 10:43:05,"Glasgow, Scotland",city,"Glasgow, Scotland",United Kingdom
21,-43.959822499999994,-19.918692,Anjinho,711516049011818496,2020-02-16 22:40:42,"Belo Horizonte, Brasil",city,"Belo Horizonte, Brasil",Brasil
88,139.708087,35.628572,blocco,711516117320093696,2020-03-15 07:52:44, ,poi, ,
88,135.034021,34.649896999999996,,711516239571464192,2020-03-11 09:16:55,"Osaka-fu, Japan",poi,  ,
186,-3.0227705,43.318658,Banana,711516298,2020-02-17 09:17:56,"Bizkaia, Pas Vasco",city,"Portugalete, Espaa",Espaa
173,38.918275,45.599921,APOLLINARIUM,711517153804066817,2020-05-20 22:15:45,,poi,,Russia
8,-58.442643,-34.604315,PasajeraEnTrnsito,71151719,2020-02-14 09:23:56,,city,"Ciudad Autnoma de Buenos Aires, Argentina",Argentina
85,12.5451455,41.8984165,PasajeraEnTrnsito,71151719,2020-03-01 00:25:08,,city,"Roma, Lacio",Italia
186,2.1412275000000003,41.392657,PasajeraEnTrnsito,71151719,2020-03-09 17:31:51,,city,"Barcelona, Espaa",Espaa
8,-58.442643,-34.604315,PasajeraEnTrnsito,71151719,2020-03-15 17:53:59,,city,"Ciudad Autnoma de Buenos Aires, Argentina",Argentina
205,-0.18919,51.5037865,PasajeraEnTrnsito,71151719,2020-05-25 13:42:28,,city,"Kensington, London",Reino Unido
8,-58.442643,-34.604315,PasajeraEnTrnsito,71151719,2020-05-28 13:50:26,,city,"Ciudad Autnoma de Buenos Aires, Argentina",Argentina
205,-3.477731,55.934517500000005,Abbie ,711517218895437824,2020-02-20 18:08:11,"Scotland, United Kingdom",city,"Broxburn, Scotland",United Kingdom
96,47.969198399999996,29.37661997,,711517356242108416,2020-02-22 09:08:00, Kuadas,city,"The Sea Front, Kuwait",Kuwait
205,-2.0272930000000002,52.686412,Zero Corporation/ Darkzine -John V Coleman Jay Cee,711517459,2020-02-16 17:19:45,"Birmingham, England",poi,Cannock,United Kingdom
65,2.375698,48.666244000000006,Dominique Lebreton,711517613,2020-02-22 20:32:35,,city,"Viry-Chtillon, France",France
82,88.6714,22.3189,CHAITAN MURMU,711517648102621184,2020-02-23 16:24:50,,city,"Alipur, India",India
88,139.63060900000002,35.878184999999995,PERIA ,711517664049389570,2020-05-30 04:08:41,(^-^)wwww,city,  ,
33100,-80.2333285,25.7823535,,711517874,2020-02-17 03:50:34,"Miami, FL",city,"Miami, FL",United States
95,126.9399335,37.57673850000001,Patrcia,71151788,2020-02-26 23:54:35,Seoul,city, ,
205,-1.572182,53.777756999999994,Dan,711518283749572608,2020-04-30 18:09:57,"Leeds, England",poi,Elland Road,United Kingdom
88,139.23376149999999,35.802788,,711518369657266176,2020-02-22 17:09:02, ,city, ,
35620,-73.9685415,40.780709,G,71151907,2020-05-29 17:26:39,"New York, NY",city,"Manhattan, NY",United States
171,121.08234499999999,14.5833065,Stacey ,711519098472017920,2020-02-17 12:55:07,starbucks,city,"Pasig City, National Capital Region",Republic of the Philippines
120,117.6445355,4.4774199999999995,shomok,711519345940111360,2020-04-10 21:58:44,"Tawau, Sabah",city,"Tawau, Sabah",Malaysia
200,29.0052225,41.0213205,Sertan Savaseri,711519403,2020-02-22 09:39:31,,city,"stanbul, Trkiye",Trkiye
31080,-118.4119065,34.0207895,Michael Walker,71151966,2020-02-21 03:17:55,"Los Angeles, California",city,"Los Angeles, CA",United States
16980,-87.732013,41.8335845,Michael Walker,71151966,2020-02-23 23:58:43,"Los Angeles, California",city,"Chicago, IL",United States
31080,-118.4119065,34.0207895,Michael Walker,71151966,2020-03-18 02:52:34,"Los Angeles, California",city,"Los Angeles, CA",United States
186,-4.674251,37.8476005,Juanma Cruz,711519870664491008,2020-04-30 07:26:40,"Doha, Qatar",city,"Cordova, Spain",Spain
88,139.77586200000002,35.670638000000004,Yudai Tanaka,711520009,2020-05-14 15:19:44,,city, ,
21,-46.87350402,-23.46197587,andre zanatta,71152012,2020-02-18 20:31:08,,city,"Santana de Parnaba, Brasil",Brasil
35380,-90.68959,30.04747,andre zanatta,71152012,2020-03-12 13:12:12,,city,"Gramercy, LA",Estados Unidos
21,-46.84871391,-23.484023399999998,andre zanatta,71152012,2020-04-07 00:28:17,,city,"Barueri, Brasil",Brasil
88,131.064323,31.782537,,711520234004328448,2020-02-16 04:07:35,,city,"Miyakonojo-shi, Miyazaki",Japan
19100,-96.69960400000001,33.1946515,Katie Clark,71152026,2020-02-21 14:27:21,"Frisco, TX",city,"McKinney, TX",United States
23240,-98.870276,30.275994500000003,Katie Clark,71152026,2020-03-26 11:53:40,"Frisco, TX",city,"Fredericksburg, TX",United States
19100,-96.835249,33.1501395,Katie Clark,71152026,2020-03-31 20:10:48,"Frisco, TX",city,"Frisco, TX",United States
26420,-95.4464865,29.838495,Jay,711520588,2020-02-15 15:28:19,"Houston, TX",city,"Houston, TX",United States
2,3.0024919999999997,36.64114,Reda Hadjout,711521015960973312,2020-02-26 17:33:27,Alger                         ,city,"Birtouta                                                                                            , Algeria",Algrie
21,-51.15762,-23.312479,Pirola,711521076,2020-04-13 01:09:09,,poi,Sonkey,Brasil
88,135.23940159999998,34.2005184,,711521096659374080,2020-02-14 12:38:09,,city, ,
49,-80.091193,-2.512995,Estudio Itrburu,71152134,2020-02-19 01:48:48,"Guayaquil, Ecuador",city,"Guayaquil, Ecuador",Ecuador
65,-1.5607395,47.2381615,SIMONCINI,711521399,2020-02-14 18:39:08,"Nantes, France",city,"Nantes, France",France
193,102.75067546,17.87028371,Arrizabalaga,711521418127650816,2020-03-20 05:48:07,. .,city,"Pho Chai, Thailand",Thailand
35620,-73.753632,41.008169,Kevin Devaney Jr.,71152158,2020-02-15 01:43:40,"T: 40.9431179,-73.8550754",poi,Archbishop Stepinac High School,United States
21,-49.28260459,-26.825020799999997,Bogro,71152175,2020-02-15 23:54:44,Pouso Redondo,city,"Timb, Brasil",Brasil
21,-46.2564,-23.9936,marcos,71152196,2020-03-15 16:55:28,sao vicente-sao paulo-brasil,city,"Guaruj, Brasil",Brasil
205,-4.172646,55.820915500000005,John McCleery,711522097231699968,2020-03-18 15:54:48,,city,"Cambuslang, Scotland",United Kingdom
9,152.9931965,-27.382143,Kate Watson,711522111085371392,2020-03-07 11:18:55,"Brisbane, Queensland",city,"Brisbane, Queensland",Australia
69,-0.1842935,5.6231985,Shaggy,711522122011643904,2020-04-24 22:46:46,where i am needed,city,"Accra, Ghana",Ghana
200,28.832687,40.962466,CHEster Navy Blue HASAN,711522183500193793,2020-04-20 01:13:17,"zmir - stanbul, Trkiye",poi,Wuhan,Turkey
119,-99.19039509,19.36102872,Vincent Van Flerch,711522420,2020-03-02 22:50:07,"Mxico, D.F.",city,"lvaro Obregn, Distrito Federal",Mxico
82,73.05211800000001,20.885927,Belieber,711522626594713601,2020-03-21 11:52:58,Bieberland,poi,Boriyach Toll plaza,India
151,3.300294,6.618530000000001,#Ofana Pius Thomas#,711522778,2020-03-28 07:48:00,"Lagos, Nigeria",poi,Iyana Ipaja Bus Stop,Nigeria
21,-46.64892242,-23.56727673,umanjocaido,71152305,2020-02-14 16:11:48,"So Paulo, Brasil",city,"So Paulo, Brasil",Brasil
65,2.2592220000000003,48.781546999999996,SpayZo,711523107341778944,2020-03-25 22:37:15,France,city,"Le Plessis-Robinson, France",France
205,-1.4855825,52.473809499999994,Cllr. John Glass,711523223263903745,2020-02-16 10:10:41,"Bedworth, England",city,"Bedworth, England",United Kingdom
88,139.550369,35.714363, ,711524077849063426,2020-03-31 13:03:13,,poi,,Japan
28140,-94.5592815,39.1000485,Anna ,711524353,2020-02-18 02:48:48,"KC,MO",city,"Kansas City, MO",United States
32340,-94.863354,40.345541,Anna ,711524353,2020-02-23 18:22:10,"KC,MO",city,"Maryville, MO",United States
28140,-94.5592815,39.1000485,Anna ,711524353,2020-02-29 20:25:21,"KC,MO",city,"Kansas City, MO",United States
12060,-84.31507049999998,33.8745435,Anna ,711524353,2020-03-27 00:01:31,"KC,MO",city,"Brookhaven, GA",United States
28140,-94.5592815,39.1000485,Anna ,711524353,2020-03-29 00:44:31,"KC,MO",city,"Kansas City, MO",United States
65,2.9270695,50.683238,BOULI,711524618117496832,2020-02-19 20:29:29,,city,"Houplines, France",France
128,2.836682,50.7677115,BOULI,711524618117496832,2020-02-28 13:40:53,,city,"Heuvelland, Belgi",Belgique
65,1.916493,50.335428,BOULI,711524618117496832,2020-03-01 19:44:26,,city,"Tortefontaine, France",France
8,-58.5893055,-34.772368,Leo Trivi,711524731,2020-02-17 23:07:31,Ciudad Autnoma de Buenos Aire,city,"Gonzlez Catn, Argentina",Argentina
88,131.46544513,34.07046216,,711524741266300928,2020-02-15 13:37:30,SHOWROOM,city, ,
35620,-74.3220025,40.4752365,Eric Colon,71152481,2020-05-14 22:53:12,"Sayreville, NJ, USA",city,"Sayreville, NJ",United States
151,3.3180660000000004,6.590611,_jtosin,711524863144534016,2020-03-19 20:00:50,"Lagos, Nigeria",city,"Ikeja, Nigeria",Nigeria
205,0.026299,51.39432,Colin Benney,711525097941680128,2020-04-01 21:45:44,"London, England",city,"Bromley, London",United Kingdom
21,-46.2900965,-23.86332,maria lucia,711525109,2020-05-03 23:36:35,"Ponta da Praia, Santos",city,"Santos, Brasil",Brasil
19100,-97.116784,32.5735485,Jamie Wilson,71152531,2020-04-12 22:55:28,"Mansfield, TX",city,"Mansfield, TX",United States
186,-4.674251,37.8476005,Fco. Ramn Lara,711525349222453249,2020-03-11 06:22:47,,city,"Crdoba, Espaa",Espaa
119,-101.601401,21.09806,Ricardo Medina,71152539,2020-02-15 04:03:27,Len Guanajuato - Monterrey,city,"Len, Guanajuato",Mxico
222,106.715073,-6.204181,shroud,711525496324894720,2020-02-25 15:33:27,green lake city ,poi,Indomaret Metro Permata 1 (Depan Metro Permata 1)),Indonesia
33100,-80.134986,26.3739755,Ev(elyn),711525685,2020-03-15 03:23:38,"Boca Raton, FL",city,"Boca Raton, FL",United States
151,3.39583,6.45306,@Hallyshina,711525708007350272,2020-04-23 07:14:32,"Lagos, Nigeria",city,"Lagos, Nigeria",Nigeria
175,39.24283,21.494224,,711525718077865984,2020-02-17 08:20:10, .,poi,King Abdulaziz University |   ,Kingdom of Saudi Arabia
151,3.3180660000000004,6.590611,BouncingBabyBoy ,711525733991129088,2020-06-04 10:50:18,"Lagos, Nigeria",city,"Ikeja, Nigeria",Nigeria
21,-43.7794231,-22.8713267,Marcela Oliiveira,711525854170456064,2020-03-30 16:51:35,"Rio de Janeiro, Brasil",city,"Itagua, Brasil",Brasil
33100,-80.1783915,26.03968,xo,711526154,2020-06-07 23:29:55,,city,"Hollywood, FL",United States
29820,-115.13516499999999,36.060964500000004,Prent Rodgers,7115262,2020-02-17 16:16:26,"Snoqualmie, WA",city,"Paradise, NV",United States
30780,-92.25715,34.788087,Prent Rodgers,7115262,2020-03-05 03:28:58,"Snoqualmie, WA",city,"North Little Rock, AR",United States
42660,-121.78833049999999,47.495752,Prent Rodgers,7115262,2020-03-09 20:47:17,"Snoqualmie, WA",city,"North Bend, WA",United States
88,135.87701299999998,34.263632,Dye11ow@,711526216663044096,2020-03-29 10:58:59,,poi,,
205,-1.628895,54.967169999999996, ,711526295532871680,2020-03-12 10:43:15,"Newcastle Upon Tyne, England",poi,Newcastle College - Trevelyan building,United Kingdom
82,86.008985,20.369460500000002,Tusshar Bastia,711526627251884033,2020-04-28 08:11:27,"Cuttack, India",city,"Cuttack, India",India
175,46.685077,24.7219435,,711526627549827072,2020-03-08 19:45:06,,city,"Riyadh, Kingdom of Saudi Arabia",Kingdom of Saudi Arabia
205,-2.366933,51.3796495,Martin Weathers,711526653843869696,2020-02-16 12:35:59,Bath ,city,"Bath, England",United Kingdom
178,27.875272,-26.2564215,SANELE MATSOLO,711526846203109376,2020-03-31 22:00:01,"Johannesburg, South Africa",city,"Soweto, South Africa",South Africa
8,-58.364902,-34.636339,Chuave,711526957,2020-03-10 02:55:33,Ciudad Autnoma de Buenos Aire,poi,"Estadio Alberto J. Armando ""La Bombonera"" (Club Atltico Boca Juniors)",Argentina
88,139.713376,35.67067,Mihoko Sato,71152748,2020-02-14 10:01:55,,poi,,
18140,-82.985772,39.9946835,Alexander Binder,71152781,2020-02-15 01:01:47,Ohio,city,"Columbus, OH",United States
33,-70.5189175,-33.425400499999995,Andrs Gonzlez,711528648210300928,2020-02-15 20:17:49,,city,"Las Condes, Chile",Chile
82,77.1412,28.626303000000004,Naman,711529000049348608,2020-04-05 15:34:33,,poi,Naraina Vihar,India
35620,-73.9685415,40.780709,Ruben Veiga,71152908,2020-06-04 23:14:06,"Porto, Portugal",city,"Manhattan, NY",United States
14460,-71.0543155,42.4574135,MHS Athletics,711529478095310848,2020-03-04 21:19:26,"Malden, MA",city,"Melrose, MA",United States
200,29.0052225,41.0213205,Mnevver atalba,711529502946549760,2020-03-17 15:43:30,,city,"stanbul, Trkiye",Trkiye
38060,-112.379447,33.6466545,Brian,71152952,2020-02-29 15:28:19,"Michigan, USA",city,"Surprise, AZ",United States
12540,-119.025163,35.3469015,Brian,71152952,2020-03-13 14:51:29,"Michigan, USA",city,"Bakersfield, CA",United States
38060,-112.379447,33.6466545,Brian,71152952,2020-03-17 15:49:31,"Michigan, USA",city,"Surprise, AZ",United States
88,132.99973649999998,34.100871500000004,,711529781754376192,2020-04-20 15:07:06,,city, ,
58,14.465875500000001,50.05958,Jan C.S.,711530101909954560,2020-03-14 20:42:23,,city,"Praha, esk republika",esk republika
88,137.6454885,34.728092499999995,,711530169232527360,2020-03-03 06:47:23, ,city,"Hamamatsu-shi Nishi, Shizuoka",Japan
43060,-96.85824699999999,35.286970000000004,Kari,711530342176264194,2020-04-01 15:53:21,"Shawnee, OK",poi,Middle Of Nowhere,United States
171,121.0627355,14.683012,Jayshin. ,711531110673424384,2020-02-16 11:49:46,taguig city,city,"Quezon City, National Capital Region",Republic of the Philippines
205,-1.574289,53.6823915,Kirsty ,711531297,2020-02-15 18:28:21,West Yorkshire,city,"Ossett, England",United Kingdom
26420,-95.4464865,29.838495,Matt Tuley,71153134,2020-02-14 04:04:10,D-Tent,city,"Houston, TX",United States
26420,-95.7787115,29.721989,nikki alvarez,711531410,2020-02-15 13:30:37,,city,"Cinco Ranch, TX",United States
160,-77.040837,-12.079603,Miguel Ricci,71153143,2020-05-13 13:53:27,"Lima, Peru",poi,Hospital Edgardo Rebagliati Martins,Peru
88,135.57300700000002,34.576667,K,711531535,2020-03-01 03:20:02, ,poi, ,
205,-1.449612,53.3831645,Kelly Lingard,711532192359387137,2020-03-05 22:01:54,"Sheffield, England",city,"Sheffield, England",United Kingdom
21,-49.2884605,-25.4952495,Camila Wolinger,71153225,2020-03-04 16:27:51,Curitiba-PR-Brasil,city,"Curitiba, Brasil",Brasil
36740,-81.7332615,28.5381695,BrandiRNCCRN,711532515484372993,2020-05-05 17:13:40,"Clermont, FL",city,"Clermont, FL",United States
33,-70.64766,-34.7418735,tom ,71153263,2020-02-14 12:12:06,VCL,city,"San Fernando, Chile",Chile
171,124.519627,8.428179,Marjannikul,711532889943330816,2020-02-24 14:05:24,,city,"Opol, Northern Mindanao",Republic of the Philippines
38340,-73.279964,42.551666,Natalie,711532891,2020-03-16 21:59:40,,poi,Jiminy Peak,United States
19820,-83.387744,42.277414,Jewel Ann,711533298,2020-02-15 00:36:42,with Gavin,city,"Wayne, MI",United States
171,121.447869,14.437373999999998,AJ,711533432577261568,2020-03-01 08:32:33,,poi,San Sebastian Parish,Republic of the Philippines
88,137.084979,36.751957,as(),711533459928260608,2020-02-21 03:23:47,,poi, ,
88,135.4681434,34.58346156,kanachan,711533634,2020-02-19 05:03:13,,city,  ,
119,-106.4617137,23.25736902,Chava GO,71153375,2020-02-25 01:30:08,,city,"Mazatln, Sinaloa",Mxico
205,-2.4504365000000004,52.356039,Kit Friend,711533777739190272,2020-02-20 17:45:52,Alperton,city,"Bayton, England",United Kingdom
88,139.740671,35.635596, ,711533832579645440,2020-03-24 10:59:20,,poi, (Takanawa Gateway Sta.),
31080,-117.86481850000001,33.926652000000004,Steven S. Mitchell,711533946790502400,2020-04-25 17:49:51,Southern California,city,"Brea, CA",United States
-9999,-61.8117305,44.321234,Jean S DesJardins,711533969301512192,2020-02-14 23:54:49,,city,"Halifax, Nova Scotia",Canada
31080,-117.6887695,33.469634,wnkostop ,711534064742699009,2020-02-19 08:55:00,"Westsiiiide (California, USA)",city,"Dana Point, CA",United States
24,-75.80014150000001,45.248791,Paul Cook,711534073014063105,2020-02-28 21:00:51,,city,"Ottawa, Ontario",Canada
34980,-86.8246749,35.96022274,Cody Messick ,711534283,2020-03-01 23:29:52,"Nashville, TN",city,"Franklin, TN",United States
21,-44.19287,-19.942007500000006,Flavio costa,711534336676380673,2020-03-27 14:53:32,betim,city,"Betim, Brasil",Brasil
47900,-76.7416,38.9606,Michelle Pitts Esq.,711534631947001859,2020-02-22 16:55:15,"Washington, DC",city,"Bowie, MD",United States
193,100.49365999999999,13.756393, brandingchamp.com,711534748187758605,2020-04-24 11:32:02,"Chatuchak, Bangkok",poi,,
178,28.2533,-26.2189,Nthabiseng,711534825770000384,2020-04-07 10:05:04,"Gauteng, South Africa ",city,"Boksburg, South Africa",South Africa
21,-43.441578,-22.911421500000003,FABY#SDV,711534951452299265,2020-05-20 23:17:03,"Rio de Janeiro, Brasil",city,"Rio de Janeiro, Brasil",Brasil
82,88.3849869,22.482290300000003,Indranil Dasgupta,711534965582790656,2020-05-10 16:49:58,"Kolkata, India",city,"Kolkata, India",India
21,-43.441578,-22.911421500000003,T W O,711534974860697601,2020-02-14 01:31:55,"Rio de Janeiro, Brasil",city,"Rio de Janeiro, Brasil",Brasil
186,-5.923545000000002,37.38319799999999,Carles Salafranca,711535177969889281,2020-03-16 19:39:43,,city,"Seville, Spain",Spain
175,46.679818,24.695094,.,711535215081099264,2020-03-01 07:52:05,,city,",   ",  
88,139.700075,35.690431,Felix Rex BPS,711535251835629568,2020-03-20 16:06:58,Tokyo ,poi,JR  (JR Shinjuku Sta.),Japan
38860,-70.8598485,43.2696355,Marty Sewell,711535370,2020-02-27 23:40:39,"Berwick, ME",city,"Berwick, ME",United States
21,-47.03021800000001,-22.8949945,Gabi,711535398,2020-03-17 03:01:49,,city,"Campinas, Brasil",Brasil
205,-2.23348,53.4569525,Sean Longmore,711535470,2020-05-12 18:07:54,"Manchester, England",city,"Manchester, England",United Kingdom
21,-40.470364,-20.307374499999998,Lucas Fernandes,711535673862393856,2020-03-08 13:45:05,"Guarapari, Brasil",city,"Cariacica, Brasil",Brasil
58,16.577969500000002,49.2020625,markta vlkov,711535762,2020-02-17 08:28:07,,city,"Brno, esk republika",esk republika
88,127.7908845,26.260848499999998,,711536058681266176,2020-03-22 12:54:09,,city, ,
222,120.177406,-2.940337,all salam,711536224155115520,2020-02-22 01:09:14,,poi,RSU Sawerigading,Indonesia
24,-123.5213815,48.45597,.John Lewinski,711536348117606400,2020-02-19 22:03:22,"Victoria, British Columbia",city,"Langford, British Columbia",Canada
82,77.095086,28.638489500000002,rajkumar rawat,711536443,2020-05-02 04:52:22,"New Delhi, India",city,"New Delhi, India",India
88,136.877028,35.169619,,711536497485189120,2020-03-05 03:03:31,TRIGGER,poi,ufotable cafe NAGOYA  CAFE,
38900,-122.42863984,45.53021649,Wendy McNeil,711536616,2020-02-17 02:36:16,portland,city,"Wood Village, OR",United States
8,-58.442643,-34.604315,Rodrigo Del Rosso,711536625763950592,2020-02-15 17:38:42,Ciudad Autnoma de Buenos Aire,city,"Ciudad Autnoma de Buenos Aires, Argentina",Argentina
21,-37.406805,-11.2581165,Antonio Lima,711537017671254017,2020-02-15 01:30:45,"Estncia, Brasil",city,"Estncia, Brasil",Brasil
17460,-81.453461,41.516981,SVT,711537025695010817,2020-03-06 14:10:01,"Ohio, USA",city,"Mayfield Heights, OH",United States
171,120.814485,14.857848,Lyna ,711537034347700224,2020-03-09 03:33:44,"Bulacan, Central Luzon",poi,Bulacan State University,Republic of the Philippines
88,139.3881,35.562427500000005,,711537234814509056,2020-05-27 14:10:28, ,city,"Machida-shi, Tokyo",Japan
8,-58.7718025,-34.501594,[ez e e] ,711537258298478592,2020-04-10 00:42:18,  ,city,"Jos Carlos Paz, Argentina",Argentina
88,135.8920905,34.6579675,Delon-chan,711537567552790528,2020-02-29 13:58:26,,city,"Nara-shi, Nara",Japan
71,9.3726795,53.6798865,Matten Ulason,711537690697715712,2020-02-16 20:25:28,"Hamburg, Deutschland",city,"Hamburg, Deutschland",Deutschland
36220,-102.344087,31.8738385,Natalie Fitzgerald,711537960013864961,2020-02-19 03:01:16,"Odessa, TX",city,"Odessa, TX",United States
33260,-102.24668100000001,31.9703,Natalie Fitzgerald,711537960013864961,2020-02-29 03:54:53,"Odessa, TX",poi,Wagner Noel Performing Arts Center,United States
36220,-102.344087,31.8738385,Natalie Fitzgerald,711537960013864961,2020-02-29 04:28:37,"Odessa, TX",city,"Odessa, TX",United States
40140,-117.4213805,34.548618499999996,Natalie Fitzgerald,711537960013864961,2020-03-08 04:00:59,"Odessa, TX",city,"Adelanto, CA",United States
36220,-102.344087,31.8738385,Natalie Fitzgerald,711537960013864961,2020-03-15 18:51:50,"Odessa, TX",city,"Odessa, TX",United States
26380,-90.772593,29.6994505,"tipmarlo  , ripdnash  , ripdaddy ",711538110665007104,2020-02-25 17:41:59,"Gray, LA",city,"Gray, LA",United States
120,100.552698,5.37869,Habib ullah,711538191531118592,2020-05-23 23:04:33,"stanbul,islambad,kedah",city,"Bandar Kulim, Kedah",Malaysia
153,5.160933,59.2474805, Fredrik Styve ,711538751,2020-02-21 08:58:22,"Haugesund, Norge",city,"Karmy, Norge",Norge
88,133.867043,34.783814,,711538791010295808,2020-03-17 03:40:48,,city, ,
173,61.899159,56.42453,Anton Davydov,711538897524752384,2020-05-08 03:26:54,,city,"-, ",
26660,-95.5472695,30.7060885,Sarah,711538963,2020-02-25 04:04:43,"Huntsville, TX",city,"Huntsville, TX",United States
26420,-95.4464865,29.838495,Sarah,711538963,2020-03-04 01:33:26,"Huntsville, TX",city,"Houston, TX",United States
26660,-95.5472695,30.7060885,Sarah,711538963,2020-03-11 18:18:02,"Huntsville, TX",city,"Huntsville, TX",United States
14460,-70.9963275,42.4192015,Barrett Lewis,711539100877262848,2020-02-19 02:37:55,,city,"Revere, MA",United States
119,-87.0316645,21.048719000000002,Barrett Lewis,711539100877262848,2020-02-20 01:52:48,,city,"Benito Jurez, Quintana Roo",Mexico
40060,-77.3971595,37.2654925,Barrett Lewis,711539100877262848,2020-03-20 03:52:46,,city,"Colonial Heights, VA",United States
47900,-77.16310250000002,39.08705500000001,Nicole Ponce,711539218024161280,2020-03-05 15:09:49,"Maryland, USA",city,"Rockville, MD",United States
88,139.962106,35.686566,,711539299557060609,2020-02-15 22:51:16,,poi, ,
82,77.3414525,11.1081705,Prathinan Vijay,711539429077176321,2020-02-19 03:11:07,"Tirupur, Tamilnadu, India ",city,"Tiruppur, India",India
88,139.2957855,35.6581635,,711539436182319104,2020-02-15 15:11:45, ,city,"Hachioji-shi, Tokyo",Japan
85,11.098593,43.332418,Bar La Speranza,711539498430160896,2020-05-24 08:14:34,"Colle di Val d'Elsa, Toscana",poi,bar LaSperanza,Italy
82,84.4024055,26.992512,Hari Rijal,711539567703236608,2020-03-07 01:53:56,"Kathmandu,Nepal ",city," , ",
186,2.817991,41.7737255,Fran Rubal Irn,711540129572241408,2020-03-11 12:26:40,"Girona, Espaa",city,"Vidreres, Espaa",Spain
186,-4.4240309999999985,36.764878,Benito Martn Rivero ,7115402,2020-02-15 10:43:01,Villanueva de los Castillejos,city,"Mlaga, Espaa",Espaa
71,8.639728999999999,49.889527,Emrah,711540534075064320,2020-05-10 20:52:10,"Frankfurt am Main, Deutschland",poi,Sharks,Deutschland
161,74.3584865,31.5318195,Tanya Sani,711540586982068224,2020-02-16 10:38:37,"Lahore, Pakistan",city,"Lahore, Pakistan",Pakistan
88,139.745379,35.652789,,711540624214794240,2020-02-21 22:01:49,,city, ,
33100,-80.12152900000002,26.8408065,Robert Charles,711540656,2020-03-30 21:19:31,"Palm Beach Gardens, Florida",city,"Palm Beach Gardens, FL",United States
27260,-81.36930699999999,30.167361,Jim Messina,71154084,2020-02-18 22:03:20,US,poi,Ponte Vedra Concert Hall,United States
88,140.244407,35.311028,,71154102,2020-05-11 03:20:59,,poi,,
24,-73.723025,45.5578305,Gyslaine Desrosiers,711541069,2020-02-15 20:04:21,Montral,city,"Montral, Qubec",Canada
88,134.51514650000001,34.04320850000001,,711541422797623297,2020-02-14 10:18:07,,city, ,
205,-2.5853900000000003,51.457877,Czech & Slovak Community and School Bristol CIC,711541468578578432,2020-02-18 21:32:43,"Bristol, England",city,"Bristol, England",United Kingdom
9,115.9283185,-32.1501005,Barry Lim,71154234,2020-04-15 10:49:34,,city,"Perth, Western Australia",Australia
9,145.0531355,-37.9725665,Stephanie McLean,711542365,2020-03-29 07:57:19,"Melbourne, Victoria",city,"Melbourne, Victoria",Australia
175,46.362883000000004,24.375196,,711542376418906113,2020-03-05 10:20:51,,poi, ,  
18580,-97.432425,27.737151,Assunta Burnside,711542394,2020-02-15 21:05:53,Texas,city,"Corpus Christi, TX",United States
173,37.704503,55.764458,AWAH JEREMIAH ACURO,711542640110600192,2020-06-02 16:29:42,"Moscow, Russia",poi, ,Russia
33,-73.15225,-37.115466,Carlos A.R.,71154278,2020-02-23 20:03:14,La Ligua,poi,Playa Colcura,Chile
40060,-77.49317049999998,37.529883,Berf,711543006,2020-04-25 03:34:16,"Partial finished basement, USA",city,"Richmond, VA",United States
171,120.92855949999999,14.812798,h,711543322322440192,2020-05-16 02:12:12,,city,"Bocaue, Central Luzon",Republic of the Philippines
88,140.726996,35.84835049999999,,711543592129441792,2020-03-17 18:38:29, ,city,"Kamisu-shi, Ibaraki",Japan
186,2.156693,41.401623,Vanessa,711543811596546049,2020-02-15 18:24:57,Catalunya ,poi,Plaa del Sol,Espaa
65,2.902429,42.708694,Vanessa,711543811596546049,2020-02-29 15:24:06,Catalunya ,poi,Parc des Expositions,Francia
186,2.1412275000000003,41.392657,Vanessa,711543811596546049,2020-03-02 10:34:13,Catalunya ,city,"Barcelona, Espaa",Espaa
12060,-84.2801945,34.07334400000001,krista smith,711543936515440642,2020-03-25 17:49:37,"Alpharetta, GA",city,"Alpharetta, GA",United States
96,47.785028000000004,29.299893,  |  .,711544024189018112,2020-03-26 08:01:57,,poi, , 
151,8.53552837,12.00144018,sagir ado,711544041,2020-03-15 07:05:23,,city,"Kano, Nigeria",Nigeria
31140,-85.59009350000001,38.25192,Charlie Johnson,711544095445876736,2020-02-14 00:34:04,"Louisville, KY",city,"Bellemeade, KY",United States
24,-123.123581,49.257639000000005,Chris Brandt,71154429,2020-02-14 05:45:37,Vancouver,city,"Vancouver, British Columbia",Canada
21,-46.989504,-15.7482845,Nuniismariano,711544355656495104,2020-02-22 01:29:17,"Cabeceiras, Brasil",city,"Cabeceiras, Brasil",Brasil
200,29.0052225,41.0213205,ELF NCESU(Karikatrist/Yazar),711544791717322753,2020-02-14 06:19:08,"Erenky, stanbul",city,"stanbul, Trkiye",Trkiye
82,77.095086,28.638489500000002,Amar Nath Sonker,711544872512135168,2020-03-14 03:13:17,"New Delhi, India",city,"New Delhi, India",India
31700,-71.31605649999999,42.741090500000006,Nick Milano,711544882,2020-02-16 04:32:49,,city,"Pelham, NH",United States
88,139.4548165,36.358008,,711545011091808256,2020-03-05 13:17:51,,city, ,
47900,-77.0661695,39.05898,Tommy Thompson,711545069166333953,2020-03-18 12:50:32,,city,"Wheaton, MD",United States
88,141.135638,39.544934999999995, ,711545361265856512,2020-05-22 02:53:39,,city,"Shiwa-cho, Iwate",Japan
21,-35.90526815,-9.86119248,Danilo Costa,71154567,2020-03-25 17:36:53,So Jos do Rio Preto,city,"Roteiro, Brasil",Brasil
189,17.1344565,59.633964,Relampago Maikinho ,711545961953271808,2020-03-11 15:10:31,,city,"Enkping, Sverige",Sweden
88,139.06143799999998,37.912228000000006,,711546361456562178,2020-02-16 08:22:12,,poi, (Niigata Sta.),
186,2.1770099999999997,41.382690000000004,Josefina Goberna,711546429882437632,2020-02-14 08:58:24,,poi,Plaa de Sant Jaume,Espanya
88,139.33887149999998,35.898232500000006,,711546604952489985,2020-05-31 12:26:15,,city, ,
46060,-110.91557350000001,32.1893905,BKrispy,71154673,2020-02-16 02:08:51,"Tucson, Az",city,"Tucson, AZ",United States
49740,-114.41911950000001,32.6606735,BKrispy,71154673,2020-02-28 18:25:28,"Tucson, Az",city,"Fortuna Foothills, AZ",United States
46060,-110.91557350000001,32.1893905,BKrispy,71154673,2020-03-01 23:39:02,"Tucson, Az",city,"Tucson, AZ",United States
38060,-112.1246765,33.5528625,BKrispy,71154673,2020-05-29 07:34:28,"Tucson, Az",city,"Phoenix, AZ",United States
46060,-110.91557350000001,32.1893905,BKrispy,71154673,2020-05-29 20:21:58,"Tucson, Az",city,"Tucson, AZ",United States
21,-37.0526,-10.9162,Fabiano Souza,711546913,2020-03-24 16:11:27,"Aracaju, Brasil",city,"Aracaju, Brasil",Brasil
41980,-66.14052050000001,18.116260999999998,Hamza Eq,711547019156914176,2020-06-09 18:30:45,"Marrakech Mdina, Royaume du M",city,"Monte Llano, USA",Etats-Unis
9,145.0531355,-37.9725665,Sunny Kumar,711547202384998400,2020-02-14 05:47:18,"Laverton, Melbourne",city,"Melbourne, Victoria",Australia
19100,-97.116784,32.5735485,Adam D Blow,711547447349108738,2020-05-07 16:55:06,"Mansfield, TX",city,"Mansfield, TX",United States
88,138.5823465,36.351214,,711547574,2020-02-15 10:55:38,,city, ,
175,39.956812,21.458108, ,711547948295917569,2020-03-08 21:32:38,  ,poi,Deep Fries,  
21,-50.3477365,-28.001387,Cristian Nascimento,711548214185484289,2020-03-16 15:15:40,"Lages, Santa Catarina",city,"Lages, Brasil",Brasil
205,-0.40239050000000004,54.23876300000001,Simon M. Muir,711548227934355457,2020-03-29 20:06:57,"Scarborough, England",city,"Cayton, England",United Kingdom
120,101.4790765,3.1231455,Muhammad Firdaus,711548454498078722,2020-02-25 13:51:27,"Selangor, Malaysia",city,"Bukit Raja, Selangor",Malaysia
205,-1.4707785,52.91553,Pristine Lolita,711548512,2020-03-28 20:43:28,,city,"Derby, England",United Kingdom
211,-69.24762249999999,10.022704,Par de Fritos,711548715727777793,2020-04-13 15:56:53,"Lara, Venezuela",city,"Cabudare, Venezuela",Venezuela
186,-13.788098499999998,28.937534999999997,Juanca Rodrguez,711549158071668737,2020-04-01 08:54:51,Playa Blanca (Lanzarote) ,city,"Yaiza, Espaa",Espaa
45300,-82.44269399999997,27.9965945,AJ Gallina,71154922,2020-02-18 12:55:40,,city,"Tampa, FL",United States
28020,-85.56568850000001,42.29052400000001,Georden Endres,711549243434078208,2020-05-20 00:03:19,,city,"Kalamazoo, MI",United States
42940,-83.57759899999998,35.7992495,Georden Endres,711549243434078208,2020-05-31 17:06:05,,city,"Pigeon Forge, TN",United States
26420,-95.4464865,29.838495,Naimesh,71154941,2020-04-01 21:26:40,,city,"Houston, TX",United States
88,138.97674306,37.639207899999995,,711549446,2020-05-05 04:42:19,,city, ,
222,107.6226675,-6.934168,rikadesiani,71154953,2020-02-17 06:27:10,,city,"Lengkong, Indonesia",Indonesia
173,30.328698,59.934148,gyk,711549907,2020-02-17 10:08:55,"-, ",city,"-, ",
171,120.871999,14.2797435,blank,711549991970598913,2020-02-16 23:58:08,medellin,city,"Trece Martires City, Calabarzon",Republic of the Philippines
12740,-72.5981195,44.15253213,Igor Rabchinsky,711550119510994944,2020-05-02 07:36:01,"Belarus, Minsk",city,"Montpelier, VT",United States
82,80.1621765,12.9394605,Kaviarasu,711550256404570113,2020-03-19 07:46:59,"Chennai, India",city,"Sholinganallur, India",India
21,-43.441578,-22.911421500000003,laryssa,711550282237394944,2020-02-14 00:20:05,"Rio de Janeiro, Brasil",city,"Rio de Janeiro, Brasil",Brasil
171,121.1242275,14.606717499999998,,711550330048086019,2020-06-04 11:17:04,,city,"Cainta, Calabarzon",Republic of the Philippines
222,115.61481100000002,-8.363411,nela,711550330719358977,2020-04-04 11:22:41,,city,"Abang, Indonesia",Indonesia
15180,-97.2969585,26.108086,Mrs. Esparza,711550346930163713,2020-04-01 16:26:24,"Laguna Vista, TX",city,"Laguna Vista, TX",United States
37980,-75.117998,40.0048655,Jared,711550735,2020-02-17 08:21:27,,city,"Philadelphia, PA",United States
35620,-74.42313100000001,40.368129499999995,Jared,711550735,2020-03-22 06:45:50,,city,"Helmetta, NJ",United States
222,107.7045925,-6.905006500000002,Ten Rizal,711551191931457536,2020-05-25 07:04:37,Cipanas Lebak,city,"Ujungberung, Indonesia",Indonesia
24,-79.27256949999999,43.629311,Jim Connelly,711551535226851328,2020-06-03 09:52:50,,city,"Toronto, Ontario",Canada
39900,-119.7106945,39.57421650000001,mike ferro,711551664,2020-03-20 14:43:08,Sparks Nevada,city,"Sparks, NV",United States
205,-1.40940346,50.89942445,FreeSpirit,711551686163210240,2020-02-27 06:14:10,United Kingdom,city,"Southampton, England",United Kingdom
42660,-122.205946,47.773496,Craig Sherwood,711551832569487360,2020-05-03 23:45:39,"Bothell, WA",city,"Bothell, WA",United States
21,-51.968329,-23.4058225,Ministro da Propaganda Bissexual,711552024253435904,2020-02-17 00:32:14,"Maring, Brasil",city,"Maring, Brasil",Brasil
171,122.1472415,7.175472999999999,Liana Koh Villanueva,711552158836006912,2020-02-14 12:15:23,Ateneo de Zamboanga University,city,"Zamboanga City, Zamboanga Peninsula",Republic of the Philippines
82,88.4704965,23.6981465,suman pal,711552194500108288,2020-05-30 10:50:16,"karimpur ,balidanga ,nadia ,W.B.",city,"Krishananagar, India",India
38060,-111.8808735,33.2824505,miranda,711552241,2020-05-13 19:16:49,"Chandler, AZ",city,"Chandler, AZ",United States
88,130.555749,31.522809000000002,,711552580019589121,2020-05-30 22:18:19, ,city, ,
37860,-87.2211046,30.420923,"Ward & Barnes, Pensacola Injury Lawyers",711552787,2020-02-25 21:32:26,"Pensacola, Florida",city,"Pensacola, FL",United States
30620,-84.11402149999999,40.7524555,Todd Clark,711552932,2020-03-11 00:45:19,,city,"Lima, OH",United States
35840,-82.41631000000002,27.045677500000004,Todd Clark,711552932,2020-03-26 01:53:27,,city,"South Venice, FL",United States
88,133.649555,34.189067,  Ryo Sakoda,711552985931718656,2020-03-15 00:01:09,,poi,,Japan
38900,-122.69155373,45.52166789,Scott Leritz,71155299,2020-03-09 00:36:42,"Portland, Oregon",city,"Portland, OR",United States
222,110.3168365,-7.8147389999999985,rizki novanra,711553071176916992,2020-02-14 07:05:03,"Jakarta Selatan, DKI Jakarta",city,"Kasihan, Indonesia",Indonesia
119,-101.43044599999999,26.908917,Juand,71155348,2020-04-21 13:17:02,Aqui,poi,Midas,Mxico
31080,-118.4119065,34.0207895,Laya Rojas,711553525,2020-03-07 05:08:42,Pomona,city,"Los Angeles, CA",United States
31080,-118.37731299999999,33.854669,Michelle Penelope King,711553544055361536,2020-04-22 14:58:26,"Manhattan, NY",city,"Redondo Beach, CA",United States
88,137.3669115,36.568288,,711553616973201409,2020-03-06 14:18:19,,city, ,
88,135.59288999999998,34.485865999999994,,711553646689779713,2020-02-29 06:43:35,,city,"Tondabayashi-shi, Osaka",Japan
175,50.20176100000001,26.307814,,711553753703391232,2020-03-11 11:59:40,.,city,",   ",  
22060,-93.183242,44.46281,Jack Slavik,711553925313200128,2020-02-19 03:18:35,,poi,St Olaf College,United States
33460,-93.3361025,45.257961,Jack Slavik,711553925313200128,2020-03-20 22:41:59,,city,"Andover, MN",United States
120,103.39487902,4.12626559, ,711554163948171264,2020-02-16 11:55:15,Perlis - UITM Jengka,city,"Sungai Karang, Pahang",Malaysia
171,124.34398,11.629878999999999,SHOkwati,711554377656315904,2020-03-13 04:41:44,,poi,Dalutan Island,Republic of the Philippines
30300,-117.08615149999999,46.383404,lyss,711554414,2020-03-18 23:00:34,,city,"Clarkston Heights-Vineland, WA",United States
34140,-117.00073400000001,46.7347065,lyss,711554414,2020-05-23 05:21:58,,city,"Moscow, ID",United States
128,4.3581900000000005,51.2605565,Jimmy,711554560234536961,2020-03-03 19:52:39,"Antwerpen, Belgi",city,"Antwerp, Belgium",Belgium
11700,-82.613089,35.592993,2x,711554593482797056,2020-05-27 00:57:04,"Leicester, NC",poi,Camelot Court,United States
21,-48.536599,-22.3010585,Flavio Cunha,71155475,2020-04-21 22:13:47,Ja-SP,city,"Ja, Brasil",Brasil
26900,-85.7729815,39.5271365,casey,711554835695316993,2020-02-19 17:01:39,,city,"Shelbyville, IN",United States
12060,-84.37256904,33.78350009,Tricia Takanawa,711554886937255936,2020-05-04 01:09:09,"Atlanta, GA",city,"Atlanta, GA",United States
24,-73.56671638,45.509380799999995,SpotEv,711554895522959360,2020-03-08 00:29:15,"Montral, Qubec",city,"Montral, Qubec",Canada
29820,-115.13516499999999,36.060964500000004,Jessie Currie,71155494,2020-02-14 02:35:59,"Las Vegas,NV",city,"Paradise, NV",United States
34860,-94.6493115,31.6139415,Carly Saum ,711555266,2020-02-19 22:26:25,"McKinney, TX",city,"Nacogdoches, TX",United States
37580,-95.904951,33.583368,Carly Saum ,711555266,2020-03-29 03:27:34,"McKinney, TX",poi,Honey Grove VFW,United States
19100,-96.69960400000001,33.1946515,Carly Saum ,711555266,2020-04-01 03:49:33,"McKinney, TX",city,"McKinney, TX",United States
8,-58.5641745,-34.544659,Oscar di pietro,711555431290834944,2020-02-14 18:33:39,Ciudad Autnoma de Buenos Aire,city,"Ciudad del Libertador General San Martn, Argentina",Argentina
175,43.9595905,26.345051,Abdurahman Mohammad,711555443525607425,2020-03-11 19:12:25,,city,"Buraydah, Kingdom of Saudi Arabia",Kingdom of Saudi Arabia
95,126.98374784,37.55699888,@,711555468196335616,2020-02-26 11:41:17,,city, ,
88,139.76314399999998,35.636564,@,711555468196335616,2020-06-02 13:57:19,,poi, (Rainbow Bridge),
31080,-117.7823605,33.689732,Dara Afraz,71155547,2020-05-28 22:30:18,"California, USA",city,"Irvine, CA",United States
14460,-71.5507035,42.3458205,Chaggy,711555944,2020-03-17 13:08:04,,city,"Marlborough, MA",United States
49340,-71.663397,42.1314305,Chaggy,711555944,2020-03-24 00:20:05,,city,"Northbridge, MA",United States
21,-43.018208,-22.821465,Bianca,711555952240156672,2020-04-25 23:10:37,So Gonalo ,city,"So Gonalo, Brasil",Brasil
71,12.9167,50.8333,antti,7115562,2020-05-05 12:17:01,"Sachsen, Deutschland",city,"Chemnitz, Deutschland",Deutschland
21380,-96.187228,38.411349,ashlynne ,711556405052899328,2020-02-14 20:29:54,ig~ creatihvity ,city,"Emporia, KS",United States
29940,-95.1864875,38.7813645,ashlynne ,711556405052899328,2020-02-15 16:41:31,ig~ creatihvity ,city,"Baldwin City, KS",United States
21380,-96.187228,38.411349,ashlynne ,711556405052899328,2020-02-17 02:25:46,ig~ creatihvity ,city,"Emporia, KS",United States
48620,-97.343915,37.6838965,ashlynne ,711556405052899328,2020-02-27 23:58:47,ig~ creatihvity ,city,"Wichita, KS",United States
175,49.9945455,26.353591499999997,Noura H. Almatroodi,71155657,2020-02-16 03:22:31,Kingdom of Saudi Arabia,city,"Dammam, Kingdom of Saudi Arabia",Kingdom of Saudi Arabia
186,-1.987711,43.2778715,Juanito,711556784184553473,2020-03-20 09:42:24,,city,"Donostia-San Sebastin, Spain",Spain
21,-46.5955455,-23.682803,Edson_Santana,71155681,2020-03-25 10:44:02,So paulo,city,"Sao Paulo, Brazil",Brazil
205,-1.13936,53.517648,RigsbysguesthouseDon,711556812831596544,2020-05-29 12:02:05,"Doncaster, England",city,"Doncaster, England",United Kingdom
55,-89.252554,13.672356,,71155686,2020-02-16 19:27:07,"La Libertad, El Salvador",poi,Residencial Santa Elena,El Salvador
51,-7.888808500000001,52.46745,barry burke,711556892,2020-02-26 13:07:57,"South Tipperary, Ireland",city,"South Tipperary, Ireland",Ireland
37980,-75.117998,40.0048655,Cherelle ,711557220,2020-02-14 02:25:52,"Philadelphia, PA",city,"Philadelphia, PA",United States
16980,-87.732013,41.8335845,shoorty,711557261219332097,2020-02-16 02:35:50,"Chicago, IL",city,"Chicago, IL",United States
41860,-122.43597849999999,37.7706565,Marcuz J,71155751,2020-02-21 23:00:01,YAY AREA,city,"San Francisco, CA",United States
164,-8.621914,41.162141999999996,Gonalo,711557737419816960,2020-02-14 19:17:36,Pntano,city,"Porto, Portugal",Portugal
10,50.528121,26.202505,Fatima AlMughlaq,711557902729871360,2020-05-22 07:23:14,Bahrain,poi,"North Sehla, Kingdom of Bahrain",Bahrain
205,-0.09613,50.997937,FabRx,711557948607238144,2020-02-14 10:36:52,"London, England",city,"Haywards Heath, England",United Kingdom
171,120.96700000000001,14.6,nicuh,711558165750362112,2020-02-18 09:00:14,,city,"Manila City, National Capital Region",Republic of the Philippines
45300,-82.44269399999997,27.9965945,EstrellaFReport,711558188,2020-02-14 13:45:34,"Tampa, Florida",city,"Tampa, FL",United States
26420,-95.4464865,29.838495,bertrand nkali,711558307,2020-02-23 07:41:56,,city,"Houston, TX",United States
175,49.6276765,25.458642,Shahad,711558440913641476,2020-02-14 00:19:33,Kingdom of Saudi Arabia,city,",   ",  
82,86.3368645,20.8461655,Sourav Agarwal,711558481342402560,2020-06-03 03:48:40,"Sikar, India",city,"Jajpur, India",India
120,101.5778715,2.8533665,pian,711558510111121409,2020-02-17 13:11:31,"Trengganu, Malaysia",city,"Tanjong Dua Belas, Selangor",Malaysia
39900,-119.82718200000001,39.512436,Cherylyn Wood,711558530457690113,2020-03-05 14:13:42,,city,"Reno, NV",United States
33,-70.14589005,-20.21874909,Cristian Contreras,71155862,2020-03-11 00:02:02,,city,"Iquique, Chile",Chile
24,-79.27256949999999,43.629311,,711558708988223490,2020-04-19 22:41:00,"Toronto, Ontario",city,"Toronto, Ontario",Canada
12060,-84.43310600000001,33.7671945,Christian Berenguer,711558726914859008,2020-03-20 16:53:59,"Miami, FL",city,"Atlanta, GA",United States
24,-75.625038,45.4827445,"Alain Nantel CPA, CA",711558877,2020-04-05 23:49:42,"Gatineau, Qubec, Canada",city,"Gatineau, Qubec",Canada
200,29.0052225,41.0213205,smeyya ,711559001012568064,2020-02-15 10:24:49,,city,"stanbul, Trkiye",Trkiye
20700,-75.40398250000001,40.92313950000001,Michael Frost,711559208,2020-02-22 22:04:22,"Pocono Mountains, PA",city,"Brodheadsville, PA",United States
10900,-75.61729299999998,40.8014895,Michael Frost,711559208,2020-02-23 17:59:06,"Pocono Mountains, PA",city,"Palmerton, PA",United States
20700,-75.51169300000001,40.893165,Michael Frost,711559208,2020-03-22 18:06:22,"Pocono Mountains, PA",poi,"Kresgeville, PA",United States
21,-42.9761935,-21.111988,Milena,711559231900672000,2020-02-14 02:04:23,"Minas Gerais, Brasil",city,"Ub, Brasil",Brasil
193,100.910761,12.691891,,711559503867564032,2020-04-07 07:32:01,,city,"Sattahip, Thailand",Thailand
96,47.68203,29.344890999999997,  ,711559566044037120,2020-03-29 18:58:33,",  ",poi,ALQaser - block 1, 
222,106.83253500000001,-6.220307,Indri P Santoso,71155962,2020-05-20 15:57:54,lebak bulus-fatmawati,poi,Metropolitan Medical Centre (MMC),Indonesia
171,121.0627355,14.683012,denden,711559748672294912,2020-03-09 01:46:06,Manila,city,"Quezon City, National Capital Region",Republic of the Philippines
91,39.64949,-4.032641,lbert,711559764573032448,2020-05-05 14:06:21,"Mombasa, Kenya",poi,makupa,Kenya
120,103.587898,1.398916,SHAHEJAD,71155978,2020-02-14 15:42:49,"Perak, Malaysia",city,"Tanjong Kupang, Johor",Malaysia
33,-73.16689550000002,-39.8334805,ROCIO SAINT-JEAN,71155990,2020-03-25 12:26:06,"Valdivia, Chile",city,"Valdivia, Chile",Chile
186,2.769968,39.39169800000001,Cirila Valmaggia,711560071805853697,2020-03-20 15:03:06,,city,"Palma, Espaa",Espaa
222,107.337,-6.83472,hildaa ananda,711560267369349123,2020-05-24 09:29:28,"Kota Bandung, Jawa Barat",city,"Cipatat, Indonesia",Indonesia
31140,-85.4804965,38.261641999999995,Pete Vorholt,711560268271190016,2020-03-17 17:53:54,,city,"Beckley, KY",United States
153,10.780703,60.9770265,Perry,711560430083248128,2020-03-30 06:12:54,Norway,city,"Ringsaker, Norge",Norway
35380,-90.108205,29.8372455,,711560995554988032,2020-03-08 14:40:08,"New Orleans, LA",city,"Estelle, LA",United States
82,76.964486,11.0281619,Sachin Sarathy,711561247662080000,2020-04-20 08:53:10,"Coimbatore, India",city,"Coimbatore, India",India
193,100.57220827,13.71716128,Pattra Apinyawat,71156125,2020-03-07 12:04:53,"Bangkok, Thailand",city,"Khlong Tan, Thailand",Thailand
48260,-80.72703100000003,40.364942,Coach Todd,711561433452949504,2020-02-18 02:51:26,"Wintersville, OH",city,"Wintersville, OH",United States
85,12.644964,45.535383,,711561890086916097,2020-02-14 09:19:52,"Jesolo, Veneto",city,"Jesolo, Veneto",Italy
88,139.6262955,35.69816249999999, ,711562126708441088,2020-03-30 10:28:33,,city, ,
158,174.8562435,-36.595729,CaRiTo (:),71156239,2020-03-18 05:42:13,Bogota,city,"Auckland, New Zealand",Nueva Zelanda
8,-58.25883500000001,-37.84894850000001,mayma,711562463,2020-03-25 19:39:05,"Balcarce, Argentina",city,"Balcarce, Argentina",Argentina
33,-70.52861800000001,-33.721169,Patricia,711562534692724736,2020-02-14 09:20:12,,city,"Pirque, Chile",Chile
16580,-88.22539,40.110541,Rieka,711562557077725184,2020-03-07 21:07:04,,poi,University of Illinois,United States
14010,-88.9915295,40.52477500000001,Rieka,711562557077725184,2020-03-29 04:54:41,,city,"Normal, IL",United States
33100,-80.13296249999998,25.8169655,Rieka,711562557077725184,2020-06-01 16:49:47,,city,"Miami Beach, FL",United States
82,80.745633,27.8421145,Rakesh Kumar Gupta,711562740750389248,2020-02-26 18:12:12,Uttar Pradesh. India,city,"Oel, India",India
35620,-73.9487755,40.655138,Yasir B. Erylmaz,71156280,2020-02-18 06:53:44,"Brooklyn, NY",city,"Brooklyn, NY",United States
205,-0.58573,51.160804,Elaine Singleton,71156288,2020-02-15 08:15:09,United Kingdom,city,"North Munstead, England",United Kingdom
16980,-87.732013,41.8335845,Elaine Singleton,71156288,2020-02-25 12:35:59,United Kingdom,city,"Chicago, IL",United States
38,-74.0794,4.5997,Nicolexis Ortiz P.,711563226,2020-03-31 05:41:34,Bogot,city,"Bogot, D.C., Colombia",Colombia
20500,-78.9836335,36.3898045,Perrygirl224,711563253109755904,2020-05-21 22:37:55,United States,city,"Roxboro, NC",United States
35620,-73.8669,40.85,DR.jimenez Escoto,711563286316257280,2020-02-16 07:38:47,,city,"Bronx, NY",Estados Unidos
16740,-80.63113150000002,35.4019815,Brian Allie,711563356067520512,2020-02-20 15:09:07,"Charlotte, NC",city,"Concord, NC",United States
19820,-83.75609250000001,42.55489350000001,Angela Zacharias,711563397284769793,2020-04-24 19:45:19,"Michigan, USA",city,"Brighton, MI",United States
164,-8.58333,41.7667,Jess,711563493,2020-03-23 17:49:28,Paris - Ponte de Lima,city,"Ponte de Lima, Portugal",Portugal
65,2.40573,48.7338499,Jess,711563493,2020-04-02 18:00:50,Paris - Ponte de Lima,city,"Villeneuve-le-Roi, France",France
200,29.0052225,41.0213205,Walid Ghanem,71156363,2020-04-11 08:44:35,Trkiye,city,"stanbul, Trkiye",Turkey
82,82.93295549999998,25.3733755,Sanjay rai,711563667209256960,2020-04-17 03:42:59,varanasi,city,"Varanasi, India",India
153,10.4641575,59.413742000000006,Marit Geraldine Bostad,711563699748794368,2020-03-04 12:13:17,"Horten, Norway",city,"Horten, Norge",Norge
211,-66.71377644,10.61990296,@guardianesdealtamar,711564008894177281,2020-02-23 11:40:03,"Vargas, Venezuela",city,"Camuri Grande, Venezuela",Venezuela
24660,-79.85736349999998,36.090397,Pauleze Fitzgerald,711564558003871745,2020-02-17 23:49:29,"Greensboro, NC",city,"Greensboro, NC",United States
16740,-80.8467855,35.209059,Pauleze Fitzgerald,711564558003871745,2020-02-29 16:19:11,"Greensboro, NC",city,"Charlotte, NC",United States
24660,-79.85736349999998,36.090397,Pauleze Fitzgerald,711564558003871745,2020-03-03 06:22:29,"Greensboro, NC",city,"Greensboro, NC",United States
12060,-85.023833,33.571365,Allatoona High School Women's Golf ,711564688002252800,2020-02-17 17:00:29,"Acworth, GA",poi,Oak Mountain Golf Course,United States
42340,-81.0911,32.0811,Allatoona High School Women's Golf ,711564688002252800,2020-02-29 04:12:27,"Acworth, GA",city,"Savannah, GA",United States
33100,-80.1783915,26.03968,jyyyyyyy,711564854,2020-03-03 15:33:19,Everywhere,city,"Hollywood, FL",United States
119,-106.2717475,23.46814,Michael Klaas,71156498,2020-02-17 23:17:57,"Portland, OR",city,"Mazatln, Sinaloa",Mexico
38900,-122.80557900000001,45.484891999999995,Michael Klaas,71156498,2020-03-05 01:52:14,"Portland, OR",city,"Beaverton, OR",United States
21,-35.2969315,-8.118665400000001,Ewerson Vasconcelos,711564992559124481,2020-02-23 02:33:17,"Vitria de Santo Anto, Brasil",city,"Vitria de Santo Anto, Brasil",Brasil
85,12.453333,41.903333,Ewerson Vasconcelos,711564992559124481,2020-03-28 16:17:04,"Vitria de Santo Anto, Brasil",city,Cidade do Vaticano,Cidade do Vaticano
21,-35.2958,-8.1194,Ewerson Vasconcelos,711564992559124481,2020-03-29 22:16:23,"Vitria de Santo Anto, Brasil",city,"Vitria de Santo Anto, Brasil",Brasil
21,-46.99152,-20.917170000000002,Rodrigo Souza,71156501,2020-05-10 13:20:16,So Sebastio do Paraso-MG,city,"So Sebastio do Paraso, Brasil",Brasil
186,-3.7035075,40.4777945,Lady Lisa W ,711565355,2020-03-01 23:13:46,,city,"Madrid, Espaa",Espaa
205,-2.1556405,53.41460849999999,Lady Lisa W ,711565355,2020-03-10 21:58:23,,city,"Stockport, England",United Kingdom
88,137.242758,35.808246999999994,bot,711565398991212544,2020-02-24 01:37:12,,poi, (Gero Onsen),Japan
186,-0.4879585,39.50382000000001,Xavi Estacio,711565401931554817,2020-04-03 18:24:52,,city,"Manises, Spain",Spain
88,137.1189355,35.2401225, ,711566120633761792,2020-02-23 08:27:04,,city,"Seto-shi, Aichi",Japan
88,136.687116,36.506127,,711566314322599938,2020-03-13 11:05:54,,city, ,
47900,-77.55304799999998,39.101836,Amy Turner,711566360,2020-03-11 00:56:03,,city,"Leesburg, VA",United States
186,-4.674251,37.8476005,Vicente Martn,711566628635459585,2020-03-04 21:19:47,"Crdoba, Espaa",city,"Crdoba, Espaa",Espaa
38,-74.849933,10.958072999999999,Mauricio Rodriguez,711566680086945792,2020-05-03 21:41:24,"Bogot, D.C., Colombia",city,"Barranquilla, Colombia",Colombia
88,136.687116,36.506127,@M,711566684851535872,2020-03-07 11:38:46,,city,"Kanazawa-shi, Ishikawa",Japan
14460,-71.178616,42.372046000000005,Kourtney Kennedy,711566695,2020-03-18 01:12:54,,city,"Watertown, MA",United States
8,-61.176405,-33.045613,Daii.Whitehead,711566727646203904,2020-02-14 16:45:25,"Casilda, Argentina",city,"Casilda, Argentina",Argentina
37980,-75.13786200000001,40.1843485,Adams Family Values,711566823012089856,2020-04-05 20:16:31,"Pennsylvania, USA",city,"Horsham, PA",United States
21,-49.156652,-26.423265,TISKO,711566907699290113,2020-03-21 22:24:43,"Jaragu do Sul, Brasil",city,"Jaragu do Sul, Brasil",Brasil
21,-41.431886,-21.6578495,cirin,711567018764443648,2020-02-14 01:59:13,022,city,"Campos dos Goytacazes, Brasil",Brasil
200,29.0052225,41.0213205,metin ztrk,711567093863477248,2020-05-29 08:07:02,,city,"stanbul, Trkiye",Trkiye
8,-58.013021499999994,-34.9363185,valentinazi,711567205,2020-02-14 00:22:10,"La Plata, Argentina",city,"La Plata, Argentina",Argentina
35620,-73.9487755,40.655138,sanj,711567632,2020-05-31 00:24:38,,city,"Brooklyn, NY",United States
19300,-87.6878,30.271,Laurie Nave,711567710468104192,2020-06-06 14:25:38,Sunny Southeast,city,"Gulf Shores, AL",United States
44180,-92.680465,38.128227,John Budde,711567822401511424,2020-04-11 00:41:43,"Sappington, MO",city,"Laguna Beach, MO",United States
161,67.0421945,24.9050755,Ovais Maskatia,711567934469050368,2020-04-26 23:04:15,"Karachi,Pakistan",city,"Karachi, Pakistan",Pakistan
178,29.29547583,-30.94912958,Thulile Mambi eNtshentshe,711567949719584768,2020-05-10 21:10:26,Mt Ayliff,city,"Tabankulu, South Africa",South Africa
171,123.196582,13.632817000000001,,711568450129252352,2020-03-08 11:25:38,,poi,Avenue Plaza Hotel,Republic of the Philippines
88,139.11835200000002,35.704197,forumeast,711568676076412928,2020-06-02 03:35:37,,poi,Travel Trailer Cafe ,Japan
16980,-87.732013,41.8335845,The_Bratt ,711568694,2020-04-17 19:29:06,,city,"Chicago, IL",United States
31080,-118.4119065,34.0207895,slingyjock_86,711568822369710080,2020-02-20 02:31:12,"Los Angeles, CA",city,"Los Angeles, CA",United States
21,-46.6333,-23.55,Wilian Kamada,711568892,2020-02-15 22:21:57,,city,"So Paulo, Brasil",Brasil
48,-68.3682661,18.5624962,Wilian Kamada,711568892,2020-04-02 22:41:36,,city,"Higey, Dominican Republic",Dominican Republic
21,-46.5994648,-23.5358676,Wilian Kamada,711568892,2020-04-11 23:31:17,,city,"So Paulo, Brasil",Brasil
119,-86.77894592,21.06463783,Wilian Kamada,711568892,2020-04-24 23:56:31,,city,"Benito Jurez, Quintana Roo",Mxico
21,-46.6333,-23.55,Wilian Kamada,711568892,2020-05-12 21:38:00,,city,"So Paulo, Brasil",Brasil
119,-88.56778,20.684282,Wilian Kamada,711568892,2020-05-29 10:36:55,,city,"Tinum, Yucatn",Mxico
21,-46.6252799,-23.52861,Wilian Kamada,711568892,2020-06-05 19:15:01,,city,"So Paulo, Brasil",Brasil
113,-3.938508,35.23603950000001,Mercure Quemado,711569069766529026,2020-02-26 19:23:14,"Al Hoceima, Morocco",city,"Al Hoceima, Morocco",Morocco
178,30.3537815,-29.6164,Sinenkosi,711569164,2020-02-20 11:43:01,KwaNkosi ,city,"Pietermaritzburg, South Africa",South Africa
88,139.63423663,35.43951721,@,711569269411024896,2020-02-17 13:00:18,,city,"Yokohama-shi Naka-ku, Kanagawa",Japan
188,32.5450035,15.5244125,,711569336704565248,2020-02-14 17:15:07,,city,Khartoum,
205,-1.172266,52.969719,Anthony Belling,711569592,2020-02-18 18:58:29,"East Midlands, England",city,"Nottingham, England",United Kingdom
82,77.4233395,28.773568,Agnivesh Tilak Raj,711569759066677249,2020-05-10 13:05:39,"Ghaziabad, India",city,"Ghaziabad, India",India
178,31.064557500000003,-29.7345555,Queen Yenzi ,711569809746599936,2020-02-17 07:55:38,South Africa,city,"Umhlanga, South Africa",South Africa
222,106.85843500000001,-6.181985,Tommy Barandi,71156989,2020-05-17 21:58:30,"T: -6.1818444,106.8577968",poi,Tongkrongan anak-anak WD,Indonesia
82,72.99456649999998,20.413642000000003,Sunil kharat,711569973328666625,2020-04-12 12:47:16,", ",city,"Vapi, India",India
