currentGEOID,lon,lat,name,author_Id,created_at,location,place_type,place_full_name,place_country
21780,-87.5746905,38.003466499999995,DeMarcus  (Keve),33100601,2020-03-02 09:02:09,"Evansville, IN",city,"Evansville, IN",United States
119,-116.929102,32.332876500000005,Jose Luis ,3310060153,2020-03-29 07:41:52,"Tijuana, Baja California",city,"Tijuana, Baja California",Mexico
41860,-122.281278,37.964937,Jose Luis ,3310060153,2020-04-10 00:36:27,"Tijuana, Baja California",city,"El Sobrante, CA",United States
119,-116.929102,32.332876500000005,Jose Luis ,3310060153,2020-04-17 04:41:41,"Tijuana, Baja California",city,"Tijuana, Baja California",Mexico
41740,-117.022463,32.633767,Jose Luis ,3310060153,2020-06-02 05:11:24,"Tijuana, Baja California",city,"Chula Vista, CA",United States
119,-116.929102,32.332876500000005,Jose Luis ,3310060153,2020-06-02 16:30:22,"Tijuana, Baja California",city,"Tijuana, Baja California",Mexico
41740,-117.10498899999999,32.810012,Jose Luis ,3310060153,2020-06-02 18:50:52,"Tijuana, Baja California",city,"San Diego, CA",United States
41860,-122.281278,37.964937,Jose Luis ,3310060153,2020-06-03 05:21:45,"Tijuana, Baja California",city,"El Sobrante, CA",United States
188,32.547038,15.340295000000001,Mosab Habib,3310060864,2020-06-06 12:37:42,,poi,Alsulimania MTN Rpt,
35620,-73.9487755,40.655138,Daniel Higuera,3310061061,2020-02-17 21:55:48,"Columbus, OH",city,"Brooklyn, NY",United States
49340,-71.812438,42.27576000000001,Daniel Higuera,3310061061,2020-05-05 01:48:51,"Columbus, OH",city,"Worcester, MA",United States
88,135.201575,34.9547715,Aya,3310061564,2020-02-24 02:29:09,,city,"Sanda-shi, Hyogo",Japan
10420,-81.6447,41.0989,L. Rockers-Mihelich,33100619,2020-02-15 00:35:50,Ohio,city,"Copley, OH",United States
29180,-92.0611765,30.206079000000006,Hyperbolic Gas Chamber,3310062332,2020-02-14 00:10:24,"Lafayette, LA",city,"Lafayette, LA",United States
10780,-92.4001915,31.343874,Snack Plug ,3310062332,2020-04-17 18:30:25,"Lafayette, LA",city,"Pineville, LA",United States
29180,-92.1123075,30.239502500000004,Snack Plug ,3310062332,2020-04-17 22:11:42,"Lafayette, LA",city,"Scott, LA",United States
12940,-91.0907995,30.4591,Snack Plug ,3310062332,2020-06-01 17:40:15,"Lafayette, LA",city,"Baton Rouge, LA",United States
29180,-92.0611765,30.206079000000006,Snack Plug ,3310062332,2020-06-03 02:53:15,"Lafayette, LA",city,"Lafayette, LA",United States
171,121.0627355,14.683012,Rizza Yna Hontonares Magan,3310062662,2020-04-01 10:26:10,South Korea,city,"Quezon City, National Capital Region",Republic of the Philippines
205,-0.1806715,51.241064,Jack David Owen,331006317,2020-02-24 22:06:32,,city,"Redhill, South East",United Kingdom
26420,-95.4464865,29.838495,BretLocandro,3310064760,2020-02-21 13:54:43,"Cypress, Tx",city,"Houston, TX",United States
82,72.57023199999999,23.013959,NIMIT DAVE,331006525,2020-02-26 08:06:35,"Ahmadabad City, Gujarat",city,"Ahmadabad City, India",India
10900,-75.2941345,40.747029,Travis Ressler,3310066367,2020-03-03 13:28:29,,city,"Eastlawn Gardens, PA",United States
171,120.52068,16.1223315,John Roper,3310066639,2020-04-17 11:46:06,"Pozorrubio, Ilocos Region",city,"Pozorrubio, Ilocos Region",Republic of the Philippines
41700,-98.5406515,29.417501,Kailys Matthews,3310067280,2020-02-28 06:54:08,"Texas, US",city,"San Antonio, TX",United States
119,-98.893551,19.489644000000002,Iesus Alexander,3310067766,2020-02-14 17:29:01,Mexico ,city,"Texcoco, Mxico",Mxico
200,28.68363449,41.04187311,Serkan Hacosmanolu,331006779,2020-02-15 06:01:53,Trabzon ,city,"stanbul, Trkiye",Trkiye
171,121.6264105,13.940447500000001,,3310068949,2020-02-14 00:30:01,bangkok itaas,city,"Lucena City, Calabarzon",Republic of the Philippines
205,-2.7155145000000003,51.814811,Jimmy Lee,331006999,2020-02-26 22:01:43,Wales,city,"Monmouth, Wales",United Kingdom
85,10.93146,44.2656585,MAB,331007077,2020-02-27 14:17:39,"Montese, Emilia Romagna",city,"Montese, Emilia Romagna",Itlia
88,139.704591,35.691602,Shelby  / Jewelry,3310071114,2020-03-27 07:08:34, ,poi, ,
39,-85.09580600000001,10.426655,Tatiana Soto,3310072108,2020-06-08 18:23:27,,city,"Canas, Costa Rica",Costa Rica
26420,-95.36710699999999,29.755035999999997,Tobias Tranny Teaser,3310072197,2020-02-15 17:48:29,"Roswell, GA",poi,Corner of Dallas and Main,United States
34820,-78.688827,33.82451399999999,Jon Rhodes,3310072199,2020-04-05 20:16:35,"North Myrtle Beach, SC",city,"North Myrtle Beach, SC",United States
119,-107.3420565,24.662488500000002,Matz is Sad,3310072566,2020-05-14 03:32:31,"Sinaloa, Mxico",city,"Culiacn, Sinaloa",Mexico
21,-43.441578,-22.911421500000003,lucas motta,3310072822,2020-05-04 23:24:28,Recreio dos Bandeirantes,city,"Rio de Janeiro, Brasil",Brasil
9,150.931975,-33.848244,"Shane, The Dodgy Crusader",3310073043,2020-02-17 05:12:38,,city,"Sydney, New South Wales",Australia
21,-43.43008,-22.820062,Manu,3310073992,2020-02-14 17:42:12,"Bahia, Brasil",city,"Nilpolis, Brasil",Brasil
26420,-95.087029,29.497157,jp gonzalez ,3310075398,2020-03-08 22:53:37,"Texas, USA",city,"League City, TX",United States
21,-49.109626500000005,-26.872810499999996,Matheus Miranda,3310076273,2020-02-14 00:17:25,"Belm, Brasil",city,"Blumenau, Brasil",Brasil
222,110.4087895,-7.7676955,Als,331007629,2020-02-15 16:10:58,+62,city,"Depok, Indonesia",Indonesia
21,-43.441578,-22.911421500000003,Eliza Nobody,33100764,2020-02-23 20:19:56,Mars,city,"Rio de Janeiro, Brasil",Brasil
21,-43.441578,-22.911421500000003,carol viveu,3310076609,2020-04-23 02:34:31,"Rio de Janeiro, Brasil",city,"Rio de Janeiro, Brasil",Brasil
171,120.96950149999999,14.430456499999998,not jodi,3310077530,2020-04-17 05:38:21,home,city,"Bacoor, Calabarzon",Republic of the Philippines
21,-43.426891999999995,-22.749726000000003,J U A N ,3310078037,2020-03-15 08:56:36,"Nova Iguau, Brasil",poi,Nosso Hortifruti,Brasil
21,-42.9761935,-21.111988,Plastiguy,3310078503,2020-05-23 17:14:29,,city,"Ub, Brasil",Brasil
21,-44.5230265,-22.441994, ,3310079313,2020-04-04 22:19:27,,city,"Resende, Brasil",Brasil
31080,-117.975154,34.094001,DADMOON,3310080140,2020-05-28 20:18:06, IN HER GUT,city,"Baldwin Park, CA",United States
40140,-116.9030105,33.9251585,DADMOON,3310080140,2020-05-30 00:24:32, IN HER GUT,city,"Banning, CA",United States
186,-5.59980428,43.51208264,Tito Bango,331008020,2020-05-26 00:12:56,"Gijn, Espaa",city,"Gijn, Espaa",Espaa
47580,-83.641199,32.58263,Taylor Rodgers,331008055,2020-02-15 23:43:51,"Columbus, GA",city,"Warner Robins, GA",United States
17980,-84.917307,32.4823035,Taylor Rodgers,331008055,2020-02-16 15:58:20,"Columbus, GA",city,"Columbus, GA",United States
33100,-80.31360600000001,26.026816,Sa'nyaa,3310081692,2020-03-29 21:28:12,"Pembroke Pines, FL",poi,Starbucks,United States
21,-48.97251900000001,-16.305135,jojo,3310082297,2020-02-16 08:58:19,,city,"Anpolis, Brasil",Brasil
21,-41.941329,-22.470358500000003,Meno M.,3310082421,2020-02-14 15:34:46,"Rio das Ostras, Brasil",city,"Rio das Ostras, Brasil",Brasil
12060,-84.340338,34.041211499999996,Raven Pasibe,331008276,2020-04-07 17:26:33,"Dallas, TX",city,"Roswell, GA",United States
46060,-110.91557350000001,32.1893905,Andrea Romero,3310083104,2020-02-14 12:17:05,"Tucson, AZ",city,"Tucson, AZ",United States
24,-81.187524,42.77807249999999,,33100832,2020-04-16 18:57:25,Canada,city,"St. Thomas, Ontario",Canada
88,135.5197275,34.676626500000005,,3310083606,2020-06-09 08:59:50,,city,  ,
19100,-96.6021425,32.7749375,Sarah MacLachlan,3310084328,2020-02-20 23:42:17,,city,"Mesquite, TX",United States
21,-49.261299,-16.642782500000003,Cludio Grande Jr.,3310084445,2020-04-24 07:57:04,"Goinia, Gois, Brasil",city,"Goinia, Brasil",Brasil
47900,-77.00443983,38.89065955,Cludio Grande Jr.,3310084445,2020-05-21 12:43:01,"Goinia, Gois, Brasil",city,"Washington, DC",Estados Unidos
21,-49.261299,-16.642782500000003,Cludio Grande Jr.,3310084445,2020-05-23 13:53:43,"Goinia, Gois, Brasil",city,"Goinia, Brasil",Brasil
19100,-96.994833,32.768591,abby ,3310084855,2020-02-23 05:32:31,,city,"Grand Prairie, TX",United States
21,-43.56036387,-22.87484952,@ewenarros__,3310084948,2020-02-28 11:52:05,"27,  36 graus",city,"Rio de Janeiro, Brasil",Brasil
17460,-81.660679,41.503726,Sarah Schwab,33100857,2020-03-07 13:24:23,"Cleveland, OH",poi,American Red Cross Of Greater Cleveland,United States
36540,-96.053431,41.275721,Tyler Osborne,33100871,2020-03-23 23:53:21,"T: 42.7884935,-96.9337",city,"Omaha, NE",United States
175,46.685077,24.7219435, ,3310087105,2020-04-05 21:07:33,,city,",   ",  
31080,-118.222017,33.8849685,Esmeralda,3310087237,2020-02-14 03:52:51,,city,"Compton, CA",United States
24,-79.27256949999999,43.629311,The Nail and Champagne Bar,3310087445,2020-02-18 23:46:12,"Toronto, Ontario",city,"Toronto, Ontario",Canada
18140,-82.985772,39.9946835,Harun Adan,3310087451,2020-02-14 22:34:19,"Columbus, OH",city,"Columbus, OH",United States
41860,-122.46615142,37.76348717,"Kelly, a reSister",33100879,2020-03-08 16:39:04,The ZoSO SF CA,city,"San Francisco, CA",United States
38300,-80.25528,40.496,"Kelly, a reSister",33100879,2020-03-15 22:16:29,The ZoSO SF CA,city,"Moon, PA",United States
41860,-122.419,37.7793,"Kelly, a reSister",33100879,2020-03-20 21:01:02,The ZoSO SF CA,city,"San Francisco, CA",United States
89,-76.793832,17.9659,kaya,3310088125,2020-04-15 05:22:38,,poi,Kingston,Jamaica
12540,-119.025163,35.3469015,Harman,3310090253,2020-02-14 22:39:36,"California, USA",city,"Bakersfield, CA",United States
119,-99.1642825,19.543933000000006,chips fuego,3310090501,2020-02-18 02:03:52,,city,"Tlalnepantla de Baz, Mxico",Mxico
88,134.71140963,34.83889821,,3310090627,2020-02-15 11:53:35,,city, ,
42660,-122.33242,47.59944,JJ Forgath,3310090746,2020-02-28 08:10:43,"Cannon Beach, OR",city,"Seattle, WA",United States
24,-123.10091200000001,49.2550116,JJ Forgath,3310090746,2020-03-31 05:06:57,"Cannon Beach, OR",city,"Vancouver, British Columbia",Canada
35620,-73.93254759999999,40.7053795,JJ Forgath,3310090746,2020-04-06 08:26:06,"Cannon Beach, OR",city,"Brooklyn, NY",United States
38900,-122.678249,45.518237,JJ Forgath,3310090746,2020-06-06 00:59:59,"Cannon Beach, OR",city,"Portland, OR",United States
200,34.9517415,40.552259,zel Makam ofr,3310090803,2020-02-14 01:43:03,"orum Merkez, orum",city,"orum, Trkiye",Trkiye
33,-70.679614,-33.384291999999995,JL PRO LINE,3310091213,2020-02-27 23:52:31,"Metropolitana de Santiago, Chi",city,"Conchal, Chile",Chile
21,-43.441578,-22.911421500000003,J.,3310092328,2020-02-14 02:29:29,Rio de Janeiro ,city,"Rio de Janeiro, Brasil",Brasil
8,-58.35428,-34.8102,Caro Montiel #AIRBAG,331009257,2020-04-25 18:58:03,Buenos Aires Argentina,city,"Almirante Brown, Argentina",Argentina
65,-0.09109049999999999,44.589934,fabien33123,3310092664,2020-02-15 03:19:34,"Gironde-sur-Dropt, France",city,"Gironde-sur-Dropt, France",France
88,136.816339,34.85942,,3310092750,2020-03-07 00:42:42, ,poi, (Central Japan International Airport Sta.) (TA24),
82,80.88440750000002,26.8251695,rohit agarwal,331009315,2020-05-07 00:56:19,"Lucknow, India",city,"Lucknow, India",India
205,-0.1815875,51.3618975,Paul Mclaughlin,331009398,2020-03-18 19:23:16,United Kingdom,city,"Sutton, London",United Kingdom
31700,-71.4516,42.9863,Retail_Richard,3310094500,2020-05-03 16:59:54,"Manchester, NH",city,"Manchester, NH",United States
88,138.93595,37.650809,,3310095192,2020-02-24 07:27:03, ,poi, ,
211,-66.930644,10.483539,23 EN VICTORIA,331009728,2020-04-07 06:59:20,CARACAS,city,"Caracas, Venezuela",Venezuela
96,47.930075,29.302342,,3310098042,2020-02-20 09:23:13,,poi,Cinescape (), 
82,85.85341199999998,20.2491085,Sandip Syannu,3310098072,2020-04-15 22:11:27,Bhubaneswar ,city,"Bhubaneshwar, India",India
21,-43.803105,-22.879409,Lenon,3310098382,2020-02-14 03:27:18,Outro Patamar ,city,"Itagua, Brasil",Brasil
200,40.517653499999994,41.0293075,Tarkan Turkey,331009849,2020-06-05 12:21:50,Tarkan Hakknda Herey Burada.,city,"Rize, Trkiye",Trkiye
21,-43.018208,-22.821465,Milena,3310099451,2020-04-24 15:28:47,"Vista Alegre, So Gonalo",city,"So Gonalo, Brasil",Brasil
12420,-97.8279,30.5214,Charletta,3310099915,2020-03-09 03:47:50,,city,"Cedar Park, TX",United States
36420,-97.58467413,35.51649691,Charletta,3310099915,2020-03-29 15:50:26,,city,"Oklahoma City, OK",United States
21,-43.959822499999994,-19.918692,cansada,331010028,2020-02-15 15:24:57,Belo Horizonte - MG,city,"Belo Horizonte, Brasil",Brasil
35620,-73.32243199999999,40.737583,Tee ,33101007,2020-02-22 15:06:06,(631) ,poi,LA Fitness,United States
34900,-122.30626399999998,38.2970715,capt_ron,3310100906,2020-03-14 03:35:04,"Napa, CA",city,"Napa, CA",United States
21,-41.941329,-22.470358500000003,Yas,3310101718,2020-02-14 00:44:35,"Rio das Ostras, Rio de Janeiro",city,"Rio das Ostras, Brasil",Brasil
38,-74.24367099999999,4.2622835,Juan carlos Cabrera,3310101832,2020-03-31 02:49:56,"Bogot, D.C., Colombia",city,"Bogot, D.C., Colombia",Colombia
222,112.8028965,-7.288131,Icha,33101019,2020-05-25 10:58:04,,city,"Sukolilo, Indonesia",Indonesia
38660,-66.94540649999999,17.962578999999995,#yo free#,3310102189,2020-04-16 14:50:04,,city,"Montalva, USA",Estados Unidos
21,-35.000225,-8.110118,Camila Alves,3310103434,2020-05-03 11:20:37,"Recife, Brasil",poi,Reserva Villa Natal,Brasil
34620,-85.39135,40.1972405,riley neumeier,3310103451,2020-03-13 21:34:57,,city,"Muncie, IN",United States
23060,-85.1700515,41.086917,riley neumeier,3310103451,2020-03-17 20:04:59,,city,"Fort Wayne, IN",United States
186,-5.0632815,43.314291499999996,Joseluiscangas,331010376,2020-03-21 21:24:48,Cangas de Ons,city,"Cangas de Ons, Espaa",Espaa
35620,-74.00076130000001,40.7207559,baldie revolution,3310104092,2020-04-25 18:41:41,the barbershop,city,"Manhattan, NY",United States
33,-71.5365998,-33.0632397,CDIGO ELKEVINX192,3310104573,2020-02-18 02:55:48,Via del mar forestal alto,city,"Via del Mar, Chile",Chile
88,127.72818899999999,26.193269,,3310104888,2020-05-23 15:40:21,,city, ,
17900,-81.040035,34.002756,Jhevon Daughtry,3310104999,2020-05-30 23:29:29,"Blythewood, SC",poi,City Of Columbia Police Department,United States
19100,-97.09337,32.710516999999996,emily,3310105454,2020-02-17 00:36:25,"Fort Worth, TX",poi,AT&T Stadium,United States
33700,-120.8624785,37.499596000000004,Raj,3310105681,2020-02-16 06:58:53,"Turlock, CA",city,"Turlock, CA",United States
222,106.77252150000001,-6.499568900000001,DETA,3310105705,2020-03-26 11:02:23,,city,"Bojonggede, Indonesia",Indonesia
35620,-73.8311875,40.6708795,Christine Friel,33101079,2020-03-01 03:09:33,"Brooklyn, NY",city,"Queens, NY",United States
205,-0.306996,51.4405145,Fredii ,331010804,2020-02-14 10:01:47,"England, United Kingdom",city,"Richmond, London",United Kingdom
88,139.653844,38.315996500000004,& ,3310108178,2020-06-08 11:55:40, ,city, ,
37980,-75.117998,40.0048655,Katie ,33101101,2020-02-14 03:39:17,philadelphia ,city,"Philadelphia, PA",United States
36140,-74.689061,39.155152,Katie ,33101101,2020-06-06 18:52:39,philadelphia ,poi,40th Street Beach Sea Isle City NJ,United States
37980,-75.117998,40.0048655,Katie ,33101101,2020-06-07 22:07:07,philadelphia ,city,"Philadelphia, PA",United States
88,134.493842,34.127503000000004,,3310110409,2020-05-02 09:16:41,,city, ,
8,-58.84780529,-27.46550253,Ana Laura,3310110663,2020-06-11 14:51:39,"Corrientes, Argentina",city,"Corrientes, Argentina",Argentina
12220,-85.4915405,32.597245,Big Mak,3310111899,2020-02-15 01:26:04,"Auburn, AL",city,"Auburn, AL",United States
45300,-82.479513,28.087675,Starr Barineau,3310112511,2020-02-14 14:14:21,,city,"Lake Magdalene, FL",United States
96,47.99358537,29.36965481, ,3310113835,2020-02-14 16:21:20,Al Qusour,city,"The Green Belt, Kuwait",Kuwait
21,-46.986884,-19.635021,Pescoo de piru,3310113928,2020-02-28 22:50:36,,city,"Arax, Brasil",Brasil
82,77.5584485,12.9231145,Dr.FLYBoY,331011474,2020-03-22 13:26:36,HINDUSTAN,city,"Bengaluru South, India",India
21,-43.5243665,-22.696528,C A M I L A .,3310115434,2020-02-17 20:36:03,,city,"Nova Iguau, Brasil",Brasil
88,140.3613835,35.565756500000006,Kazuyo,3310116210,2020-05-17 16:23:58,,city, ,
23420,-119.63618899999999,36.830799,Jerico Madrid,3310116536,2020-02-19 17:46:49,,city,"Clovis, CA",United States
85,8.7249415,45.8411055,Cristabel,3310119363,2020-03-12 09:12:23,"Lima, Peru",city,"Gavirate, Lombardia",Italia
72,144.8987295,13.5367035,JOSEP,3310119517,2020-02-21 08:38:10,Guahan,city,"Yigo, GU",Guam
32940,-88.640047,32.367064,Be'Annca ,3310119631,2020-03-16 00:45:43,"Alabama, USA",poi,Lauderdale County Agricultural Center,United States
41860,-121.760079,37.683592,Lorenzo ,3310120249,2020-03-26 01:37:12,"Long Beach, CA",city,"Livermore, CA",United States
35620,-74.15187399999999,40.887859999999996,mustafa,3310121932,2020-03-09 04:23:57,,poi,Corrados Family Market,United States
171,121.16422176,14.58084228,  ,3310122733,2020-03-01 15:34:51,"Pasig City, National Capital R",city,"Antipolo City, Calabarzon",Republic of the Philippines
21,-41.9396195,-18.795445,,3310122988,2020-05-17 03:17:32,"Governador Valadares, Brasil",city,"Governador Valadares, Brasil",Brasil
17780,-96.2916485,30.5854715,caden yorek,3310123231,2020-05-13 00:45:40,"College Station, USA",city,"College Station, TX",United States
19820,-83.38116600000002,42.571954,the italian cowboy,33101235,2020-02-15 19:12:32,,city,"West Bloomfield Township, MI",United States
119,-99.17983199999999,19.398176,Rubn R. Cuauhtmoc,3310125098,2020-04-21 20:09:38,Mexico city ,poi,Edificio del Azulejito,Mexico
222,104.749499,-2.9659720000000003,Liaa_amaliaa,3310125386,2020-02-14 05:07:55,"Kota Palembang, Sumatera Selat",poi,RSUP Dr. Muhammad Hosein Palembang,Indonesia
119,-98.1542665,19.0322295,Fabian b. lopez,3310126296,2020-05-12 01:07:15,"Puebla, Mxico",city,"Puebla, Mxico",Mxico
175,39.6540485,24.462089000000002,  ,3310126700,2020-06-10 19:19:26," ,   ",city," ,   ",  
21,-43.189273,-22.980674,PRETA,3310126816,2020-03-06 00:58:39,,poi,Posto 5,Brasil
21,-58.7838775,-3.1354735000000002,Woslon Paz,3310126857,2020-02-14 13:39:25,"Itacoatiara, Brasil",city,"Itacoatiara, Brasil",Brasil
171,123.691,13.149903,Reb Velasco,3310127815,2020-03-04 07:51:24,"Daraga, Bicol Region",city,"Daraga, Bicol Region",Republic of the Philippines
211,-67.995457,10.1763255,VALLITA HERMOSA,331012785,2020-02-21 21:12:09,"Valencia, Venezuela",city,"Valencia, Venezuela",Venezuela
88,135.3070135,34.775017999999996,,3310128548,2020-03-06 11:54:02,,city, ,
32580,-97.9898685,26.244345000000006,bob the builder,3310128842,2020-03-11 03:05:45,,city,"Olivarez, TX",United States
21,-43.201783,-22.987276,S ,3310129342,2020-02-25 18:21:24,Instagram: @_tefyst,poi,Praia de Ipanema,Brasil
21,-43.018208,-22.821465,Rubro Negro ,3310130512,2020-03-12 16:46:18,"So Gonalo, Brasil",city,"So Gonalo, Brasil",Brasil
222,110.493556,-7.316856,dwiftryanto,331013054,2020-03-02 14:54:47,,city,"Sidorejo, Indonesia",Indonesia
21,-43.441578,-22.911421500000003,Oliveira ,3310131225,2020-02-25 13:12:33,"Rio de Janeiro, Brasil",city,"Rio de Janeiro, Brasil",Brasil
24,-78.3515335,43.875685499999996,Trenton_HS,331013166,2020-02-20 00:05:49,"Trenton, Ontario, Canada",city,"Port Hope, Ontario",Canada
35620,-73.9685415,40.780709,Johnny Gonzalez,33101322,2020-03-23 23:04:04,N.Y.C - B R O O K L Y N,city,"Manhattan, NY",United States
21,-49.2698745,-13.2804505,Ingra Carvalho,3310132803,2020-02-26 00:54:46,"Goinia, Gois",city,"Porangatu, Brasil",Brazil
17780,-96.34027778,30.61,Aggie Yell Leaders,331013295,2020-04-03 15:37:13,"College Station, TX",city,"College Station, TX",United States
12060,-84.43310600000001,33.7671945,Robert Jenkins Jr,3310133259,2020-06-09 03:07:57,,city,"Atlanta, GA",United States
211,-63.846939000000006,10.9568225,PSUV NUEVA ESPARTA,3310134820,2020-04-11 13:10:44,"Nueva Esparta, Venezuela",city,"Porlamar, Venezuela",Venezuela
43660,-100.86588,32.395683,NAT ,3310135124,2020-03-03 19:09:22,"Colorado City, TX",city,"Colorado City, TX",United States
33260,-102.10462700000001,31.994300000000006,NAT ,3310135124,2020-03-07 01:17:41,"Colorado City, TX",city,"Midland, TX",United States
43660,-100.86588,32.395683,NAT ,3310135124,2020-03-09 20:47:38,"Colorado City, TX",city,"Colorado City, TX",United States
13700,-101.4423685,32.24493,NAT ,3310135124,2020-03-20 00:12:10,,city,"Big Spring, TX",United States
10180,-99.750556,32.415051000000005,natty,3310135124,2020-04-21 20:58:09,,city,"Abilene, TX",United States
43660,-100.873308,32.409039,natty,3310135124,2020-04-24 05:16:42,,poi,Colorado Softball Complex,United States
41660,-100.453089,31.440522499999997,natty,3310135124,2020-05-30 19:46:36,,city,"San Angelo, TX",United States
36220,-102.344087,31.8738385,natty,3310135124,2020-06-04 02:16:41,,city,"Odessa, TX",United States
35380,-90.070864,29.948479,Tay,331013529,2020-02-23 16:45:51,"Baton Rouge, LA",city,"New Orleans, LA",United States
12940,-91.1402,30.4581,TayRoo,331013529,2020-04-04 22:24:45,"Baton Rouge, LA",city,"Baton Rouge, LA",United States
21,-49.261299,-16.642782500000003,cachorro,3310135540,2020-02-14 11:57:19,"Jardim Guanabara III, Goinia",city,"Goinia, Brasil",Brasil
8,-58.3642637,-34.6059222,Lacas,3310136218,2020-03-08 00:57:06,"Buenos Aires, Argentina",city,"Ciudad Autnoma de Buenos Aires, Argentina",Argentina
120,103.593903,1.6452025000000001,syu,3310136911,2020-05-07 11:21:46,,city,"Senai Kulai, Johor",Malaysia
88,135.741509,34.9590435,,3310137733,2020-02-15 07:56:02,,city,  ,
40140,-116.22010700000001,33.714469,joann,3310138212,2020-02-25 16:14:50,,poi,Larson Justice Center,United States
22420,-83.74241599999998,43.1702,Tracey Ingram,33101393,2020-03-19 21:21:25,"Clio, MI",city,"Clio, MI",United States
205,-0.1937195,51.4516565,Stephen Gunnion,331014006,2020-02-14 23:01:27,Joburg and London,city,"Wandsworth, London",United Kingdom
186,-8.511146,42.9069215,Sandra,331014207,2020-03-23 01:23:56,"Santiago de Compostela, Espaa",city,"Santiago de Compostela, Espaa",Espaa
42660,-122.3306025,47.614816999999995,Di'Andre Campbell,3310143154,2020-02-14 21:54:58,"Oakland, CA",city,"Seattle, WA",United States
19820,-83.35459317,42.21482671,Krayven666,3310143880,2020-02-29 16:45:57,,city,"Romulus, MI",United States
24580,-88.01583333,44.51333333,Krayven666,3310143880,2020-02-29 18:43:48,,city,"Green Bay, WI",United States
178,27.8546575,-26.481581,25th April ,3310144101,2020-04-20 14:58:48,"Johannesburg, South Africa ",city,"Orange Farm, South Africa",South Africa
21,-43.441578,-22.911421500000003,Jssica ,3310145237,2020-02-22 00:02:48,"Rio de Janeiro, Brasil",city,"Rio de Janeiro, Brasil",Brasil
88,133.3444195,33.911204,3,3310145582,2020-02-28 10:03:06,,city, ,
171,121.023036,14.552664000000002,Ivan G.,33101464,2020-06-10 16:02:24,Republic of the Philippines,poi,Givenchy,Republic of the Philippines
24,-79.4463315,43.9965895,Brooks Price,331014668,2020-05-27 12:50:36,"Aurora, Ontario",city,"Aurora, Ontario",Canada
222,106.93233500000001,-6.2391475,bara adhitya,3310148041,2020-02-14 02:34:51,,city,"Duren Sawit, Indonesia",Indonesia
8,-58.85741850000001,-34.451336999999995,Fran,3310148368,2020-02-14 01:53:23,"Pilar, Argentina",city,"Pilar, Argentina",Argentina
222,111.52503119999999,-7.624531599999999,enje,3310148512,2020-03-10 02:12:14, Indonesia,city,"Kartoharjo, Indonesia",Indonesia
35620,-73.9685415,40.780709,Gabi Ramos,33101487,2020-04-10 19:43:19,,city,"Manhattan, NY",United States
82,72.98137,20.766628,Vishal Patel Makani,3310148900,2020-03-12 11:01:40,"Home Sweet Home,India",poi,Mahalaxmi General Store,India
43660,-100.91064250000001,32.718577,justice for george floyd,3310149224,2020-05-31 04:11:10,"Texas, USA",city,"Snyder, TX",United States
82,88.64324450000002,27.0280375,Suraj Sinhal,3310150028,2020-04-20 02:27:42,"Kalimpong, India",city,"Kalimpong, India",India
88,127.68786000000001,26.215992,,331015092,2020-04-18 13:51:35,,poi,35 COFFEE ,
88,139.69262600000002,35.666851,,3310150969,2020-02-25 03:23:03,,city, ,
8,-58.442643,-34.604315,Delgado,3310152004,2020-02-14 00:13:46,Ciudad Autnoma de Buenos Aire,city,"Ciudad Autnoma de Buenos Aires, Argentina",Argentina
175,41.687540000000006,27.508333500000003,  | ,3310152032,2020-02-14 02:03:12,   ,city,",   ",  
88,136.9916465,35.1224245,,331015212,2020-04-29 04:53:45,,city,  ,
41980,-66.4155955,18.419732,ChronoMasa,3310152432,2020-05-30 21:36:29,"Puerto Rico, USA",city,"Pugnado Afuera, Puerto Rico",United States
171,124.84750700000001,8.394889,Hannah,3310152481,2020-02-25 16:01:56,The Universe ,poi,Kampo Juan,Republic of the Philippines
21,-47.347159999999995,-20.595025,Lucas Rezende,3310152735,2020-04-23 23:46:45,,city,"Franca, Brasil",Brasil
88,133.70611300000002,35.1227095,,3310153022,2020-04-28 11:42:46,,city, ,
205,-2.6420435,53.6956315,Stuart Taylor,331015366,2020-02-15 10:29:06,Preston,city,"Whittle-le-Woods, England",United Kingdom
171,121.06321000000001,14.528592999999999,,3310153704,2020-03-05 14:41:28,,poi,Rizal Park,Republic of the Philippines
21,-46.185715,-23.559382,kuwahara ,3310153834,2020-04-05 01:18:59,"So Paulo, Brasil",city,"Mogi das Cruzes, Brasil",Brasil
175,46.685077,24.7219435,   ,331015388,2020-02-15 16:38:11,", ",city,",   ",  
10,50.516315999999996,26.052393,,3310154024,2020-02-23 11:59:15,,poi, ,Bahrain
26420,-95.471,29.756,Glenn Matthew,331015439,2020-05-03 18:50:09,"Houston, TX and Eagle Lake, TX",city,"Houston, TX",United States
173,30.281923,59.907076, ,331015466,2020-05-24 12:09:43,"-, ",poi, ,
21,-42.1517375,-19.224861999999998,Brbara Ferreira,331015610,2020-03-24 19:53:53,"Ipatinga, Brasil",city,"Sobrlia, Brasil",Brasil
24,-79.087874,43.053899,Carolyn Halinda,331015676,2020-02-20 22:38:34,"Ontario, Canada",city,"Niagara Falls, Ontario",Canada
88,138.8624695,35.288426,,331015679,2020-02-21 10:49:54,,city, ,
171,123.846722,10.3748325,Lyxx Sao ,3310157316,2020-02-16 04:51:57,"Tacloban City, Eastern Visayas",city,"Cebu City, Central Visayas",Republic of the Philippines
24,-79.467995,43.719427,jesse shears,33101583,2020-03-09 17:17:12,canadaa eh,poi,Tim Hortons,Canada
38940,-80.325356,27.322902000000003,edward,3310158793,2020-02-18 15:47:52,"Florida, USA",city,"River Park, FL",United States
39900,-119.7106945,39.57421650000001,R,3310158890,2020-02-19 01:48:45,"Sparks, NV",city,"Sparks, NV",United States
24580,-88.103089,44.5711455,John Hilbert,3310159553,2020-03-17 03:43:09,,city,"Howard, WI",United States
222,112.04839,-7.815596,Yavi Lutfatin,3310159982,2020-03-21 16:19:37,Kediri,poi,"Desa Gogorante, Ngasem, Kabupaten Kediri",Indonesia
21,-43.441578,-22.911421500000003,DiBala,3310160128,2020-02-24 21:20:11,"Maracan, setor Norte ",city,"Rio de Janeiro, Brasil",Brasil
21,-38.5026475,-12.8753345,Fagner,331016111,2020-04-01 00:49:05,"Salvador, Brasil",city,"Salvador, Brasil",Brasil
205,-2.0877745,51.8963135,Matt Gardner,331016174,2020-03-07 09:55:47,"Cheltenham,UK",city,"Cheltenham, England",United Kingdom
71,13.2387195,52.485856000000005,Stphane Koffi,331016310,2020-05-09 18:22:49,Berlin,neighborhood,"Grunewald, Berlin",Deutschland
65,3.0495,50.6345,annieragouilliaux,3310163217,2020-02-27 09:46:10,"Nord-Pas-de-Calais, France",city,"Lille, France",France
175,46.685077,24.7219435,Abdulaziz Mohammed,331016425,2020-04-28 23:27:17,MED - RUH,city,"Riyadh, Kingdom of Saudi Arabia",Kingdom of Saudi Arabia
31080,-117.9056455,33.6636085,Isla Andersen,3310164384,2020-05-26 18:58:09,"California, USA",city,"Costa Mesa, CA",United States
186,-6.295016,36.52944,Sandra,331016454,2020-05-30 16:00:14,Cdiz ,poi,Catedral de Cdiz,Espaa
55,-89.512745,13.9555725,Diego Tovar,331016523,2020-04-05 00:29:45,"Santa Ana, El Salvador",city,"Candelaria De La Frontera, El Salvador",El Salvador
24,-79.27256949999999,43.629311,EMMANUEL OKANG,331016720,2020-03-02 18:32:40,ACCRA GHANA,city,"Toronto, Ontario",Canada
21,-43.441578,-22.911421500000003,jujuceerre,3310167562,2020-02-14 15:56:51,rj-cg,city,"Rio de Janeiro, Brasil",Brasil
35740,-97.4174195,42.025405,Wayne Blue Devils,331016807,2020-02-19 01:18:15,"Wayne, Nebraska",city,"Norfolk, NE",United States
43580,-97.013513,42.237147,Wayne Blue Devils,331016807,2020-02-19 19:29:17,"Wayne, Nebraska",city,"Wayne, NE",United States
36540,-96.053431,41.275721,Wayne Blue Devils,331016807,2020-02-20 19:10:19,"Wayne, Nebraska",city,"Omaha, NE",United States
43580,-97.013513,42.237147,Wayne Blue Devils,331016807,2020-02-22 04:11:40,"Wayne, Nebraska",city,"Wayne, NE",United States
30420,-99.7385935,40.770743,Wayne Blue Devils,331016807,2020-02-29 21:29:20,"Wayne, Nebraska",city,"Lexington, NE",United States
43580,-97.013513,42.237147,Wayne Blue Devils,331016807,2020-03-11 11:05:25,"Wayne, Nebraska",city,"Wayne, NE",United States
35740,-97.4174195,42.025405,Wayne Blue Devils,331016807,2020-04-07 23:55:33,"Wayne, Nebraska",city,"Norfolk, NE",United States
43580,-97.013513,42.237147,Wayne Blue Devils,331016807,2020-05-01 22:33:48,"Wayne, Nebraska",city,"Wayne, NE",United States
171,121.03131,14.407882999999998,CJ,3310168808,2020-03-11 11:58:20,South,city,"Muntinlupa City, National Capital Region",Republic of the Philippines
119,-100.2935915,25.6417185,Cecii Czares,3310169078,2020-02-20 00:43:04,,city,"Monterrey, Nuevo Len",Mxico
88,133.91483799999997,34.304984000000005,,3310169280,2020-02-19 00:21:05,,poi, ,
12020,-83.39977950000001,33.9563835,Stacy,3310170893,2020-03-16 18:34:53,,city,"Athens, GA",United States
37620,-81.5624,39.2637,CJ Clegg,331017105,2020-02-16 21:55:36,"Parkersburg, WV",city,"Parkersburg, WV",United States
21,-38.34586859,-12.931956900000001,Willame Oliveira,331017139,2020-03-07 16:44:32,,city,"Salvador, Brasil",Brasil
38,-75.619213,6.270883,sai,3310171762,2020-03-01 01:09:46,"Medelln, Antioquia",city,"Medelln, Colombia",Colombia
31700,-71.4440805,42.971199,karlie,3310171932,2020-02-14 02:48:38,LV ,city,"Manchester, NH",United States
14460,-71.276501,42.8912355,karlie,3310171932,2020-02-14 03:06:14,LV ,city,"Derry, NH",United States
29820,-115.13516499999999,36.060964500000004,karlie,3310171932,2020-02-18 06:38:57,LV ,city,"Paradise, NV",United States
26420,-95.4464865,29.838495,ZeBrianaaa,3310172126,2020-02-15 20:06:25,"Houston, TX",city,"Houston, TX",United States
222,122.486751,-3.984127500000001,Nadah,3310172778,2020-05-01 14:31:32,Kingdom of Saudi Arabia,city,"Mandonga, Indonesia",Indonesia
82,73.88438199999999,18.520764,Rakesh Kumar,3310173074,2020-03-30 17:41:08,,city,"Pune, India",India
82,77.095086,28.638489500000002,steven son,331017418,2020-03-15 14:49:07,,city,"New Delhi, India",India
28140,-94.5592815,39.1000485,Heather Hall,3310174646,2020-02-18 18:44:47,"Kansas City, MO",city,"Kansas City, MO",United States
41860,-122.43597849999999,37.7706565,oq u ,33101758,2020-05-29 16:53:29,"Ciudad Del Carmen, Campeche",city,"San Francisco, CA",Estados Unidos
35620,-73.9685415,40.780709,Eve G.,33101762,2020-03-09 22:19:17,"Manhattan, N.Y.",city,"Manhattan, NY",United States
21,-43.441578,-22.911421500000003,ALAN  #OnSpaceTaA,3310176311,2020-02-26 22:47:40,RJ/ZO,city,"Rio de Janeiro, Brasil",Brasil
12020,-83.39977950000001,33.9563835,chan ,3310176568,2020-02-26 20:24:39,"Athens, GA",city,"Athens, GA",United States
27600,-83.817465,34.111324499999995,chan ,3310176568,2020-03-01 22:48:33,"Athens, GA",city,"Braselton, GA",United States
12020,-83.39977950000001,33.9563835,chan ,3310176568,2020-03-03 18:31:24,"Athens, GA",city,"Athens, GA",United States
27600,-83.58773199999999,34.1256065,chan ,3310176568,2020-03-04 00:29:04,"Athens, GA",city,"Jefferson, GA",United States
12020,-83.39977950000001,33.9563835,chan ,3310176568,2020-03-13 22:27:20,"Athens, GA",city,"Athens, GA",United States
12060,-83.8524735,33.603668,chan ,3310176568,2020-06-01 01:25:21,"Athens, GA",city,"Covington, GA",United States
12020,-83.39977950000001,33.9563835,chan ,3310176568,2020-06-03 01:58:18,"Athens, GA",city,"Athens, GA",United States
12060,-83.98685900000002,33.6639435,chan ,3310176568,2020-06-03 18:52:15,"Athens, GA",city,"Conyers, GA",United States
12020,-83.39977950000001,33.9563835,chan ,3310176568,2020-06-05 03:44:10,"Athens, GA",city,"Athens, GA",United States
65,2.347003,48.8588335,Mouvement Europen - France,331017713,2020-02-24 09:32:32,France,city,"Paris, France",France
88,140.14542600000001,35.981419,,3310177214,2020-02-14 13:02:56,,poi, ,
171,122.52338999999999,11.635769,Saint Patrick,3310177483,2020-02-17 04:37:34,   ,city,"Kalibo, Western Visayas",Republic of the Philippines
175,39.8167,21.4167, GUTI,3310178018,2020-02-17 09:20:10, ,city," ,   ",  
65,5.37526024,43.25629486,Erwan Baratoux,3310178043,2020-03-01 17:32:35,,city,"Marseille, France",France
45220,-84.26617399999999,30.4762155,Jove,3310178422,2020-02-15 16:08:48,"Tallahassee, FL",city,"Tallahassee, FL",United States
33100,-80.17766800000001,25.9056055,Jove,3310178422,2020-03-01 15:45:18,"Tallahassee, FL",city,"North Miami, FL",United States
45220,-84.26617399999999,30.4762155,Jove,3310178422,2020-03-02 07:08:19,"Tallahassee, FL",city,"Tallahassee, FL",United States
35620,-73.9685415,40.780709,Lauren Parker,3310178902,2020-03-09 17:18:04,"Chicago, IL",city,"Manhattan, NY",United States
16980,-87.73135,41.860393,Lauren Parker,3310178902,2020-04-12 15:39:40,"Chicago, IL",poi,Purgatory,United States
171,121.21599132,13.28483305,RonjoCayetano,3310179254,2020-04-11 06:37:30,Oriental Mindoro,city,"Naujan, Mimaropa",Republic of the Philippines
31900,-82.475571,40.748333,Kori AndressXX,3310179628,2020-02-14 13:06:33,"Mansfield, OH",city,"Mansfield, OH",United States
49300,-81.934474,40.81569,Kori AndressXX,3310179628,2020-02-21 17:09:52,"Mansfield, OH",city,"Wooster, OH",United States
31900,-82.475571,40.748333,Kori AndressXX,3310179628,2020-02-22 04:51:45,"Mansfield, OH",city,"Mansfield, OH",United States
17460,-81.705467,41.49593950000001,Kori AndressXX,3310179628,2020-02-25 00:21:27,"Mansfield, OH",city,"Cleveland, OH",United States
31900,-82.475571,40.748333,Kori AndressXX,3310179628,2020-02-25 18:09:01,"Mansfield, OH",city,"Mansfield, OH",United States
10420,-81.5167515,41.0808775,Kori AndressXX,3310179628,2020-03-22 01:12:30,"Mansfield, OH",city,"Akron, OH",United States
31900,-82.475571,40.748333,Kori AndressXX,3310179628,2020-03-27 01:29:09,"Mansfield, OH",city,"Mansfield, OH",United States
10420,-81.5167515,41.0808775,Kori AndressXX,3310179628,2020-04-06 19:29:19,"Mansfield, OH",city,"Akron, OH",United States
49300,-81.934474,40.81569,Kori AndressXX,3310179628,2020-05-02 01:03:12,"Mansfield, OH",city,"Wooster, OH",United States
10420,-81.5167515,41.0808775,Kori AndressXX,3310179628,2020-05-10 16:04:20,"Mansfield, OH",city,"Akron, OH",United States
186,-3.7035075,40.4777945,Yarine Fawaz,3310180257,2020-02-14 11:56:52,"Madrid, Espagne",city,"Madrid, Spain",Spain
28740,-74.006748,41.9168145,Candace R. Teetsel,3310181458,2020-05-05 01:21:44,"Kingston, NY",city,"Kingston, NY",United States
205,-1.8906405,52.493966500000006,Little Mama Murphy,331018200,2020-02-20 09:10:30,"Birmingham, England",city,"Birmingham, England",United Kingdom
200,29.0052225,41.0213205,ozqe.qc ,331018368,2020-03-08 21:40:12,"Bodrum, Trkiye",city,"stanbul, Trkiye",Trkiye
151,3.3180660000000004,6.590611,Damilola Osidipe,331018415,2020-05-13 14:26:45,,city,"Ikeja, Nigeria",Nigeria
178,27.9574575,-26.0197195,Kim Pilaelo,331018472,2020-02-14 17:21:19,South Africa,city,"Randburg, South Africa",South Africa
47900,-76.9924405,38.752715,is crunching katsucon,3310184800,2020-02-14 06:40:16,,city,"Fort Washington, MD",United States
21,-43.41116624,-22.75698147,Wagner Rodrigues,3310184921,2020-02-16 11:10:40,"Belford Roxo, Brasil",city,"Belford Roxo, Brasil",Brasil
40780,-93.4755845,35.4688,Dylan Kuester,3310185118,2020-02-16 00:24:24,Coweta OK/ Poteau/ Clarksville,city,"Clarksville, AR",United States
35620,-73.9685415,40.780709,Miyuki (Coco) Best,33101858,2020-05-20 03:25:10,"New York City, NY",city,"Manhattan, NY",United States
88,139.69821100000001,35.664035999999996,JuanCa Morales,3310186180,2020-05-07 02:49:13,"Via del Mar, Chile",city, ,Japn
33,-71.6036,-33.6167,JuanCa Morales,3310186180,2020-06-10 01:39:11,"Via del Mar, Chile",city,"San Antonio, Chile",Chile
82,83.401713,18.188109,peddinti sankar,3310187028,2020-03-08 14:57:25,,city,"Vizianagaram, India",India
178,28.103551,-25.988404,Chicco,3310187104,2020-02-19 16:49:59,"MIDRAND, Gauteng# SA",city,"Midrand, South Africa",South Africa
39380,-104.622776,38.26955,ben smart,3310187570,2020-04-10 18:19:09,Right Here,city,"Pueblo, CO",United States
45060,-76.1288105,43.052607,moise laub,33101878,2020-05-31 06:23:28,"syracuse, New York",city,"Syracuse, NY",United States
82,76.879092,11.022624, ,3310188758,2020-05-04 13:08:39,World Traveler ,city,"Coimbatore, India",India
205,0.50356923,51.38881682,Mark Crittenden,331018966,2020-02-22 20:47:58,"Medway, Rochester, Kent",city,"Rochester, South East",United Kingdom
35620,-74.2627745,39.7546975,scarlett,3310190216,2020-03-28 02:27:17,,city,"Barnegat, NJ",United States
95,126.811201,37.4015305, ,3310191966,2020-02-15 22:15:55,,city, ,
82,80.2161925,26.5597595,  ,3310192920,2020-03-01 05:37:10,"Sheohar, India",city,"Mandhana (Bilhapur), India",India
31080,-118.06267,33.800338999999994,Kristal De Boer,3310193990,2020-02-14 18:15:24,,city,"Los Alamitos, CA",United States
21,-46.25677389,-23.99657487,Kak,331019410,2020-03-20 14:42:42,"Los Angeles, CA",city,"Guaruj, Brasil",Brasil
17140,-84.48018499999999,39.287901,Kelsey Foster,331019411,2020-02-15 23:28:07,Cincinnati,city,"Springdale, OH",United States
88,136.908852,35.126413,U^^U,331019516,2020-05-17 23:32:53,,poi, ,
21,-43.5243665,-22.696528,GABRIELO ,331019549,2020-02-15 12:52:59,Brasil RJ,city,"Nova Iguau, Brasil",Brasil
21,-43.376828,-22.728707999999997,mimi,3310195510,2020-05-12 20:28:19,10/08 ,city,"Belford Roxo, Brasil",Brasil
171,121.033212,14.5464995, zyeng  #6thPageWithGOT7,3310195664,2020-02-17 09:55:16,Blessings wait for you ,city,"Makati City, National Capital Region",Republic of the Philippines
34980,-86.791549,36.200008000000004,john bohlinger,331019575,2020-02-24 16:39:56,Gnashville,city,"Nashville, TN",United States
152,4.9283,52.38434,Sportraad Amsterdam,331019586,2020-03-02 13:27:29,Amsterdam,city,"Amsterdam, The Netherlands",The Netherlands
205,-2.23348,53.4569525,Daniel Cochlin,331019750,2020-02-14 13:14:30,Manchester,city,"Manchester, England",United Kingdom
33100,-80.3259,25.979,FRANCO,3310198019,2020-02-14 00:16:56,United States,city,"Miramar, FL",United States
71,13.4246065,52.506701,Milton Lufer,33101982,2020-04-15 20:09:05,"Berlin, Germany",city,"Berlin, Germany",Germany
21,-43.441578,-22.911421500000003,edd,3310198289,2020-02-14 18:41:21,"Rio de Janeiro, Brasil",city,"Rio de Janeiro, Brasil",Brasil
82,80.2741875,13.1065815,Chandru,3310198940,2020-03-19 09:48:20,chennai,city,"Fort Tondiarpet, India",India
32820,-89.92202900000002,35.1335205,Deon Jones,3310199869,2020-02-15 03:40:49,,city,"Memphis, TN",United States
21,-52.617049,-31.2764995,Bu,3310199903,2020-02-25 02:34:17,"Canguu, Brasil",city,"Canguu, Brasil",Brasil
21,-49.0453445,-28.4870055,Mariana,3310200406,2020-03-03 02:18:43,"Santa Catarina, Brasil",city,"Tubaro, Brasil",Brasil
88,140.54185,39.0464305,hanadate,3310201586,2020-04-10 13:16:43, ,city, ,
186,-3.9783565000000003,38.960989,ABDEL,331020181,2020-04-20 19:13:48,Melilla,city,"Ciudad Real, Espaa",Espaa
88,132.772331,33.996217,,3310202318,2020-02-14 13:11:21,,poi, ,
12420,-97.541027,30.354854,Stephanie Navejas,3310203469,2020-03-07 21:56:31,,city,"Manor, TX",United States
21,-43.441578,-22.911421500000003,Natan ,3310207013,2020-02-15 16:23:52,"Rio de Janeiro, Brasil",city,"Rio de Janeiro, Brasil",Brasil
222,106.7958885,-6.5106125000000015,uceu,3310207220,2020-02-23 16:30:05,Indonesia,city,"Semplak 1, Indonesia",Indonesia
12540,-119.025163,35.3469015,Lynette Garcia,3310207435,2020-03-16 10:49:50,,city,"Bakersfield, CA",United States
41700,-98.5406515,29.417501,Robert W. Whitaker ,331020825,2020-02-21 16:22:53,"San Antonio, TX",city,"San Antonio, TX",United States
19100,-97.1356375,32.70185,Robert W. Whitaker ,331020825,2020-03-04 03:48:33,"San Antonio, TX",city,"Arlington, TX",United States
36420,-97.948281,35.0329435,Robert W. Whitaker ,331020825,2020-03-08 04:07:22,"San Antonio, TX",city,"Chickasha, OK",United States
88,139.740273,36.073614,,3310210022,2020-05-05 10:05:44,,city, ,
205,-2.5853900000000003,51.457877,JP,3310210168,2020-04-08 14:55:10,"Bristol, England",city,"Bristol, England",United Kingdom
222,106.89062450000002,-6.3919865,aice  keep the chain?,3310211148,2020-04-21 05:11:35,fan account,city,"Cimanggis, Indonesia",Indonesia
88,139.77073700000003,35.699543,,3310211790,2020-02-29 07:33:52,,city, ,
120,101.690659,3.0642635,muinhassan,3310212451,2020-02-25 00:26:31,,city,"Petaling, Wilayah Persekutuan Kuala Lumpur",Malaysia
36020,-122.78237649999998,48.1211345,IamSithAzagoth,3310212871,2020-02-15 20:31:20,"Port Townsend, WA",city,"Port Townsend, WA",United States
151,8.102147500000001,6.3220535,Godsplan C.,331021432,2020-03-15 10:18:35,"Enugu, Nigeria",city,"Abakaliki, Nigeria",Nigeria
171,120.53554199999999,14.676499,Maurene Gail,3310215608,2020-02-17 09:58:06,,poi,ESQUINITA Kitchen & Pub,Republic of the Philippines
88,139.649068,35.703298,  ,3310216170,2020-03-01 14:27:06,mix-voice4,poi, ,
88,139.5553615,35.78968000000001,AYA feat.takenouchiyutaka,3310217226,2020-02-14 01:24:47, ,city, ,
35620,-73.993189,40.945262,DumontShadeTree,3310217290,2020-04-13 03:46:02,"Dumont, NJ",city,"Dumont, NJ",United States
17460,-81.36153,41.71317,Carnage Bodybagg,3310217542,2020-04-14 13:40:20,"Ohio, USA",city,"Mentor-on-the-Lake, OH",United States
33100,-80.362437,25.715721,MEX,3310218016,2020-03-26 21:28:27,,poi,The Hood,United States
82,78.09189,9.868919, ,3310218288,2020-02-14 05:30:27,   ..!,city,"Madurai South, India",India
119,-99.153366,19.432835999999998,Lenin Puente,331021838,2020-05-07 00:45:10,,city,"Cuauhtmoc, Distrito Federal",Mxico
34980,-86.7779855,35.9952715,Pamela Kramer Ertel,3310220071,2020-03-01 13:10:39,,city,"Brentwood, TN",United States
17140,-84.370541,39.4446485,Mikey,3310220431,2020-02-14 13:26:48,"Franklin, OH",city,"Monroe, OH",United States
18140,-82.985772,39.9946835,Mikey,3310220431,2020-02-25 14:38:58,"Franklin, OH",city,"Columbus, OH",United States
17140,-84.327698,39.556413,Mikey,3310220431,2020-02-25 21:01:44,"Franklin, OH",city,"Franklin, OH",United States
19380,-84.28917,39.64245,Mikey,3310220431,2020-03-01 18:03:26,"Franklin, OH",poi,Bullwinkle's Top Hat Bistro,United States
17140,-84.327698,39.556413,Mikey,3310220431,2020-03-02 19:39:00,"Franklin, OH",city,"Franklin, OH",United States
19380,-84.230023,39.601869,Mikey,3310220431,2020-03-16 14:05:26,"Franklin, OH",poi,Kroger,United States
17140,-84.327698,39.556413,Mikey,3310220431,2020-03-16 17:18:38,"Franklin, OH",city,"Franklin, OH",United States
19380,-84.25613899999998,39.629944,Mikey,3310220431,2020-03-19 17:22:51,"Franklin, OH",city,"Miamisburg, OH",United States
17140,-84.327698,39.556413,Mikey,3310220431,2020-03-22 14:06:28,"Franklin, OH",city,"Franklin, OH",United States
18140,-82.985772,39.9946835,Mikey,3310220431,2020-04-11 10:24:10,"Franklin, OH",city,"Columbus, OH",United States
17140,-84.327698,39.556413,Mikey,3310220431,2020-04-11 20:24:39,"Franklin, OH",city,"Franklin, OH",United States
21,-43.441578,-22.911421500000003, ,3310220968,2020-03-24 20:09:22,"Rio de Janeiro, Brasil",city,"Rio de Janeiro, Brasil",Brasil
24,-123.5213815,48.45597,SeanLBartram,3310221194,2020-02-17 04:52:31,"Langford, British Columbia",city,"Langford, British Columbia",Canada
96,48.335607,28.662694000000002,,3310222112,2020-04-20 15:43:26,Kuwait,poi,Khairan,Kuwait
21500,-80.087032,42.110703,Laura Miller,3310222348,2020-02-27 02:35:47,"Pennsylvania, USA",city,"Erie, PA",United States
36740,-81.2831215,28.784184000000003,Laura Miller,3310222348,2020-03-02 02:26:48,"Pennsylvania, USA",city,"Sanford, FL",United States
21500,-80.087032,42.110703,Laura Miller,3310222348,2020-03-13 01:25:15,"Pennsylvania, USA",city,"Erie, PA",United States
205,-0.138409,51.513098,Mark Galvin -#FPBE,3310223349,2020-03-14 18:30:39,"East, England",poi,Dehesa,United Kingdom
21,-47.11708834,-22.90888536,Luciana S N Cardoso,3310223729,2020-02-23 04:14:09,"Campinas, Brasil",city,"Campinas, Brasil",Brasil
21,-47.796623,-15.776254000000002,Marcos Vinicius ,3310223854,2020-02-19 01:52:47,"Distrito Federal, Brasil",city,"Braslia, Brasil",Brasil
82,91.28492829999999,23.8321877,Arnab Biswas,3310224704,2020-04-20 04:14:40,"Agartala,Tripura",city,"Agartala, India",India
171,120.9667405,14.751303,itscaaaaaaaaaaaaath,3310225307,2020-04-18 07:27:47,"Valenzuela City, National Capi",city,"Meycauayan, Central Luzon",Republic of the Philippines
200,29.0052225,41.0213205,Muhammed Zahid ZDEMR,3310225947,2020-02-14 14:30:45,"Tuzla, stanbul",city,"stanbul, Trkiye",Trkiye
21,-43.959822499999994,-19.918692,PH Pai da Luza !,3310226158,2020-06-08 00:10:49,"Vila Oeste, Belo Horizonte",city,"Belo Horizonte, Brasil",Brasil
31080,-118.136676,34.0855965,El Cielito Caf,3310226479,2020-02-19 04:41:28,"8015 Long Beach Blvd., South Gate, CA 90280",city,"Alhambra, CA",United States
82,80.44972150000002,23.8674685,vikas patel,3310226694,2020-04-13 09:38:49,maihar  satna,city,"Murwara, India",India
21,-56.480290000000004,-21.131120000000003,Arturo Zambrana,331022678,2020-02-28 23:45:34,Santa Cruz de la Sierra,city,"Bonito, Brasil",Brasil
175,46.685077,24.7219435,Mohammed Albadr,3310227038,2020-05-23 03:33:35,",   ",city,"Riyadh, Kingdom of Saudi Arabia",Kingdom of Saudi Arabia
21,-43.441578,-22.911421500000003,Davi Nepomuceno ,3310228127,2020-04-02 17:26:10,"Brs de Pina, Rio de Janeiro",city,"Rio de Janeiro, Brasil",Brasil
24,-105.546135,50.393695,Armand Tolentino,3310228386,2020-03-03 19:29:40,,city,"Moose Jaw, Saskatchewan",Canada
82,85.137091,25.602521, ,3310228436,2020-04-22 03:32:15,"Patna, India",poi,Patna Junction Railway Station (PNBE),India
26900,-85.7786345,39.7857555,Lou Ann Kramer,33102289,2020-02-26 21:52:38,"Indiana, USA",city,"Greenfield, IN",United States
24700,-85.230278,39.2977595,Lou Ann Kramer,33102289,2020-04-02 13:38:41,"Indiana, USA",city,"Batesville, IN",United States
151,3.3386055,6.4931125000000005,Paul Godwin,331022920,2020-05-12 20:53:34,nigeria,city,"Lagos, Nigeria",Nigeria
21780,-87.5746905,38.003466499999995,Dennis,331022970,2020-02-15 21:41:32,"Indiana, USA",city,"Evansville, IN",United States
51,-6.815333,53.15480650000001,E,331023075,2020-03-17 14:17:30,"Dublin City, Ireland",city,"Kildare, Ireland",Ireland
186,2.1075,41.54833333,Xavi Casamitjana,331023150,2020-03-17 22:04:03,"Sabadell, Espanya",city,"Sabadell, Espanya",Espanya
32100,-87.4024,46.5486,hal,331023162,2020-05-14 00:23:04,,city,"Marquette, MI",United States
46140,-95.913642,36.1093915,Nick Franey,331023262,2020-02-18 12:04:28,"Tulsa, OK",city,"Tulsa, OK",United States
41180,-90.32920949999999,38.451716499999996,Nick Franey,331023262,2020-04-25 18:38:54,"Tulsa, OK",city,"Oakville, MO",United States
46140,-95.913642,36.1093915,Nick Franey,331023262,2020-05-05 19:26:00,"Tulsa, OK",city,"Tulsa, OK",United States
41180,-90.371037,38.4991705,Nick Franey,331023262,2020-05-05 22:43:51,"Tulsa, OK",city,"Concord, MO",United States
46140,-95.913642,36.1093915,Nick Franey,331023262,2020-05-25 16:11:21,"Tulsa, OK",city,"Tulsa, OK",United States
36420,-97.567983,35.407671,zach attach .,3310232688,2020-05-19 23:48:48,oklahoma :,poi,Pizzaland,United States
24,-79.616073,43.555244,Alyssa ,3310233308,2020-02-14 16:40:01,"Mississauga, Ontario",city,"Mississauga, Ontario",Canada
31080,-117.99873249999999,33.692541999999996,adi,3310234316,2020-02-29 02:44:28,"Arizona, USA",city,"Huntington Beach, CA",United States
29820,-115.13337299999999,36.24912449999999,adi,3310234316,2020-04-10 08:59:26,"Arizona, USA",city,"North Las Vegas, NV",United States
12420,-97.754724,30.3233455,delaney melynn,3310234771,2020-02-17 18:11:35,"Austin, TX",city,"Austin, TX",United States
193,100.525283,13.847269,,3310234915,2020-02-18 08:21:38,,city,", ",
171,125.4432615,7.317582499999999,paulita,3310235017,2020-02-14 01:21:13,"Davao City, Davao Region",city,"Davao City, Davao Region",Republic of the Philippines
33100,-80.14917249999999,26.150368,Shame_,3310235350,2020-02-24 19:53:42,,city,"Fort Lauderdale, FL",United States
8,-59.6622265,-29.1677005,Tisha ,3310236544,2020-02-26 00:46:53,,city,"General Obligado, Argentina",Argentina
163,-79.41040799999999,9.216175,Damaris Delegado,331023800,2020-06-05 18:21:26,Panama,poi,Altos De Cerro Azul,Panam
21,-43.0596095,-22.904549000000006,Layza,3310240264,2020-02-14 12:54:19,"Niteri, Brasil",city,"Niteri, Brasil",Brasil
164,-9.01944444,39.58916667,no. 1 angel,331024068,2020-04-11 16:19:31,Lisbon,city,"Nazar, Portugal",Portugal
173,129.73065649999998,62.066246,vladi.chee,3310240888,2020-02-14 12:50:44,", ",city,", ",
88,139.27539299999998,35.482621,,3310242060,2020-06-07 10:51:24,,poi,,
95,128.4918,38.172761,Thomas Sonny Arianto,331024254,2020-06-07 20:16:24,Batam,poi, (Seoraksan National Park),Republic of Korea
21,-43.192296,-22.903855,miranda,3310245029,2020-02-27 02:56:33,"bxd, austin ",poi,SuperVia - Estao Central do Brasil,Brazil
49,-76.82011999999999,-1.9480990000000002,CARLOS M GODOY,331024543,2020-03-06 13:36:00,"Colorado Springs, CO",city,"Pastaza, Ecuador",Ecuador
205,-0.0929105,51.5144805,Maziar Jafary,3310246672,2020-02-21 12:06:38,,city,"City of London, London",United Kingdom
24,-75.625038,45.4827445,Maziar Jafary,3310246672,2020-02-24 11:45:00,,city,"Gatineau, Qubec",Canada
65,6.4399395,46.19474,Jones The Bat ,3310246773,2020-02-15 07:36:30,"Newport, Wales",city,"Bogve, France",France
205,-3.025835,51.585661,Jones The Bat ,3310246773,2020-03-06 20:46:41,"Newport, Wales",city,"Newport, Wales",United Kingdom
21,-40.37516700000001,-20.427329500000003,Emily Ramalhete,3310248964,2020-03-23 17:25:22,"Vila Velha, Brasil",city,"Vila Velha, Brasil",Brasil
82,78.331402,24.04665,Aashif Rian,3310249076,2020-04-02 05:56:26,,city,"Khurai, India",India
18880,-86.51178309999999,30.3941804,Destin Snorkel,33102517,2020-05-04 13:27:32,"Destin, FL",city,"Destin, FL",United States
14,90.393327,23.876241,SRK'sTeeth,3310252562,2020-02-26 04:10:02,"Dhaka,Bangladesh.",poi,"Sector-11, Uttara, Dhaka",Bangladesh
171,120.9304795,14.3994195,lowaps,3310252694,2020-02-14 09:50:46,"Imus, Calabarzon",city,"Imus, Calabarzon",Republic of the Philippines
85,11.0569515,43.939864,Federico Logli,3310253177,2020-05-27 10:06:47,"Montemurlo, Toscana",city,"Montemurlo, Toscana",Italia
21,-47.03021800000001,-22.8949945,gabi,3310253224,2020-04-04 23:10:05,brasil,city,"Campinas, Brasil",Brazil
200,29.0052225,41.0213205,Burcu Erdem,331025327,2020-06-02 11:19:35,stanbul,city,"stanbul, Trkiye",Trkiye
47020,-96.9729125,28.802534,Dilip R.,3310254218,2020-02-14 02:13:30,"Katy, TX",city,"Victoria, TX",United States
26420,-95.7787115,29.721989,Dilip R.,3310254218,2020-02-25 03:19:57,"Katy, TX",city,"Cinco Ranch, TX",United States
175,46.685077,24.7219435,  ,3310255116,2020-02-16 14:12:50,"Riyadh, KSA ",city,"Riyadh, Kingdom of Saudi Arabia",Kingdom of Saudi Arabia
88,136.908656,35.16729,,3310255442,2020-03-27 18:12:44,,poi, ,
82,86.122772,24.3336115, kumar,3310256221,2020-05-12 01:19:46,"Hazaribagh Road, India",city,"Giridih, India",India
8,-64.1833,-31.4,july bolomo,3310257238,2020-05-09 19:08:01,"Crdoba, Argentina",city,"Crdoba, Argentina",Argentina
33460,-93.2620465,44.9706105,Debaser,331025724,2020-02-14 00:50:17,Minneapolis Saint Paul,city,"Minneapolis, MN",United States
88,135.209025,34.743265, Hyappo.K,3310257805,2020-05-09 07:15:23, ,poi,,
24,-52.829425,47.4826065,naomi dik ,3310258479,2020-02-16 23:11:06, right beside you,city,"St. John's, Newfoundland and Labrador",Canada
51,-9.0333065,51.903863,Natalie Horgan-Young,3310259625,2020-04-07 18:34:18,"Cork, Ireland",city,"Cork, Ireland",Ireland
12060,-83.9925,33.9531,Juan Terrazas,33102615,2020-02-22 21:18:41,"Atlanta, GA",city,"Lawrenceville, GA",United States
205,-1.56549,53.801956,Saskia Paige,3310263099,2020-03-12 09:53:05,"Leeds, England",city,"Leeds, England",United Kingdom
14,89.8,22.6667,Azad kazi,3310263779,2020-03-25 09:10:58,"Gopalgon, muksudpur ",city,"Bagerhat, Bangladesh",Bangladesh
175,42.556571999999996,16.888331, ,3310263944,2020-04-03 01:10:21,,poi,Jizan | ,  
242,120.30783000000001,22.67333, ,331026410,2020-03-05 11:30:39,TAIWAN,city,"Kaohsiung City, Taiwan",Taiwan
19100,-97.1509985,32.960651,Henry Mossberg,3310264279,2020-06-05 01:55:49,"Southlake, TX",city,"Southlake, TX",United States
19820,-83.099288,42.3527865,PERC FRANKLIN,3310264433,2020-05-29 22:38:02,Exit 9,city,"Detroit, MI",United States
171,120.98454,14.57254189,,3310265269,2020-03-08 15:51:37,hakdog,city,"Manila City, National Capital Region",Republic of the Philippines
171,125.06377549999999,6.265069,Ronel,3310266248,2020-03-04 05:27:31,"Polomolok, Soccsksargen",city,"Polomolok, Soccsksargen",Republic of the Philippines
49340,-71.5319805,42.1263295,Tizr,3310267138,2020-03-26 05:46:39,"Massachusetts, USA",city,"Hopedale, MA",United States
96,48.003689,29.348326,Zuhair Alsaif,3310267506,2020-02-15 17:54:25,,city,"Al Qadisiyah, Kuwait",Kuwait
222,106.84241407,-6.12542312,LillaAfr,331026965,2020-02-27 03:28:57,Bandar Lampung,city,"Pademangan, Indonesia",Indonesia
91,34.714990500000006,0.8423510000000001,musa juma,331027062,2020-02-15 12:27:43,"Bungoma, Kenya",city,"Kapsokwony, Kenya",Kenya
19100,-97.2859135,32.7799665,Sarah Chase,3310270638,2020-02-15 05:15:31,,city,"Fort Worth, TX",United States
14780,-96.398422,30.15959,Sarah Chase,3310270638,2020-04-28 13:51:59,,city,"Brenham, TX",United States
19100,-97.2859135,32.7799665,Sarah Chase,3310270638,2020-04-29 21:37:47,,city,"Fort Worth, TX",United States
88,138.88590549999998,36.3408925,YOSHIDA,3310271550,2020-03-08 11:21:56,,city, ,
88,135.8198045,34.90768300000001,   ,3310273525,2020-05-25 04:38:13,   ,city, ,
205,-1.0853245,53.96620649999999,Emma Gallantree,3310273973,2020-03-24 13:05:19,"Yorkshire and The Humber, Engl",city,"York, England",United Kingdom
235,21.942319,43.3457875,Unique handmade products - Torbica Sovica,3310275605,2020-02-26 11:32:56,"Nish, Republic of Serbia",city,"Nish, Republic of Serbia",Republic of Serbia
44060,-117.434547,47.667438,Shane Sinclair,3310276178,2020-02-15 00:14:28,"Glasgow, MT",city,"Spokane, WA",United States
21340,-106.4174305,31.793368,Daniel J. Bender,33102764,2020-02-21 04:37:32,,city,"El Paso, TX",United States
36420,-97.4415095,35.4497225,Daniel J. Bender,33102764,2020-04-28 14:06:16,,city,"Del City, OK",United States
34780,-95.370419,35.732579,Daniel J. Bender,33102764,2020-05-04 23:25:53,,city,"Muskogee, OK",United States
34260,-92.3740955,36.3460975,Daniel J. Bender,33102764,2020-05-18 21:55:52,,city,"Mountain Home, AR",United States
14700,-93.2174275,36.628276,Daniel J. Bender,33102764,2020-06-07 01:49:15,,city,"Hollister, MO",United States
31080,-118.32514499999999,34.18216,NHRAonReddit ,3310277576,2020-05-08 22:32:41,"Pomona, California. U.S.A.",city,"Burbank, CA",United States
39580,-78.613697,35.69030499999999,NHRAonReddit ,3310277576,2020-05-10 01:24:06,"Pomona, California. U.S.A.",city,"Garner, NC",United States
38,-74.24367099999999,4.2622835,wevf,331027878,2020-04-14 01:56:51,Colombia,city,"Bogot, D.C., Colombia",Colombia
82,77.219672,28.631746999999997,Nandan Raj fb,3310279038,2020-05-14 16:44:02,new delhi,city,"New Delhi, India",India
82,79.37363500000002,28.4060465,Muhammad AL Wahid Ansari,3310279443,2020-02-24 08:13:18,Bareilly ,city,"Bareilly, India",India
31080,-118.4119065,34.0207895,Carmela Delgra,3310280239,2020-02-16 17:26:00,"Los Angeles, CA",city,"Los Angeles, CA",United States
40140,-117.559707,33.929913,Mike McCliman,331028066,2020-04-24 04:29:16,"California, USA",city,"Norco, CA",United States
38060,-111.8583985,33.639340000000004,Mike McCliman,331028066,2020-06-06 00:23:53,"California, USA",city,"Scottsdale, AZ",United States
65,2.569978,48.5845825,,3310282143,2020-04-14 01:05:20,"Minnesota City, MN / France ",city,"Savigny-le-Temple, France",France
205,-1.5538284999999998,54.535778,Ali Jermy,3310283141,2020-02-14 10:34:15,"Darlington, England",city,"Darlington, England",United Kingdom
65,3.8742675,43.610396,Gilles N'Goala,3310283830,2020-04-01 07:37:15,"Montpellier, France",city,"Montpellier, France",France
222,106.875102,-6.181276499999999,Stay Positive.. Pasti Berguna,331028429,2020-02-14 15:22:08,Pekanbaru,city,"Cempaka Putih, Indonesia",Indonesia
82,77.5584485,12.9231145,Raveena Vellore,3310284998,2020-03-27 21:07:57,India,city,"Bengaluru South, India",India
186,-2.55,37.4167,jabujaldn,331028539,2020-02-16 13:21:59,,city,"Sern, Espaa",Espaa
200,34.580785999999996,36.7911585,mesut kten,331028640,2020-04-06 23:07:32,Mersin,city,"Yeniehir, Trkiye",Trkiye
24500,-111.2978705,47.493836,Brenda Richard,33102869,2020-03-12 14:44:13,"Montana, USA",city,"Great Falls, MT",United States
82,75.523967,19.915838,Manoj,3310288356,2020-05-15 11:03:24,,city,"Aurangabad, India",India
205,-4.172646,55.820915500000005,Mark Mckenna,3310289151,2020-02-14 21:10:50,Toryglen ,city,"Cambuslang, Scotland",United Kingdom
186,-0.7767065,38.0682845,Mark Mckenna,3310289151,2020-03-07 21:34:49,Toryglen ,city,"Algorfa, Espaa",Espaa
205,-4.2417515,55.85830249999999,Mark Mckenna,3310289151,2020-03-13 09:57:25,Toryglen ,city,"Glasgow, Scotland",United Kingdom
171,120.9873905,14.8512035,Elaine Castro,3310289533,2020-02-14 16:44:45,Sta. Maria Bulacan,city,"Santa Maria, Central Luzon",Republic of the Philippines
28140,-94.80808499999999,38.886623,joseph  waithaka,331029026,2020-03-28 17:56:43,Nairobi,city,"Olathe, KS",United States
36740,-81.3677725,28.5016785,Farah Paret,33102909,2020-02-18 23:08:52,"Orlando, Florida",city,"Orlando, FL",United States
33100,-80.1226195,26.721896,Farah Paret,33102909,2020-03-12 03:08:56,"Orlando, Florida",city,"West Palm Beach, FL",United States
36740,-81.3677725,28.5016785,Farah Paret,33102909,2020-03-18 18:53:27,"Orlando, Florida",city,"Orlando, FL",United States
119,-111.82508159999999,30.70558693,Antonio Tinoco,3310291065,2020-03-15 20:04:07,"Tijuana, Baja California",city,"Altar, Sonora",Mxico
21,-46.52686,-23.70869,L Dion,331029159,2020-05-07 22:03:54,Heaven's Gates.,city,"So Bernardo do Campo, Brasil",Brazil
35380,-90.01100799999999,29.982601000000003,slatt set bo3 ,3310294539,2020-03-08 23:05:41,Uptown on 6thstreet,city,"New Orleans, LA",United States
85,14.335773499999998,40.835153999999996,giorgius28G,3310294780,2020-02-17 10:40:35,"Napoli, Campania",city,"San Giorgio a Cremano, Campania",Italia
82,70.89601250000003,22.2624275,Vanraj Maldhari,3310294824,2020-06-08 04:34:00,", ",city,"Rajkot, India",India
21,-47.5011266,-4.9585088,Gyorgyo Oliveira,331029567,2020-03-30 01:40:06,Aailndia,city,"Aailndia, Brasil",Brasil
205,-0.0601675,51.5476445,Sam Freeman Carney,3310295945,2020-03-15 18:34:15,N16,city,"Hackney, London",United Kingdom
200,39.7140255,40.9691995,Hmeyra Datma,3310296239,2020-03-08 22:37:36,,city,"Trabzon, Trkiye",Trkiye
193,100.4208965,13.6412325,Bee,3310297746,2020-03-19 01:35:59,,city,", ",
21,-45.23575,-19.329196,aninha,3310297774,2020-02-23 21:30:55,"Biquinhas, Brasil",poi,Martinho Campos,Brasil
161,67.17028049999999,24.8364355,Joker Uncle,3310299607,2020-03-30 08:32:54,meme colony,city,"Goth Sabro, Pakistan",Pakistan
88,139.43934196,35.88403948,@2/15TC1000,3310299680,2020-02-14 11:13:13,,city, ,
44100,-89.654287,39.797231,Illinois Trucking,331030074,2020-02-26 16:20:33,,poi,Illinois State Capitol,United States
40420,-88.98404599999999,42.318228999999995,Illinois Trucking,331030074,2020-02-28 22:03:22,,poi,GreenFire Restaurant Bar & Bakery-Woodfire Pizza,United States
44100,-89.6596895,39.774346,Illinois Trucking,331030074,2020-03-04 14:01:00,,city,"Springfield, IL",United States
87,44.278509,33.288928999999996,Kldonwwaled,3310300901,2020-03-02 17:39:46,,poi,Ameria,
193,100.290296,16.800493,Jangky Berry,3310301892,2020-05-12 00:30:23,"., .",city,", ",
82,80.88440750000002,26.8251695,Yaseen Shekh,331030426,2020-03-19 04:41:53,Lucknow india,city,"Lucknow, India",India
186,2.28779554,41.60297636,Temptacions,3310305039,2020-04-04 18:21:04,"Granollers, Catalua",city,"Granollers, Espaa",Espaa
205,0.433201,52.083069,Chris Leaman,3310305106,2020-04-20 22:01:53,cambridge,city,"Haverhill, East",United Kingdom
193,100.559009,13.778016,sutarut_tai,331030538,2020-04-04 08:28:43,bangkok  thailand,city,", ",
46060,-110.91557350000001,32.1893905,linds,3310305739,2020-02-14 18:46:18,"Tucson, AZ",city,"Tucson, AZ",United States
200,29.0052225,41.0213205,Tuncay din,331030589,2020-03-08 20:03:31,istanbul,city,"stanbul, Trkiye",Trkiye
21,-46.441259499999994,-23.666101,Beto,331030655,2020-03-11 21:52:31,,city,"Mau, Brasil",Brasil
8,-64.1980255,-31.4154565,Gastn Sarmiento,3310307464,2020-02-20 04:18:42,"Crdoba, Argentina",city,"Crdoba, Argentina",Argentina
178,27.938714500000003,-26.625156,Neo Mareletse ,3310307847,2020-03-16 04:47:39,Searching...,city,"Vereeniging, South Africa",South Africa
175,39.6540485,24.462089000000002,Walaa  ..,3310307911,2020-02-20 23:07:01,,city," ,   ",  
69,-1.612222,6.693627,Crucial Lvelz64,3310309029,2020-05-11 02:10:26,,city,"Kumasi, Ghana",Ghana
31080,-117.96854,33.769045,NVM,3310311187,2020-03-05 04:33:54,southern california,city,"Garden Grove, CA",United States
221,30.706059999999997,-17.888838,CORAH FM,3310311213,2020-04-07 09:24:39,"Harare, Zimbabwe",poi,"Katanga, Norton",Zimbabwe
186,-3.5979675,37.180409000000004,,3310313777,2020-02-14 20:02:29,,city,"Granada, Espaa",Espaa
37980,-75.164558,39.799194,Mark J Mager,33103141,2020-03-28 03:40:49,South Jersey,poi,M2 Ranch & BBQ,United States
82,75.6319395,31.410515999999998,sourabhsethi_0001,3310315152,2020-04-08 14:59:13,"Jalandhar, India",city,"Jalandhar, India",India
88,137.213516,36.695803999999995,@1,3310316486,2020-03-24 06:00:44,,poi,,
34940,-81.791977,26.152407500000002,allyn rachel,331031666,2020-06-01 00:08:29,"los angeles, ca",city,"Naples, FL",United States
73,22.100952,40.2657705,Eleni Kostas,3310316950,2020-05-08 07:56:45,Greece,city,"Velvento, Greece",Hellas
200,28.89907861,41.03342019,Kamil Grses,331031756,2020-04-22 08:13:56,stanbul,city,"stanbul, Trkiye",Trkiye
205,-0.02840196,51.51195063,Aniko Nagy,331031809,2020-03-19 20:00:46,"London, England",city,"Poplar, London",United Kingdom
82,84.9352123,26.64968618,Suraj Sharma,3310318512,2020-04-09 02:43:33,"Patna, India",city,"Motihari, India",India
120,101.6536755,3.0329245,UY,3310319510,2020-02-28 09:06:23,,city,"Petaling, Selangor",Malaysia
175,36.662420000000004,28.418263,El Sendbad,3310319532,2020-02-14 07:58:29,",   ",poi,  | Location Cafe,  
186,-4.71667,41.65,suozalla,331031963,2020-02-25 09:01:55,valladolid,city,"Valladolid, Espaa",Espaa
175,46.685077,24.7219435,Najla,331032035,2020-02-24 00:54:23, ,city,"Riyadh, Kingdom of Saudi Arabia",Kingdom of Saudi Arabia
119,-98.2064,19.0483,seorita cooper,3310320452,2020-03-06 00:28:39,in yo mind,city,"Puebla, Mxico",Mexico
205,-0.3797275,52.7405175,David Dilloway,3310321793,2020-02-19 07:43:23,Thurlby South Lincolnshire,city,"Thurlby, England",United Kingdom
178,28.1122679,-26.270759299999998,SAIL,331032256,2020-06-01 05:00:03,"Johannesburg, South Africa",city,"Alberton, South Africa",South Africa
222,104.1061725,1.0902715,Aries Riski Firnanda,331032353,2020-02-16 09:36:03,"Banda aceh, Indonesia",city,"Nongsa, Indonesia",Indonesia
88,139.7091805,35.701657,,331032382,2020-02-14 05:02:13, ,city, ,
47900,-76.920117,38.6035215,DCsLadyDiDi,331032525,2020-02-16 20:37:13,"Washington, DC area",city,"St Charles, MD",United States
48,-69.94696559,18.45808108,kq94.5,331032578,2020-02-14 18:16:57,Republica Dominicana,city,"anto Domingo de Guzmn, Dominican Republic",Dominican Republic
19300,-87.7752965,30.875838,Denise Dee House,3310325785,2020-03-10 18:28:43,Bay Minette Alabama ,city,"Bay Minette, AL",United States
151,3.3180660000000004,6.590611,mayungbe olufunmi,3310326713,2020-05-10 11:37:29,,city,"Ikeja, Nigeria",Nigeria
26420,-95.4464865,29.838495,Stephanie ,3310327242,2020-02-14 03:08:56,,city,"Houston, TX",United States
188,32.590746,15.6587375, ..  !,331032756,2020-05-17 12:18:28,,city,Khartoum North,
205,-0.6315115,51.468569,Claire Miller,3310328080,2020-03-23 09:17:27,,city,"Windsor, South East",United Kingdom
29820,-115.223125,36.232915000000006,Sapphire ,3310328621,2020-06-07 12:29:18,"The Las Vegas Strip, Paradise",city,"Las Vegas, NV",United States
88,134.6359415,34.8649245,,3310329024,2020-05-23 10:44:10,KOBE,city, ,
200,29.0052225,41.0213205,pasif_ali26 ,3310329053,2020-05-11 17:29:30,"stanbul, Trkiye",city,"stanbul, Trkiye",Trkiye
24,-79.27256949999999,43.629311,Shariah M.,3310329676,2020-02-14 14:01:51,,city,"Toronto, Ontario",Canada
200,39.197963,38.667615500000004,ahmetahin,3310330667,2020-06-02 10:11:28,"Elaz, Trkiye",city,"Elaz, Trkiye",Trkiye
171,121.24252299999999,13.8185755,baklaaaa,3310332900,2020-02-20 17:22:33,,city,"Rosario, Calabarzon",Republic of the Philippines
200,29.0052225,41.0213205,Muzaffer Atalay,3310334008,2020-03-03 05:05:06,,city,"stanbul, Trkiye",Turkey
171,121.034512,14.630997, ,3310334346,2020-03-11 06:37:05,t,poi,Kopi Roti,Republic of the Philippines
85,12.5451455,41.8984165,angelo pollaci,331033476,2020-03-06 13:16:51,Rome,city,"Roma, Lazio",Italia
128,5.5065765,50.6855395,Jordan Horwood,3310335293,2020-02-20 18:13:27,"Liege, Belgium - 4030",city,"Ans, Belgique",Belgique
21,-49.2773415,-28.7703875,HENRIQUE VIEIRA,331033614,2020-04-15 20:25:42,"Santa Catarina, Brasil",city,"Iara, Brasil",Brasil
88,139.745379,35.652789,Dating,3310336939,2020-02-23 00:32:03,,city, ,
40140,-117.173571,34.052873500000004,"Marj Castronova, PhD",3310337473,2020-03-10 01:57:10,"Las Vegas, NV",city,"Redlands, CA",United States
29820,-115.03833700000001,36.006256,"Marj Castronova, PhD",3310337473,2020-04-17 17:05:57,"Las Vegas, NV",city,"Henderson, NV",United States
40140,-117.173571,34.052873500000004,"Marj Castronova, PhD",3310337473,2020-04-27 21:33:36,"Las Vegas, NV",city,"Redlands, CA",United States
9,151.19055600000002,-33.890251,Carlos Vazquez,3310339238,2020-02-17 20:59:38,,poi,Merewether Building,Australia
205,-1.041676,52.63729,ashley,3310340728,2020-02-14 09:37:22,,city,"Thurnby, England",United Kingdom
162,21.06179,52.2328355,ashley,3310340728,2020-02-22 12:39:54,,city,"Warszawa, Polska",Polska
205,-1.13067,52.6262635,ashley,3310340728,2020-02-28 20:50:41,,city,"Leicester, England",United Kingdom
91,36.863620000000004,-1.2748635,e_l_i_j_a_h,3310340963,2020-03-26 16:25:18,"Nairobi, Kenya",city,"Nairobi, Kenya",Kenya
200,29.0052225,41.0213205,Aya glb,3310342011,2020-05-28 14:33:19,"stanbul, Trkiye",city,"stanbul, Trkiye",Trkiye
205,-2.1540125000000003,53.0193965,Kyle,3310342061,2020-04-25 17:45:45,,city,"Stoke-on-Trent, England",United Kingdom
18020,-85.92236199999999,39.2114315,Logan Schaefer,331034235,2020-05-14 17:55:22,"Columbus, IN",city,"Columbus, IN",United States
33,-70.5189175,-33.425400499999995,Al final del tnel ,33103432,2020-02-14 00:13:00,Chile,city,"Las Condes, Chile",Chile
29340,-93.1977235,30.202771000000002,justyce mcclain,3310343352,2020-06-01 04:01:55,,city,"Lake Charles, LA",United States
82,78.5982595,17.365102999999998,Siddarthavarma,3310343396,2020-03-22 05:11:40,"Hyderabad, India",city,"Hayathnagar, India",India
33,-70.5189175,-33.425400499999995,Founder Institute CL,331034376,2020-04-24 12:25:14,"Santiago, Chile",city,"Las Condes, Chile",Chile
186,-5.679147,40.954377,Tio Rober1,3310343861,2020-03-26 12:15:27,Salamanca,city,"Salamanca, Espaa",Espaa
82,88.26299999999999,27.0374,Ajay sah,3310344241,2020-05-16 04:27:31,Itahari Nepal,city,"Darjeeling, India",India
65,3.161871,50.6361325,Deilf - Half French Half Mad,3310344569,2020-02-14 00:19:15,Gaelandia,city,"Villeneuve-d'Ascq, France",France
6,13.489042000000001,-8.880346000000001,DION ,331034461,2020-04-05 10:37:08,"Sequele, CA ",poi,Centralidade Do Cacuaco,Angola
51,-6.815333,53.15480650000001,cass,3310345419,2020-02-26 22:20:01,"cill dara, ire",city,"Kildare, Ireland",Ireland
19820,-83.75609250000001,42.55489350000001,bonnie,331034652,2020-05-02 23:40:08,MI | NYC,city,"Brighton, MI",United States
35620,-73.8311875,40.6708795,bonnie,331034652,2020-05-12 22:06:39,MI | NYC,city,"Queens, NY",United States
8,-68.5779735,-31.534117,Hugo Edgar Diaz,3310346656,2020-02-14 07:44:20,"San Juan, Argentina",city,"Rivadavia, Argentina",Argentina
191,7.783572,45.983419,EmiB,3310346965,2020-03-19 18:34:17,"Los Angeles, CA",poi,3100 Kulmhotel Gornergrat Zermatt,Switzerland
193,100.510183,13.912398499999998,Caraokai,3310348706,2020-02-16 03:10:29,,city,", ",
222,110.36482099999999,-7.801124000000001,M. Ariep,3310351939,2020-02-29 10:57:27,,poi,Nol Kilometer Yogyakarta,Indonesia
82,82.9065475,20.3410595,MR ALOK SAHU,3310353180,2020-04-12 03:11:05,Bhubaneswar ,city,"Bangomunda, India",India
71,6.7066195,51.1761595,Rebecca Dominici,3310353861,2020-06-02 13:52:55,"Dsseldorf, Germany",city,"Neuss, Deutschland",Deutschland
9,145.0531355,-37.9725665,Hannah Neumann,3310355484,2020-04-25 09:56:44,"London, England",city,"Melbourne, Victoria",Australia
85,11.354151,46.4875725,Plu,331035550,2020-05-13 22:34:01,M.I.A.,city,"Bolzano, Trentino-Alto Adigio",Italia
31140,-85.587937,38.043688,Ross Smith,33103558,2020-02-14 21:19:24,The Room Where It Happens ,city,"Mount Washington, KY",United States
12680,-85.4551315,37.84148550000001,Ross Smith,33103558,2020-03-06 12:34:26,The Room Where It Happens ,city,"Bardstown, KY",United States
31140,-85.587937,38.043688,Ross Smith,33103558,2020-03-11 11:45:06,The Room Where It Happens ,city,"Mount Washington, KY",United States
200,40.735214500000005,37.3188315,musaabba,3310356556,2020-02-23 13:47:50,In the heart of mesopotamia,city,"Mardin, Trkiye",Trkiye
82,75.96818400000002,22.6714825,Kunal Solanki,3310356666,2020-03-13 12:52:29,,city,"Indore, India",India
9,138.53813,-35.21552,Sam Murray,3310357424,2020-03-11 11:01:06,"Park Holme, Adelaide",city,"McLaren Vale, South Australia",Australia
51,-9.4203375,53.9092525,Vera,331035791,2020-02-16 18:37:48,,city,"Mayo, Ireland",Ireland
21,-68.2654835,-9.9997665,Narjara Carvalho,331035870,2020-05-25 14:25:24,"Rio Branco, Brasil",city,"Rio Branco, Brasil",Brasil
178,27.9574575,-26.0197195,zibazana in waiting,3310359041,2020-04-11 19:04:03,"Johannesburg, South Africa",city,"Randburg, South Africa",South Africa
205,0.5155,51.2705,Keith Smith,331035929,2020-04-29 19:52:40,Maidstone,city,"Maidstone, South East",United Kingdom
205,-2.098507,57.147868,papi,3310359329,2020-04-15 09:32:41,"Aberdeen, Scotland",poi,Claire's,United Kingdom
200,32.14602,39.580482,Fatih,3310359723,2020-04-09 17:11:03,,poi,Kobane Suriye,Trkiye
88,135.43544006,34.73342133,Settle,3310360237,2020-03-27 10:02:34,1-8-1,city, ,
186,-4.768283,41.520606,R.,3310360901,2020-03-02 17:14:05,,city,"Viana de Cega, Espaa",Espaa
171,122.1472415,7.175472999999999,,3310361587,2020-02-29 14:03:08,ZC,city,"Zamboanga City, Zamboanga Peninsula",Republic of the Philippines
222,110.82656200000001,-7.6774125,Fatimah Puri,3310362391,2020-05-04 11:51:12,,city,"Sukoharjo, Indonesia",Indonesia
151,3.3524415000000003,7.154428,Odunayo Damilola,3310362736,2020-05-23 13:33:19,,city,"Abeokuta, Nigeria",Nigeria
12580,-76.62048200000002,39.284713,Uniece ,33103630,2020-02-14 17:19:09,NY ,city,"Baltimore, MD",United States
21,-42.978484,-22.449272,Alexander Gralato,331036301,2020-03-01 15:10:10,Brasil,poi,Granja Comary,Brasil
186,-0.4074605,39.36533415,Ainara,3310363732,2020-02-14 15:30:48,Valencia ,city,"Silla, Espaa",Espaa
222,115.005094,-8.452602500000001,S A,3310364566,2020-04-19 10:04:54,,city,"Selemadeg, Indonesia",Indonesia
46700,-121.8340105,38.4475385,Missa,3310365535,2020-03-08 22:23:31,Pluto,city,"Dixon, CA",United States
71,9.2660425,48.87908899999999,Evin,3310365887,2020-02-14 02:06:33,"Bydgoszcz, Poland",city,"Remseck am Neckar, Deutschland",Germany
151,3.6418375,6.842171,Sanni omotayo israel,3310365957,2020-05-17 09:32:54,"Lagos, Nigeria",city,"Shagamu, Nigeria",Nigeria
33540,-114.0623695,46.889778299999996,DAYSPA Body Basics,331036639,2020-02-20 22:00:55,"Missoula, MT",city,"Missoula, MT",United States
65,2.347003,48.8588335,MONDINO,331036748,2020-03-25 09:46:09,EUROPE OCCIDENTALE,city,"Paris, France",France
205,-0.017990000000000003,51.454107,Janet Palmer,331036837,2020-02-14 10:37:12,"London, England",city,"Lewisham, London",United Kingdom
205,-2.2463,53.4793,ALINE D PAULA,331036920,2020-05-10 23:38:29,,city,"Manchester, England",Reino Unido
33,-70.86393100000002,-33.5538735,Claudia Silva,33103693,2020-05-19 01:13:04,santiago,city,"Padre Hurtado, Chile",Chile
36420,-97.35762,35.47036400000001,ri gam,3310370059,2020-02-14 15:05:59,"Midwest City, OK",city,"Midwest City, OK",United States
43060,-96.93365849999999,35.347545000000004,ri gam,3310370059,2020-02-16 02:55:24,"Midwest City, OK",city,"Shawnee, OK",United States
36420,-97.35762,35.47036400000001,ri gam,3310370059,2020-02-17 05:34:31,"Midwest City, OK",city,"Midwest City, OK",United States
43060,-96.93365849999999,35.347545000000004,ri gam,3310370059,2020-02-20 04:08:15,"Midwest City, OK",city,"Shawnee, OK",United States
36420,-97.552161,35.4828435,ri gam,3310370059,2020-02-23 03:50:19,"Midwest City, OK",city,"Oklahoma City, OK",United States
43060,-96.93365849999999,35.347545000000004,ri gam,3310370059,2020-03-21 05:09:54,"Midwest City, OK",city,"Shawnee, OK",United States
36420,-97.4636445,35.327468,ri gam,3310370059,2020-03-23 07:11:12,"Midwest City, OK",city,"Moore, OK",United States
43060,-96.93365849999999,35.347545000000004,ri gam,3310370059,2020-04-17 17:10:13,"Moore, OK",city,"Shawnee, OK",United States
36420,-97.455741,35.695221999999994,ri gam,3310370059,2020-04-25 04:24:52,"Moore, OK",city,"Edmond, OK",United States
43060,-96.6777905,35.235448999999996,ri gam,3310370059,2020-05-02 15:32:27,"Moore, OK",city,"Seminole, OK",United States
36420,-97.552161,35.4828435,ri gam,3310370059,2020-05-03 01:55:33,"Moore, OK",city,"Oklahoma City, OK",United States
43060,-96.93365849999999,35.347545000000004,ri gam,3310370059,2020-05-16 16:17:09,"Moore, OK",city,"Shawnee, OK",United States
36420,-97.552161,35.4828435,ri gam,3310370059,2020-05-18 03:23:25,"Moore, OK",city,"Oklahoma City, OK",United States
43060,-96.93365849999999,35.347545000000004,ri gam,3310370059,2020-05-26 00:48:49,"Moore, OK",city,"Shawnee, OK",United States
36420,-97.4636445,35.327468,ri gam,3310370059,2020-05-28 18:32:27,"Moore, OK",city,"Moore, OK",United States
200,26.4096465,40.131109499999994,Ahsen,3310371575,2020-02-21 10:12:28,"stanbul, Trkiye",city,"anakkale, Trkiye",Trkiye
31080,-118.5032585,34.415631,DANO ;),3310372495,2020-02-16 01:02:16,,city,"Santa Clarita, CA",United States
151,8.886319499999997,9.912799,SabiuJos330,3310372817,2020-05-27 00:10:19,"Jos, Nigeria",city,"Jos, Nigeria",Nigeria
34980,-86.40961,35.84742,Annik Wade,3310374474,2020-02-15 02:28:39,"Murfreesboro, TN",city,"Murfreesboro, TN",United States
82,88.3026715,26.703476,Pranay pradhan ,3310375280,2020-06-01 10:21:02,"West Bengal, India",city,"Siliguri, India",India
31080,-118.4119065,34.0207895,Sosb,3310376406,2020-04-26 02:06:36,,city,"Los Angeles, CA",United States
193,103.3458375,15.231666,praerie.ss ,3310377144,2020-05-11 11:19:43,,city,", ",
171,121.05978200000001,14.591366,Brndttlmps 8,3310377504,2020-02-14 22:40:18,Caloocan City,poi,Robinsons Galleria,Republic of the Philippines
88,139.02325050000002,36.5202655,,3310377661,2020-02-21 05:24:39,,city, ,
200,40.5863955,37.1960925,Nurullah Oztmel,3310377851,2020-02-14 09:23:53,,city,"Kzltepe, Trkiye",Trkiye
171,125.65291950000001,7.3685265,Harley,3310378586,2020-04-08 13:45:18,,city,"Carmen, Davao Region",Republic of the Philippines
205,-3.5034589999999994,51.6548905,steve,331037931,2020-05-29 12:34:13,"Caerphilly, Wales",city,"Treorchy, Wales",United Kingdom
16980,-87.732013,41.8335845,Jo,3310379828,2020-02-19 03:03:47,Come On! Feel the Illinoise!,city,"Chicago, IL",Vereinigte Staaten
41860,-122.2286855,37.791994,Bob N.,33103803,2020-02-23 22:59:28,"Oakland, California",city,"Oakland, CA",United States
222,106.689103,-6.307296,welp....,3310380822,2020-04-23 03:59:50,Suriname,city,"Serpong, Indonesia",Indonesia
151,11.1777515,10.2912105,Abdoul Maiyadi,3310381222,2020-03-27 05:26:27,"Gombe, Nigeria",city,"Gombe, Nigeria",Nigeria
47260,-76.255686,36.895082,Monica Kristine,331038349,2020-02-16 15:12:13,,city,"Norfolk, VA",United States
153,5.5524105000000015,58.901661499999996,Toralf Kabata-Husvik,331038386,2020-03-06 12:31:11,Tananger,city,"Sola, Norge",Norway
200,34.0434565,37.501689500000005,Uzyr Krcl,3310384846,2020-03-24 01:44:20,,city,"Ereli, Trkiye",Trkiye
47900,-77.0143985,38.898603,Lenka Kollar,331038630,2020-02-19 13:07:14,"Washington, DC",city,"Washington, DC",United States
24,-75.80014150000001,45.248791,Lenka Kollar,331038630,2020-02-27 16:44:36,"Washington, DC",city,"Ottawa, Ontario",Canada
9,151.200883,-33.865315,Lenka Kollar,331038630,2020-03-07 05:45:03,"Washington, DC",poi,Barangaroo Ferry Wharf,Australia
82,78.1786095,18.6915215,chilka.srikanth,3310387544,2020-03-23 06:04:25,,city,"Nizamabad, India",India
21,-48.51874465,-0.75615061,Karla Vidal,331038856,2020-05-10 07:43:54,Belm,city,"Salvaterra, Brasil",Brasil
88,136.946363,35.180208500000006,,3310388977,2020-02-20 10:57:15,,city,  ,
205,-2.7016375000000004,53.774091000000006,Selnet Ltd,331038914,2020-02-26 14:00:33,Lancashire,city,"Preston, England",United Kingdom
161,74.3344209,31.52328893,Fahad Hashmi,331038920,2020-02-14 20:42:59,Pakistan,city,"Lahore, Pakistan",Pakistan
171,121.2495135,18.357656,abby,3310389648,2020-04-13 09:26:35,Cordillera Admin Region,city,"Luna, Cordillera Admin Region",Republic of the Philippines
222,107.73292099999999,-6.9298315000000015,RIZKY NUR ADAM,3310390865,2020-02-17 07:31:55,Ciamis,city,"Cileunyi, Indonesia",Indonesia
171,121.033212,14.5464995,Hazzy ,3310391413,2020-02-14 11:22:11,,city,"Makati City, National Capital Region",Republic of the Philippines
171,121.18178200000001,13.939445000000001,,3310392810,2020-03-24 15:08:07,Lipa City,city,"Lipa City, Calabarzon",Republic of the Philippines
200,27.006511,38.4079305,Glizar Kara,331039335,2020-05-07 12:12:57,,city,"zmir, Trkiye",Trkiye
164,-9.159995,38.743614,Manuel damasio,3310393504,2020-05-28 19:35:32,Portugal,city,"Lisboa, Portugal",Portugal
200,40.1973355,37.9374775,bozo,3310394991,2020-03-07 08:35:21,"Diyarbakr, Trkiye",city,"Diyarbakr, Trkiye",Trkiye
119,-115.22918,31.7896695,Art Fz,331039570,2020-04-28 12:14:39,,city,"Mexicali, Baja California",Mxico
88,139.770223,35.989447,Joooe,3310396573,2020-05-30 19:02:59,,city, ,
200,29.414521500000003,40.806087,Efliha,3310396629,2020-02-14 04:24:44,Diagon Yolu,city,"Gebze, Trkiye",Trkiye
186,-3.7076169,40.40897014,Carlos Ledesma Lara,3310397583,2020-04-07 02:42:30,"Madrid, Espaa",city,"Madrid, Espaa",Espaa
82,80.09330299999998,17.187561499999997,rajeshchowdary,3310397708,2020-04-27 14:30:49,hyd,city,"Khammam, India",India
57,13.0858985,47.68225200000001,Esma Uzsoy yazar,3310398287,2020-06-07 09:04:12,"Hallein, sterreich",city,"Hallein, sterreich",sterreich
17140,-84.20256549999998,39.430269,Michael W. Kuntz,331039867,2020-04-14 18:18:51,,city,"Lebanon, OH",United States
205,-2.277298,53.487524,Courtney-Lauren Kowalczyk,3310399354,2020-02-28 14:33:42,Manchester ,poi,Mary Seacole Building,United Kingdom
33460,-93.25710301,44.959917499999996,Susan Campion,33104009,2020-02-14 08:57:16,,city,"Minneapolis, MN",United States
69,-1.566382,6.673831,Paa,331040148,2020-06-01 12:37:33,Ghana,poi,Faculty Of Pharmacy And Pharmaceutical Sciences,Ghana
200,29.096246,37.7721435,Ceyda,3310402155,2020-02-15 22:30:57,"Tekirda, Trkiye",city,"Denizli, Trkiye",Trkiye
82,76.9494235,29.7157395,Sagar Chahlia,3310403023,2020-05-17 09:14:18,"Isarheri (Bahadurgarh),haryana",city,"karnal, India",India
47300,-119.3195265,36.319486,Johnny Lopez,33104031,2020-05-01 21:31:24,"Visalia, California",city,"Visalia, CA",United States
21,-46.829926,-24.202894,JUCESAR,3310403357,2020-04-23 03:05:58,"Freguesia do , So Paulo",poi,Praia Cibratel 2,Brasil
186,2.1683,41.3894,George Gibbons,331040473,2020-02-16 15:26:29,Ruislip,city,"Barcelona, Spain",Spain
47900,-77.0212,38.916232,Demetrius A. Chester,331040494,2020-02-25 17:38:28,"Saint Paul, MN",poi,FishScale,United States
33460,-93.1056485,44.9415155,Demetrius A. Chester,331040494,2020-03-31 13:41:44,"Saint Paul, MN",city,"St Paul, MN",United States
171,121.0972315,14.09165,Ryan Joseph,3310405406,2020-02-14 09:30:51,"Lucena City, Calabarzon",city,"Tanauan City, Calabarzon",Republic of the Philippines
35620,-73.96322478,40.69126388,V. R. DeVonish,331040594,2020-02-23 15:23:54,NYC,city,"Brooklyn, NY",United States
14580,-111.0364,45.678000000000004,V. R. DeVonish,331040594,2020-03-03 16:31:13,NYC,city,"Bozeman, MT",United States
73,25.1325703,35.337490100000004,ORIGAMMI atelier   ,3310407833,2020-02-27 17:54:29,", ",city,", ",
21,-34.9975365,-7.865849000000001,Janana Gomes,3310407916,2020-03-15 22:08:30,"Pernambuco, Brasil",city,"Abreu e Lima, Brasil",Brasil
19100,-97.3944605,32.368444000000004,Christopher Duke,331040884,2020-06-11 02:39:01,"Fort Worth, TX ",city,"Cleburne, TX",United States
85,11.248669999999999,43.78183,Milko Chilleri,3310408995,2020-02-15 11:23:53,"Firenze, Toscana",city,"Firenze, Toscana",Italia
178,28.136140500000003,-25.860881,Communica South Africa,3310411924,2020-02-14 08:22:35,South Africa,city,"Centurion, South Africa",South Africa
200,41.2655875,39.9100375,Dengesizm,3310412955,2020-03-12 17:15:24,"Idr, Trkiye",city,"Erzurum, Trkiye",Turkey
88,134.0487445,34.272571500000005,,3310414916,2020-03-23 13:13:14,,city, ,
171,121.614814,13.940272,Cherry,3310415820,2020-06-06 00:18:19,Philippines,poi,Sacred Heart College,Republic of the Philippines
31180,-101.897173,33.5705265,Jake,3310417764,2020-02-15 18:40:44,"Alamogordo, New Mexico US ",city,"Lubbock, TX",United States
38780,-103.3372665,34.178787,Jake,3310417764,2020-02-16 05:13:01,"Alamogordo, New Mexico US ",city,"Portales, NM",United States
10460,-105.6612365,33.345104000000006,Jim the simp,3310417764,2020-06-07 01:30:05,"Alamogordo, New Mexico US ",city,"Ruidoso, NM",United States
82,77.9856825,10.861964,Nilacomics,3310418263,2020-05-26 08:52:16,"Anna Nagar, Perambur Purasavakam",city,"Karur, India",India
205,-2.285199,51.7298175,Sam Wilson,3310419100,2020-03-24 08:05:35,"King's Stanley, England",city,"Leonard Stanley, England",United Kingdom
82,85.385683,23.3604345,Shweta sharma,3310419660,2020-03-15 03:18:28,,city,"Ranchi, India",India
171,120.97994736,14.7076716,Graceeeyyy fifteen,3310420820,2020-06-07 15:36:21,Valenzuela City,city,"Valenzuela City, National Capital Region",Republic of the Philippines
186,-2.0858015,43.0965405,Unai #ahobizi,331042131,2020-03-30 11:39:47,,city,"Tolosa, Espaa",Espaa
82,77.28368998,28.55524622,Zofla,3310422990,2020-04-07 09:01:32,India,city,"New Delhi, India",India
200,29.0052225,41.0213205,burakcengiz,3310422999,2020-06-01 23:48:13,,city,"stanbul, Trkiye",Trkiye
186,-3.893226,40.3199035,TEJO ,331042340,2020-03-22 17:03:34,"Mstoles, Espaa",city,"Mstoles, Espaa",Espaa
200,32.841937,40.000465999999996,Seluk KANAT,331042751,2020-02-14 21:01:33,entepe / Ankara / Trkiye ,city,"Keiren, Trkiye",Trkiye
222,116.106867,-8.581813,Boney,3310428062,2020-02-14 07:30:54,,city,"Mataram, Indonesia",Indonesia
151,3.905739,7.440529,ThatEdoBoy,3310428200,2020-02-21 11:01:02,"Ibadan Oyo state, Nigeria",poi,Ventura Mall Filmhouse Cinemas,Nigeria
47020,-97.2861165,29.110722000000006,Aj Camarillo,331042878,2020-03-19 18:07:22,Texas,city,"Cuero, TX",United States
205,-1.0853245,53.96620649999999,Fraxinus Argilla,3310428947,2020-02-15 11:39:50,York,city,"York, England",United Kingdom
47900,-77.119176,39.056003000000004,Bethesda Big Train,33104306,2020-02-15 15:46:58,Shirley Povich Field,poi,The Original Pancake House,United States
120,101.446777,3.042311,Botet ,3310430995,2020-02-14 10:23:38,district make me happy ,city,"Bandar Klang, Selangor",Malaysia
26420,-95.562444,29.623471999999996,Alvaro,3310432202,2020-02-21 17:46:05,,city,"Stafford, TX",United States
71,9.927049,51.536987,RA Kahlen,3310432775,2020-02-19 21:26:11,"Gttingen, Deutschland",city,"Gttingen, Deutschland",Deutschland
120,101.79684499999999,3.052007,Lisa,3310432825,2020-02-19 15:56:10,"Johor Bahru, Johor",poi,Condominium Sri Hijau,Malaysia
82,72.85725,23.43704,Dhulaji Bhati Vanjara,3310433258,2020-02-14 05:31:29,"Prantij, India",city,"Prantij, India",India
38060,-111.93658719999999,33.43146122,Window Magic,331043335,2020-04-22 12:15:25,"Berlin, Germany",city,"Tempe, AZ",Vereinigte Staaten
171,125.1557575,8.161327,krissnah ashley,3310433370,2020-02-14 01:55:00,"City Of Malaybalay, Northern M",city,"City Of Malaybalay, Northern Mindanao",Republic of the Philippines
200,29.0052225,41.0213205,Tugba Bulut,331043340,2020-03-04 06:56:29,"Istanbul, Turkey",city,"stanbul, Trkiye",Trkiye
88,139.734723,35.61306000000001,,3310433521,2020-04-29 11:31:22,,city, ,
88,140.12333333,35.605,sn1032,3310433996,2020-02-16 12:04:10,,city,  ,
200,32.480477,37.86705,Erdoan Eser,3310434461,2020-04-22 21:39:19,,poi,Ant Meydan,Trkiye
193,102.10045600000001,14.9797,,3310434463,2020-03-01 07:48:20,,poi,Art Gallery,
225,56.287953,25.3050475,m@r!@,3310436142,2020-05-26 13:46:25,"Dubai, United Arab Emirates",city,"Madha, Oman",Oman
200,28.954340999999996,40.226213,beyanturkey,3310436277,2020-02-28 21:28:00,,city,"Nilfer, Trkiye",Trkiye
222,106.94990800000001,-6.295911,Gusthiana Tanjung,3310437330,2020-03-11 19:19:12,"Pondokgede, West Java",city,"Jatiasih, Indonesia",Indonesia
88,139.80211050000003,35.83833950000001,,3310438284,2020-02-16 01:49:59,,city, ,
171,121.0652415,14.504111499999999,Marjorie Acabal,3310438320,2020-03-23 17:12:59,"Minalin, Central Luzon",city,"Taguig City, National Capital Region",Republic of the Philippines
65,-0.734719,44.727500000000006,Cyriellecy,3310438781,2020-03-26 07:47:00,"Bordeaux, France",city,"Cestas, France",France
171,121.057869,14.52912,Lambert Aguisanda,33104397,2020-04-18 04:32:35,,poi,Royal Palm Residences,Republic of the Philippines
88,139.702009,35.696135999999996, ,3310440038,2020-02-17 05:10:13,,city, ,
120,103.16940550000001,5.2698975,tey,3310440054,2020-02-14 00:17:03,Malaysia,city,"Cenering, Terengganu",Malaysia
71,8.9598099,48.37361,Suzuki,3310440393,2020-06-03 14:49:27,72379 Hechingen,city,"Hechingen, Deutschland",Deutschland
171,121.213935,14.1559945,bi,3310441729,2020-02-21 00:45:09,Republic of the Philippines,city,"Los Banos, Calabarzon",Republic of the Philippines
33700,-121.139475,37.472091,sty,3310443533,2020-03-14 07:48:06,"California, USA",poi,The Weight Room,United States
205,-1.4390975000000001,53.2498555,Andy Dunn,331044389,2020-02-15 18:25:46,"Chesterfield, England",city,"Chesterfield, England",United Kingdom
205,-1.8906405,52.493966500000006,Caroline,331044396,2020-02-14 16:06:08,"Coventry, England",city,"Birmingham, England",United Kingdom
35620,-73.98669699999999,40.731259,wagwan ,3310444606,2020-04-22 02:01:18,new york,poi,New York City,United States
31080,-118.4119065,34.0207895,YVNG TOM,3310444887,2020-02-17 00:32:32,,city,"Los Angeles, CA",United States
41860,-122.43597849999999,37.7706565,YVNG TOM,3310444887,2020-03-17 05:34:36,,city,"San Francisco, CA",United States
19820,-83.37718100000002,42.484278499999995,YVNG TOM,3310444887,2020-03-26 14:05:21,,city,"Farmington Hills, MI",United States
24,-73.723025,45.5578305,Xavier ,3310446897,2020-02-18 15:27:10,"Montral, Qubec",city,"Montral, Qubec",Canada
205,0.016967,51.399679,Sam Towers,3310447954,2020-03-12 17:42:42,,poi,The Richmal Crompton (Wetherspoon),United Kingdom
82,85.29276999999998,25.5082565,Sonu Gupta ,3310449661,2020-02-25 17:51:32,"Patna,india",city,"Patna City Outer, India",India
82,82.60235250000001,25.603364000000003,Rahul seth,3310449740,2020-03-28 06:28:22,,city,"Mariahu, India",India
175,39.167898,21.525964000000002,,3310450687,2020-03-05 07:38:10,"Jeddah, Kingdom of Saudi Arabia",poi,    | Dr. Soliman fakeeh College,  
19820,-83.3858125,42.658766,Jean Dougherty,331045134,2020-02-16 23:01:48,"Michigan, USA",city,"Waterford, MI",United States
88,138.9312145,37.0479215,,3310451377,2020-02-19 14:55:50,,city, ,
88,134.84912549999999,34.782711500000005,,331045335,2020-02-14 05:22:46,,city, ,
88,138.29269349999998,34.8451625, ,3310453513,2020-04-24 11:01:30,,city, ,
205,-2.1739835000000003,53.3675705,Angus Eddowes,331045381,2020-04-16 10:26:31,"Manchester, UK",city,"Cheadle, England",United Kingdom
120,103.576155,1.572639,shae,3310454280,2020-02-15 08:44:12,in your heart,poi,Tasik Biru Kangkar Pulai,Malaysia
200,29.0052225,41.0213205,Yasemin Karamustafa,3310455051,2020-03-01 14:14:19,"stanbul, Trkiye",city,"stanbul, Trkiye",Turkey
8,-58.41664399999999,-34.659665999999994,Tincho,3310455682,2020-04-07 09:47:06,"Lans. Buenos Aires, Argentina",poi,Puente Ezequiel Demonty (ex Puente Alsina / Uriburu),Argentina
161,71.42931899999999,33.953773,javed shah,3310456166,2020-02-29 21:37:11,Kpk,poi,F8 Park Phase 6 Hayat Abad Peshawar,Pakistan
21,-49.261299,-16.642782500000003,Matheus Silva,3310456335,2020-03-10 14:52:32,Algum Lugar nesse mundo maluco,city,"Goinia, Brasil",Brasil
161,72.680813,32.062934000000006,Ali Saad Ahmad,3310456652,2020-05-15 11:13:56,"Islamabad, Pakistan",poi,Sargodha,Pakistan
95,126.555559,33.3060465,,3310458985,2020-03-17 01:14:33,,city, ,
178,27.875272,-26.2564215,King Maxele,331046154,2020-02-16 06:55:41,"Johannesburg, South Africa",city,"Soweto, South Africa",South Africa
205,-1.3363915000000002,52.8375515,Cumb dunt,3310462545,2020-05-20 23:49:05,,city,"Castle Donington, England",United Kingdom
38,-76.5225,3.4372199999999995,Fernando Arciniegas,331046319,2020-03-01 02:29:50,,city,"Candelaria, Colombia",Colombia
88,139.383443,36.164003,@,3310464272,2020-03-31 06:47:24,,poi, ,
205,-3.1798,51.4970015,bert33uk,331046500,2020-02-14 06:01:30,uk,city,"Cardiff, Wales",United Kingdom
26420,-95.67567700000001,29.947374,razek,33104652,2020-02-29 03:01:46,houston,poi,Taste Of Cajun,United States
88,137.204261,36.759207, ,3310465231,2020-03-25 13:48:21, ,poi,,
82,78.3852855,17.3950375,Vedantham Harsha,3310466330,2020-02-23 06:21:33,India,city,"Rajendra Nagar, India",India
222,112.75828100000001,-7.2840905, ,3310467220,2020-03-07 12:05:47,Surabaya,city,"Gubeng, Indonesia",Indonesia
45,10.169119,56.16304350000001,Jeppe G. L. Bech,331046798,2020-02-21 19:07:36,Denmark,city,"Aarhus, Danmark",Danmark
120,101.70571600000001,2.7527939999999997,kakak cantik,3310468044,2020-06-06 11:29:17,"Perak, Malaysia",poi,Starbucks,Malaysia
171,121.133645,14.624756,rie morato,3310471290,2020-02-16 11:11:06,Metro View Estate,poi,SM Cherry Antipolo,Republic of the Philippines
82,77.461117,8.155536000000001,yogesh m,3310472172,2020-02-14 19:07:09,"Nagercoil, Tamilnadu ",city,"Nagercoil, India",India
65,3.3039160000000005,48.1947845,GKHAN GS ,331047331,2020-02-14 19:09:51,,city,"Sens, France",France
222,106.82346399999999,-6.187625,,3310473607,2020-05-10 11:35:35,Parma,poi,Sarinah,Indonesia
159,-57.60601750000001,-25.300264000000002,Fabricio Rodas,331047424,2020-03-07 22:09:09,Paraguay,city,"Asuncion, Paraguay",Paraguay
8,-60.6404245,-33.02305250000001,,331047478,2020-05-31 02:55:31,"Rosario, Argentina",city,"Villa Gobernador Glvez, Argentina",Argentina
45860,-73.086945,41.6712845,melissateach123,3310475151,2020-05-26 16:24:07,,city,"Thomaston, CT",United States
205,-0.1937195,51.4516565,Southside Wandsworth,331047615,2020-04-20 16:18:51,"Wandsworth, London",city,"Wandsworth, London",United Kingdom
200,40.5863955,37.1960925,Hamdullah KAYAN,3310477511,2020-03-20 20:14:58,"Diyarbakr, Trkiye",city,"Kzltepe, Trkiye",Trkiye
88,144.09443950000005,43.1873495,ad2_aspiration,3310480242,2020-02-16 07:35:01,,city, ,
16980,-87.732013,41.8335845,Evan Favermann Eisert,331048039,2020-03-02 23:34:55,"Boston, MA",city,"Chicago, IL",United States
14460,-71.10372199999999,42.3954025,Evan Favermann Eisert,331048039,2020-03-15 00:17:56,"Boston, MA",city,"Somerville, MA",United States
152,4.45493881,51.90647083,Stadsbemoeial,3310481229,2020-05-23 12:27:14,"Rotterdam, South Holland",city,"Rotterdam, The Netherlands",The Netherlands
82,72.87424399999999,19.174139999999998,ARUN SHINGRUT,3310482810,2020-05-10 06:14:02,"Mumbai, Maharashtra",city,"Mumbai, India",India
200,27.006511,38.4079305,Gngr Sunar,3310483631,2020-02-16 16:33:11,,city,"zmir, Trkiye",Trkiye
175,46.685077,24.7219435,Shoeb Ahmed,3310483648,2020-05-08 22:19:15,Riyadh,city,"Riyadh, Kingdom of Saudi Arabia",Kingdom of Saudi Arabia
65,2.2293640000000003,48.715432,ALGEROIS DU 7,3310483996,2020-02-22 11:26:40,,city,"Palaiseau, France",France
51,-8.367194999999999,54.952276,SocEnt.ie,331048423,2020-02-18 10:19:33,Ireland,poi,Waterfront Hotel,Ireland
119,-99.11135997,19.42020645,MajitoGo,331048429,2020-05-26 23:08:49,"mexico, D.F.",city,"Venustiano Carranza, Distrito Federal",Mxico
205,-1.3668675,53.433003500000005,Sathya Vishwanath,3310484728,2020-03-19 08:24:31,,city,"Rotherham, England",United Kingdom
71,13.375820000000001,52.50893000000001,Helen Serruya,33104851,2020-02-21 16:59:58,"London, England",city,"Berlin, Germany",Germany
205,-1.56549,53.801956,Ele Linardou,3310487207,2020-03-03 16:35:40,"Leeds, England",city,"Leeds, England",United Kingdom
205,-2.0877745,51.8963135,Louise Chipchase,331048730,2020-02-18 06:53:48,"Cheltenham, England",city,"Cheltenham, England",United Kingdom
169,24.153805,45.783078,Neil McGregor,3310488177,2020-02-23 11:44:56,"Romania, UK Bulgaria & Moldova",city,"Sibiu, Romnia",Romania
170,28.824689000000003,47.024452000000004,Neil McGregor,3310488177,2020-02-27 05:52:44,"Romania, UK Bulgaria & Moldova",poi,Palatul Republicii,Moldova
169,26.0948065,44.4455455,Neil McGregor,3310488177,2020-03-04 17:28:47,"Romania, UK Bulgaria & Moldova",city,"Bucharest, Romania",Romania
88,134.6359415,34.8649245,,3310489765,2020-05-28 07:12:51,,city,"Himeji-shi, Hyogo",Japan
45780,-83.574671,41.65659049999999,B1G Tim,331048992,2020-02-15 04:41:28,,city,"Toledo, OH",United States
33460,-93.2620465,44.9706105,B1G Tim,331048992,2020-05-15 19:12:09,,city,"Minneapolis, MN",United States
45780,-83.574671,41.65659049999999,B1G Tim,331048992,2020-05-18 01:18:36,,city,"Toledo, OH",United States
82,72.57023199999999,23.013959,CA. Darshan Soni,3310490388,2020-03-23 05:46:52,"Ahmadabad City, Gujarat",city,"Ahmadabad City, India",India
186,2.1412275000000003,41.392657,ATZUR!,3310491,2020-02-14 09:13:10,"El Raval, Barcelona",city,"Barcelona, Espaa",Espaa
189,17.8637335,59.6468735,Pekka  Perki,331049140,2020-06-06 20:54:11,Sweden,city,"Sigtuna, Sverige",Sverige
205,-1.8906405,52.493966500000006,Dan Anslow ,3310492515,2020-02-16 08:05:47,"Birmingham, England",city,"Birmingham, England",United Kingdom
8,-57.5814305,-38.01158750000001,Andrea Ristol ,331049293,2020-03-02 01:43:09,"Mar del Plata, Argentina",city,"Mar del Plata, Argentina",Argentina
171,122.08718200000001,6.919232000000001,,3310492964,2020-02-17 10:38:01,"Ireland, Scotland",poi,Universidad de Zamboanga,Republic of the Philippines
191,6.143025499999999,46.204758,Sylvia,33104939,2020-04-25 17:54:47,,city,"Geneva, Switzerland",Switzerland
186,-4.7794,37.8789,Josan Gonzalez,331049404,2020-03-13 20:53:23,Puente Genil,city,"Crdoba, Espaa",Espaa
200,41.122997,37.8864135,Arap,3310496181,2020-05-26 23:31:01,,city,"Batman, Trkiye",Trkiye
96,47.8856995,29.2720525, ,3310496378,2020-02-23 12:12:17,",  ",city," ,  ", 
205,-4.307883,55.852956000000006,GMC,3310496783,2020-05-30 17:11:59,,poi,Ibrox Stadium,United Kingdom
222,109.293332,-7.4512515,Agen A,331049703,2020-02-16 07:09:52,,city,"Sokaraja, Indonesia",Indonesia
222,110.3515272,-7.8505909,Uma,331049756,2020-02-17 08:42:29,Uma#1444,city,"Sewon, Indonesia",Indonesia
88,127.813768,26.3627505,senna,3310499047,2020-02-27 17:29:58,,city, ,
31080,-118.4119065,34.0207895,Cristina Colissimo,331049964,2020-03-15 17:13:18,"Los Angeles, CA",city,"Los Angeles, CA",United States
205,-0.2631405,51.5651955,BeautyOfLdn,3310500119,2020-02-20 22:28:19,"London, England",city,"Brent, London",United Kingdom
71,11.08009,49.449712,Padelle D Italia,3310500513,2020-04-09 20:58:07,"Norimberga, Baviera",city,"Norimberga, Germania",Germania
205,-0.12731805,51.50711486, ,3310500933,2020-03-08 16:48:44,she / her,city,"London, England",United Kingdom
171,120.9839865,14.5914565,Harry,3310501543,2020-02-14 00:05:41,Sta. Mesa,city,"Manila City, National Capital Region",Republic of the Philippines
171,120.89741299999999,14.953588,MaryAnn,3310501826,2020-02-24 06:29:25,"Candaba, Central Luzon",poi,Baliuag University Cultural Sports Center,Republic of the Philippines
200,26.618732,39.569686,A K..,3310502183,2020-06-07 21:05:46,,poi,Adatepe Butik Otel & Restaurant,Trkiye
46340,-95.31704,32.315661500000004,Cheyenne Dusty,3310503900,2020-03-13 03:46:40,"Texas, USA",city,"Tyler, TX",United States
11980,-95.868681,32.5557705,Cheyenne Dusty,3310503900,2020-03-21 20:41:53,"Texas, USA",city,"Canton, TX",United States
19100,-96.105788,33.117996000000005,Cheyenne Dusty,3310503900,2020-03-31 01:33:14,"Texas, USA",city,"Greenville, TX",United States
82,77.6872395,30.133545,Mohmmad Javed,3310505090,2020-02-24 11:01:15,"Saharanpur, India",city,"Saharanpur, India",India
82,78.593089,9.540625,Vinoth Kannan K,3310506355,2020-03-22 11:39:05,Paramakudi,poi,Paramakudi,India
26420,-95.36868100000001,29.759021999999998,Brooklyn Castillo,331050640,2020-02-21 14:35:19,"Houston, TX",poi,"Houston, TX",United States
43340,-93.756546,32.535334000000006,South West Transit Association,331050853,2020-02-21 17:25:14,"Fort Worth, TX",poi,Sportran Administrative Office,United States
12940,-91.0907995,30.4591,South West Transit Association,331050853,2020-03-16 16:37:24,"Fort Worth, TX",city,"Baton Rouge, LA",United States
11260,-149.7587945,61.235042500000006,Dru Tu'ufuli,3310509500,2020-02-16 11:36:13,"Anchorage, AK",city,"Anchorage, AK",United States
222,107.5871455,-6.889274,Ima Rochmawati,331051016,2020-02-15 08:06:28,Bandung,city,"Sukajadi, Indonesia",Indonesia
117,57.45790256,23.48682143,Ink  Point,3310511023,2020-02-16 18:18:40,,city,",  ", 
119,-92.7317855,17.515689000000002,MissAcacia 117,331051105,2020-02-14 00:26:15,"tacotalpa, tabasco, mexico",city,"Tacotalpa, Tabasco",Mxico
82,76.07435550000001,23.0050705,Pranav Verma,3310511101,2020-05-17 08:55:27,,city,"Dewas, India",India
88,139.79673,35.71472,  ,3310511880,2020-02-14 14:09:56, ,city, ,
178,28.1653135,-26.364,Khay Ghee,331051219,2020-02-18 16:46:01,"Katlehong,Gauteng",city,"Katlehong, South Africa",South Africa
171,120.7088145,15.778001000000001,Eduard C.,3310512650,2020-02-15 17:12:13,Cuyapo nueva ecija,city,"Cuyapo, Central Luzon",Republic of the Philippines
175,46.0327485,28.350082500000003,,3310512756,2020-04-25 23:01:32,Jubail,city," ,   ",  
191,7.088439900000001,46.1154349,Nomie Poudrier,3310512953,2020-02-15 08:39:16,,city,"Martigny, Suisse",Suisse
200,29.0052225,41.0213205,Nus...,331051332,2020-02-14 17:48:47,,city,"stanbul, Trkiye",Trkiye
21,-54.52704250000001,-31.019153999999997,Tiago T. S. Linhares,3310514319,2020-03-25 01:18:30,Brasil,city,"Dom Pedrito, Brasil",Brasil
222,109.90808500000001,-7.2041949999999995,Iqbal adi c,3310514538,2020-04-13 18:20:37,"Banjarnegara, Indonesia",poi,Dieng Plateau,Indonesia
193,100.025958,13.833516,. g. 3  STAY,3310514670,2020-03-08 07:48:14,,poi,Hangar Caf (),
24540,-104.690975,40.423891,dickey bill wagner,331051809,2020-03-24 00:04:34,CO,city,"Greeley, CO",United States
9,115.9283185,-32.1501005,"Ming W, PhD",3310518202,2020-02-16 06:00:55,"Perth, Western Australia",city,"Perth, Western Australia",Australia
222,106.9363825,-6.2931675,naufal,3310518302,2020-05-21 06:20:13,bks,city,"Pondokgede, Indonesia",Indonesia
222,105.2455905,-5.3615895,Petrichor,3310518457,2020-06-02 00:49:46,KPK (Kedai Penikmat Kopi),city,"Kedaton, Indonesia",Indonesia
82,77.4233395,28.773568,Bijendar S. Rawat,331051945,2020-02-15 18:28:57,"Ghaziabad,Uttrakhand",city,"Ghaziabad, India",India
82,79.984,14.4555,Midhun,331051959,2020-05-10 05:49:32,"Hyderabad, India",city,"Nellore, India",India
205,-0.608985,51.673959,george,3310520326,2020-05-15 01:14:28,,poi,Heaven,United Kingdom
205,-2.041141,53.58971250000001,denshaw newsandviews,3310520662,2020-03-31 08:38:05,"Denshaw, England",city,"Denshaw, England",United Kingdom
82,75.8167,26.9167,Four Cross Media,3310521176,2020-05-04 17:45:49,India,city,"Jaipur, India",India
