currentGEOID,lon,lat,name,author_Id,created_at,location,place_type,place_full_name,place_country
175,46.685077,24.7219435,Meshari,1398170305,2020-03-20 19:56:18,,city,"Riyadh, Kingdom of Saudi Arabia",Kingdom of Saudi Arabia
205,-3.1798,51.4970015,YGG Santes Tudful,1398170426,2020-03-01 13:55:03,,city,"Cardiff, Wales",United Kingdom
48620,-97.343915,37.6838965,Heather,1398171,2020-02-14 16:54:59,WICHITA ,city,"Wichita, KS",United States
85,15.608751000000002,41.471141499999995,Antonella Laricchia,1398174300,2020-02-14 22:49:30,Adelfia,city,"Foggia, Puglia",Italia
35620,-73.92972222,40.78916667,mrhumble 11:,1398175338,2020-02-14 12:30:47,,city,"Manhattan, NY",United States
47900,-77.0367,38.8951,mrhumble 11:,1398175338,2020-02-18 13:32:58,,city,"Washington, DC",United States
35620,-73.92972222,40.78916667,mrhumble 11:,1398175338,2020-02-22 14:32:02,,city,"Manhattan, NY",United States
39580,-78.5093,35.9793,mrhumble 11:,1398175338,2020-05-15 10:47:30,,city,"Wake Forest, NC",United States
35620,-73.92972222,40.78916667,mrhumble 11:,1398175338,2020-05-18 11:41:54,,city,"Manhattan, NY",United States
24220,-97.065563,47.907497,Kevin Olson,1398175512,2020-06-01 00:05:33,,city,"Grand Forks, ND",United States
205,-5.928413,54.59586899999999,Aisling Boyle,139817663,2020-03-24 12:43:42,"Belfast, Ireland",city,"Belfast, Northern Ireland",United Kingdom
38060,-111.7375655,33.4057545,Brady Roberts,1398177540,2020-02-14 16:17:10,"Sheboygan, WI",city,"Mesa, AZ",United States
43100,-87.74796549999998,43.7485585,Brady Roberts,1398177540,2020-03-15 16:53:47,"Sheboygan, WI",city,"Sheboygan, WI",United States
33340,-87.9672925,43.0567225,Brady Roberts,1398177540,2020-03-17 23:36:25,"Sheboygan, WI",city,"Milwaukee, WI",United States
43100,-87.74796549999998,43.7485585,Brady Roberts,1398177540,2020-03-21 14:37:55,"Sheboygan, WI",city,"Sheboygan, WI",United States
38060,-111.8583985,33.639340000000004,Brady Roberts,1398177540,2020-05-12 23:05:46,"Sheboygan, WI",city,"Scottsdale, AZ",United States
43100,-87.74796549999998,43.7485585,Brady Roberts,1398177540,2020-05-21 01:07:46,"Sheboygan, WI",city,"Sheboygan, WI",United States
33460,-93.3407565,45.10809550000001,Brady Roberts,1398177540,2020-06-11 02:53:12,"Sheboygan, WI",city,"Brooklyn Park, MN",United States
205,-1.8906405,52.493966500000006,caps,139817939,2020-02-15 20:53:51,"T: 52.399474,-1.924816",city,"Birmingham, England",United Kingdom
31080,-117.92936499999999,33.871065,stephanie rowan faris,1398180505,2020-06-07 22:59:36,,poi,Fullerton City Hall,United States
82,77.5543,12.9373,Jonah Smiler Maduram,1398180529,2020-03-10 13:19:37,Bangalore,city,"Bengaluru, India",India
65,2.347003,48.8588335,Coralie Bitan,139818064,2020-03-11 07:21:45,Antony (92),city,"Paris, France",France
21,-46.614932,-23.698692,Firmo,1398181268,2020-04-19 17:09:22,,city,"Diadema, Brasil",Brasil
38,-75.47886282,5.04480314,Viviana Gmez,139818193,2020-04-02 23:44:47,Manizales,city,"Manizales, Colombia",Colombia
8,-60.674902,-31.6191365,Emanuel,1398182532,2020-04-10 15:05:41,Santa Fe Capital,city,"Santa F, Argentina",Argentina
41860,-122.16229399999999,37.7050435,Tarikh(Tah-Reek) 59Hunnid,1398184363,2020-02-14 04:29:13,"Oakland, Ca",city,"San Leandro, CA",United States
31080,-118.03081999999999,34.133783,Tarikh(Tah-Reek) 59Hunnid,1398184363,2020-02-16 05:33:13,"Oakland, Ca",city,"Arcadia, CA",United States
41860,-122.16229399999999,37.7050435,Tarikh(Tah-Reek) 59Hunnid,1398184363,2020-02-18 09:21:59,"Oakland, Ca",city,"San Leandro, CA",United States
44700,-121.29424099999999,37.821569000000004,Tarikh(Tah-Reek) 59Hunnid,1398184363,2020-05-31 21:39:48,"Oakland, Ca",city,"Lathrop, CA",United States
41860,-122.113371,37.697062,Tarikh(Tah-Reek) 59Hunnid,1398184363,2020-06-01 02:00:21,"Oakland, Ca",city,"Ashland, CA",United States
82,72.87424399999999,19.174139999999998,Aditi N,139818502,2020-03-09 04:36:24,Mumbai,city,"Mumbai, India",India
24,-113.49261750000001,53.5558195,Stony Plain Road BIA,1398185610,2020-02-19 02:06:37,"Stony Plain Road, Edmonton",city,"Edmonton, Alberta",Canada
16260,-113.0618,37.6797,Sof,1398186697,2020-05-18 23:57:29,,city,"Cedar City, UT",Estados Unidos
85,8.4995483,39.0969787,Im sick of sounds,1398187562,2020-05-21 13:28:21,,city,"San Giovanni Suergiu, Sardegna",Italia
186,-3.944971,37.459003,Stephanie,139818757,2020-03-20 14:28:34,SAN CRISTBAL-VENEZUELA,city,"Alcal la Real, Espaa",Espaa
160,-74.6342805,-8.274969500000001,Jorge Vergara,1398189300,2020-02-16 16:02:16,"Lima,PER",city,"Yarinacocha, Peru",Peru
119,-101.250134,21.0254965,Abigail Medina S.,139818988,2020-02-16 00:23:34,"Guanajuato, Mxico",city,"Guanajuato, Mxico",Mxico
26620,-86.5963,34.7123,Blair Stephens,1398190987,2020-04-21 20:09:04,"Nashville, TN",city,"Huntsville, AL",United States
24,-123.441792,48.6559415,Dr. Robert Huizinga,1398192680,2020-05-05 20:28:13,"Victoria, Canada",city,"North Saanich, British Columbia",Canada
31140,-85.65606899999999,38.254203000000004,Jamie Oleka,139819285,2020-02-29 23:24:58,"Louisville, KY",poi,Heine Brothers' Coffee,United States
38,-74.24367099999999,4.2622835,Marco Rosales,139819322,2020-02-14 14:47:01,Maracaibo-Estado Zulia ,city,"Bogot, D.C., Colombia",Colombia
186,-5.8812,43.3531475,Esther,1398194324,2020-03-15 19:53:58,Sharif Fernandez,city,"Oviedo, Espaa",Espaa
128,3.2221634999999997,51.260733,Rexhar,1398195104,2020-05-01 09:53:44,The Cosmos,city,"Brugge, Belgi",Belgi
24,-75.80014150000001,45.248791,Sarah Mousseau,1398195882,2020-02-14 00:43:08,"Ottawa, ON",city,"Ottawa, Ontario",Canada
186,-3.7035075,40.4777945,EL GRAN D,1398196196,2020-02-15 21:57:50,Madrid,city,"Madrid, Espaa",Espaa
8,-58.38294533,-34.601161,Luciana Barrirero,139819768,2020-02-29 01:11:24,Buenos Aires,city,"Ciudad Autnoma de Buenos Aires, Argentina",Argentina
119,-101.601401,21.09806,PODER DE LAS NOTICIAS,139819869,2020-03-09 00:51:27,"Len, Guanajuato",city,"Len, Guanajuato",Mxico
10580,-73.84675,43.014069,Will Seifert,1398199980,2020-04-10 16:04:38,"Ballston Spa, NY",poi,CVS pharmacy,United States
47900,-77.0143985,38.898603,Keith Pemrick,139820130,2020-02-15 02:20:08,"T: 38.92279,-77.048337",city,"Washington, DC",United States
41860,-122.36121200000001,37.5554355,Keith Pemrick,139820130,2020-03-07 06:11:33,"T: 38.92279,-77.048337",city,"Hillsborough, CA",United States
47900,-77.0143985,38.898603,Keith Pemrick,139820130,2020-03-09 04:08:16,"T: 38.92279,-77.048337",city,"Washington, DC",United States
21,-43.959822499999994,-19.918692,julian,139820268,2020-02-17 01:22:11,"Belo Horizonte, Brasil",city,"Belo Horizonte, Brasil",Brasil
222,101.4299,0.4916,Bus Pariwisata Riau,139820384,2020-03-03 20:49:44,Pekanbaru,city,"Sukajadi, Indonesia",Indonesia
46700,-121.973,38.3538,Alamo Lane Car Wash,1398203856,2020-03-12 16:10:05,"760 Alamo Lane, Vacaville CA",city,"Vacaville, CA",United States
200,31.4425085,41.28053900000001,Gken Buzolu_ner,139820526,2020-03-09 12:40:35,,city,"Ereli, Trkiye",Trkiye
211,-66.91265092,10.50525959,unviajeporvenezuela,139820574,2020-05-12 06:59:19,Amrica Latina,city,"Caracas, Venezuela",Venezuela
24,-52.7498145,47.661169,scottkiss,1398206845,2020-05-23 17:50:17,,city,"Torbay, Newfoundland and Labrador",Canada
19740,-104.9220935,39.713563,Jeffrey J Davis,13982072,2020-02-18 04:48:18,"T: 35.224691,-80.940859",city,"Denver, CO",United States
26420,-95.508925,29.5742845,Jeffrey J Davis,13982072,2020-02-24 18:16:31,"T: 35.224691,-80.940859",city,"Missouri City, TX",United States
24,-123.1308365,49.1742415,Jeffrey J Davis,13982072,2020-02-29 16:45:27,"T: 35.224691,-80.940859",city,"Richmond, British Columbia",Canada
46520,-157.799589,21.3199435,Jeffrey J Davis,13982072,2020-03-09 21:26:52,"T: 35.224691,-80.940859",city,"Honolulu, HI",United States
26420,-95.508925,29.5742845,Jeffrey J Davis,13982072,2020-03-26 02:27:18,"T: 35.224691,-80.940859",city,"Missouri City, TX",United States
18880,-86.3507385,30.39153,Jeffrey J Davis,13982072,2020-05-03 01:51:43,"T: 35.224691,-80.940859",city,"Miramar Beach, FL",United States
88,139.081806,35.170733500000004,,1398208904,2020-02-16 02:19:18,,city, ,
205,-6.00924253,54.06175559,KWM Wines & Spirits,139820896,2020-02-15 12:49:32,"Kilkeel, Northern Ireland",city,"Kilkeel, Northern Ireland",United Kingdom
38,-74.849933,10.958072999999999,B R E,139820920,2020-02-14 14:07:47,Barranquilla,city,"Barranquilla, Colombia",Colombia
36420,-97.4726,35.6547,Kim,1398209833,2020-05-24 14:24:57,,city,"Edmond, OK",United States
205,-2.4636945,52.2664925,Tom Flathers MCFC,1398210872,2020-02-14 16:54:11,"Manchester, England",city,"Upper Sapey, England",United Kingdom
8,-68.7899315,-32.962086,LUCILA,1398211045,2020-03-24 22:57:24,mendoza,city,"Maip, Argentina",Argentina
29200,-86.9299805,40.4590815,katie ,1398211801,2020-02-14 15:26:22,"Indiana, USA",city,"West Lafayette, IN",United States
26900,-85.7786345,39.7857555,katie ,1398211801,2020-04-04 05:45:43,"Indiana, USA",city,"Greenfield, IN",United States
186,-2.812897,43.4241965,Ivan Mlinari,139821349,2020-05-25 06:43:18,,city,"Bakio, Espaa",Spain
65,2.025307,48.777592,MiniLepers,1398214718,2020-03-10 10:53:12,Mantes la Jolie (78),city,"Montigny-le-Bretonneux, France",France
41860,-122.43597849999999,37.7706565,USF Women's Soccer,1398214826,2020-04-17 19:22:19,,city,"San Francisco, CA",United States
21,-40.627127,-19.473124,Elaine Moreira Nass,1398215058,2020-06-07 02:17:41,,city,"Colatina, Brasil",Brasil
27180,-89.26658990000001,35.594229999999996,Raheem Ali,139821642,2020-02-17 17:54:47,,city,"Brownsville, TN",United States
178,27.968098,-26.2761385,Kopano,139821647,2020-02-15 10:56:43,Where I'm needed most,city,"Johannesburg, South Africa",South Africa
8,-58.3901175,-34.702244500000006,E ,139821764,2020-04-04 20:25:54,"Lans Oeste, Argentina",city,"Lans Oeste, Argentina",Argentina
12620,-68.795412,44.811756,Ben Sprague,139821790,2020-02-14 19:49:46,"Bangor, Maine",city,"Bangor, ME",United States
38,-74.24367099999999,4.2622835,Joalice Villalobos,139821827,2020-03-03 01:29:25,"T: 10.678455,-71.678581",city,"Bogot, D.C., Colombia",Colombia
211,-71.64089949999997,10.664022000000001,Joalice Villalobos,139821827,2020-03-18 20:25:52,"T: 10.678455,-71.678581",city,"Maracaibo, Venezuela",Venezuela
65,2.3508,48.8567,Alexis Lyras,1398218322,2020-02-22 08:46:16,,city,"Paris, France",France
73,22.494087,38.480041,Alexis Lyras,1398218322,2020-03-13 18:52:50,,city,"Delfoi, Greece",Hellas
12420,-97.754724,30.3233455,Lourde-Quincy Vasser,139821987,2020-02-14 02:08:43,"Austin, TX",city,"Austin, TX",United States
19100,-97.131701,32.923466999999995,Lourde-Quincy Vasser,139821987,2020-02-27 16:40:57,"Austin, TX",poi,Dallas Texas,United States
12420,-97.754724,30.3233455,Lourde-Quincy Vasser,139821987,2020-03-03 11:43:24,"Austin, TX",city,"Austin, TX",United States
19100,-97.079654,32.931834,Lourde-Quincy Vasser,139821987,2020-03-03 15:46:23,"Austin, TX",city,"Grapevine, TX",United States
26620,-86.611411,34.7060265,Lourde-Quincy Vasser,139821987,2020-03-03 20:58:56,"Austin, TX",city,"Huntsville, AL",United States
12420,-97.754724,30.3233455,Lourde-Quincy Vasser,139821987,2020-03-07 05:04:29,"Austin, TX",city,"Austin, TX",United States
35620,-73.926137,41.093821000000005,Lourde-Quincy Vasser,139821987,2020-03-24 02:09:42,"Austin, TX",city,"Nyack, NY",United States
12420,-97.754724,30.3233455,Lourde-Quincy Vasser,139821987,2020-05-15 15:37:20,"Austin, TX",city,"Austin, TX",United States
35840,-82.170186,27.069033,Chaz Hiestand,139822146,2020-02-14 06:45:27,"North Port, FL",city,"North Port, FL",United States
45300,-82.62945500000001,27.766351,Chaz Hiestand,139822146,2020-02-19 17:32:05,"North Port, FL",poi,Albert Whitted Park,United States
35840,-82.170186,27.069033,Chaz Hiestand,139822146,2020-02-21 16:13:17,"North Port, FL",city,"North Port, FL",United States
45300,-82.67290299999998,27.7957195,Chaz Hiestand,139822146,2020-03-13 17:20:38,"North Port, FL",city,"St Petersburg, FL",United States
35840,-82.170186,27.069033,Chaz Hiestand,139822146,2020-03-15 23:56:39,"North Port, FL",city,"North Port, FL",United States
119,-99.08179,19.2362445,Rodrigo Galindo,1398223128,2020-03-03 08:37:34,,city,"Xochimilco, Distrito Federal",Mxico
119,-99.13454909,19.43696305,Tann,139822345,2020-02-14 23:58:00,"Ciudad de Mxico, DF Mxico",city,"Cuauhtmoc, Distrito Federal",Mxico
175,39.2541285,21.5857105, ,1398223758,2020-05-09 18:31:02,,city,",   ",  
159,-57.60601750000001,-25.300264000000002,anniorcinoli,139822411,2020-06-11 03:05:22,Asuncin,city,"Asuncion, Paraguay",Paraguay
191,9.0506705,47.471054,Sulejman Iljazi,1398226555,2020-02-26 10:50:51,Schweiz ,city,"Wil (SG), Schweiz",Schweiz
2,5.810868,36.7724835,salaheddin boumaiza,1398227352,2020-03-24 13:25:00,chouhada,city,"Kaous                                                                                               , Algeria",
47940,-92.892697,42.583286,cade alberts,1398227767,2020-05-15 13:17:19,,poi,Aplington Recreation Complex,United States
200,29.0052225,41.0213205,Av.Okan Metlioglu,1398227964,2020-02-29 10:03:24,"ekmeky, stanbul & Adana",city,"stanbul, Trkiye",Trkiye
9,153.023049,-27.4704305,Ricardo SIGNES,13982282,2020-02-15 11:22:52,"Bethlehem, PA",neighborhood,"Brisbane City, Brisbane",Australia
37980,-75.1464125,39.9400425,Ricardo SIGNES,13982282,2020-03-09 10:47:38,"Bethlehem, PA",neighborhood,"Society Hill, Philadelphia",United States
38,-74.849933,10.958072999999999,Daniel V.,1398228990,2020-02-14 18:18:23,,city,"Barranquilla, Colombia",Colombia
151,3.3386055,6.4931125000000005,firstBornAlagidi,1398230282,2020-05-20 06:47:40,lagos,city,"Lagos, Nigeria",Nigeria
38,-76.3486225,3.5704285,Carlos,1398231013,2020-02-15 16:44:48,,city,"Palmira, Colombia",Colombia
19100,-96.7617535,32.819858499999995,T Sargent,139823173,2020-05-30 04:04:30,"Dallas, TX",city,"Dallas, TX",United States
48,-69.928392,18.485775,Wilber Flores,139823206,2020-02-21 00:28:47,"Santo Domingo, D.N.",city,"anto Domingo de Guzmn, Dominican Republic",Dominican Republic
178,18.55,-33.85,Lance,139823302,2020-03-04 16:28:23,,city,"Milnerton, South Africa",South Africa
32820,-89.92202900000002,35.1335205,St Nick,1398233755,2020-03-23 21:54:35,Wherever You Are,city,"Memphis, TN",United States
33,-72.6109,-38.7395,Cervidio Tovar,139823504,2020-04-22 02:19:03,Ciudad Guayana,city,"Temuco, Chile",Chile
8,-58.37363776,-34.62719758,Gabriela Malerba,1398235099,2020-04-12 14:26:56,,city,"Ciudad Autnoma de Buenos Aires, Argentina",Argentina
186,-1.1177955,37.916841,Liz Cabaas,1398235130,2020-03-23 21:19:00,"Murcia, Espaa",city,"Murcia, Espaa",Espaa
15460,-90.6404425,40.9126585,Jukebox Jake ,1398235332,2020-02-16 07:49:00,"Houston, TXMonmouth, IL",city,"Monmouth, IL",United States
41180,-89.52735150000002,38.601724,Jukebox Jake ,1398235332,2020-03-16 14:34:28,"Houston, TXMonmouth, IL",city,"Breese, IL",United States
15460,-90.6404425,40.9126585,Jukebox Jake ,1398235332,2020-03-17 02:08:53,"Houston, TXMonmouth, IL",city,"Monmouth, IL",United States
119,-99.18010443,19.6682787,Jorge Espaol ,139823590,2020-03-19 23:04:36,Mexico,city,"Cuautitln, Mxico",Mxico
21,-43.42037667,-22.79473663,Mileide ,139823599,2020-03-04 19:25:06,Nova Iguau,city,"Mesquita, Brasil",Brasil
119,-98.242018,19.019457,MaRa_NiN!,1398236130,2020-02-15 22:44:08,,poi,Tecnolgico de Monterrey Campus Puebla,Mxico
205,-1.774155,53.275301,Joanna Watson,1398240582,2020-02-17 23:41:29,"Wednesfield, Wolverhampton",poi,Tideswell cottage,United Kingdom
205,0.127886,51.554019,AYOBA,139824075,2020-03-31 11:35:32,London,city,"Barking, London",United Kingdom
119,-103.4847745,20.790657000000003,miguel bello,1398242844,2020-03-08 21:48:59,,city,"Zapopan, Jalisco",Mxico
200,27.006511,38.4079305,ner ASLAN,1398243187,2020-02-15 05:35:01,Trkiye,city,"zmir, Trkiye",Trkiye
14700,-93.8122525,37.106627,han,1398243312,2020-02-19 01:22:32,,city,"Mount Vernon, MO",United States
27900,-94.326622,37.169692,han,1398243312,2020-03-02 02:59:12,,city,"Carthage, MO",United States
14700,-93.8122525,37.106627,han,1398243312,2020-03-17 23:05:26,,city,"Mount Vernon, MO",United States
44180,-93.463637,37.125845,han,1398243312,2020-04-15 22:22:44,,city,"Republic, MO",United States
38260,-94.6962235,37.4057675,han,1398243312,2020-04-18 20:08:17,,city,"Pittsburg, KS",United States
27900,-94.471193,37.1381585,han,1398243312,2020-04-20 03:37:13,,city,"Webb City, MO",United States
14700,-93.8122525,37.106627,  han  ,1398243312,2020-04-24 07:20:41,,city,"Mount Vernon, MO",United States
38260,-94.6962235,37.4057675, han ,1398243312,2020-05-02 16:00:20,,city,"Pittsburg, KS",United States
14700,-93.8122525,37.106627, han ,1398243312,2020-05-03 16:24:26,,city,"Mount Vernon, MO",United States
27900,-94.326622,37.169692, han ,1398243312,2020-05-03 18:53:15,,city,"Carthage, MO",United States
14700,-93.8122525,37.106627, han ,1398243312,2020-05-04 23:19:48,,city,"Mount Vernon, MO",United States
22780,-92.619708,38.149118,han ,1398243312,2020-05-24 14:59:17,,city,"Osage Beach, MO",United States
14700,-93.8122525,37.106627,han ,1398243312,2020-05-30 18:46:28,,city,"Mount Vernon, MO",United States
41180,-90.247824,38.653771,han ,1398243312,2020-06-09 00:39:15,,city,"St Louis, MO",United States
186,-1.70088095,42.79590379999999,C.F. ARDOI F.E. (en casa),1398243878,2020-04-24 09:05:02, Zizur Mayor - Zizur Nagusia,city,"Zizur Mayor, Espaa",Espaa
82,78.036709,27.168941999999998,kamran ahmed,1398245881,2020-04-04 18:31:14,"Agra, India",city,"Agra, India",India
18140,-82.9996,39.9624,Ash ,1398245917,2020-03-02 00:28:52,"Orlando, FL",city,"Columbus, OH",United States
175,39.8016865,21.389833000000007,abo Shoaib bhanojo,1398246402,2020-06-05 13:05:08,saudia arb makkah ,city,"Makkah Al Mukarrama, Kingdom of Saudi Arabia",Kingdom of Saudi Arabia
135,5.974099000000002,49.4896825,La Chiara,1398246427,2020-02-25 22:07:59,,city,"Esch-sur-Alzette, Luxembourg",Luxembourg
24660,-79.7913,36.0731,Cinco Savvy,1398247374,2020-02-25 02:37:42,,city,"Greensboro, NC",United States
38,-74.24367099999999,4.2622835,OrgulloLGBT 48k,139824862,2020-02-14 12:05:58,Latinoamrica,city,"Bogot, D.C., Colombia",Colombia
18140,-82.985772,39.9946835, ,139824900,2020-02-14 17:45:46,"Columbus, OH",city,"Columbus, OH",United States
8,-58.1833,-26.1833,Agustin Ibaez,139824920,2020-03-19 23:28:52,Formosa- argentina,city,"Formosa, Argentina",Argentina
159,-57.60601750000001,-25.300264000000002,Andrea Stallard,139825008,2020-02-16 23:59:35,Paraguay,city,"Asuncion, Paraguay",Paraguay
35620,-73.92191439,40.74267351,Jeremy Allen,13982502,2020-05-05 07:16:38,"New York, NY",city,"Queens, NY",United States
38,-74.582819,5.975607,fegu,1398250514,2020-04-05 14:03:25,"Puerto Boyac, Colombia",poi,Puerto Boyaca,Colombia
85,12.5451455,41.8984165,Barbara Pizzuti,139825055,2020-03-25 15:22:57,Roma,city,"Roma, Lazio",Italia
21,-36.047265,-8.982942,Raquel Santos,139825169,2020-03-25 03:20:15,,city,"So Jos da Laje, Brasil",Brasil
21,-49.2702685,-26.814272499999998,mallu,1398253051,2020-03-12 23:33:09,Benedito Novo - SC,city,"Timb, Brasil",Brasil
119,-98.1542665,19.0322295,Cruz ,139825316,2020-02-14 00:45:28,Mexico-Puebla,city,"Puebla, Mxico",Mxico
119,-105.44082,20.868932,Cesar Calderon,1398253231,2020-03-17 23:13:17,,poi,Plaza Sayulita,Mxico
41620,-111.997441,40.6787035,gare,1398253435,2020-02-22 02:17:14,"Stansbury Park, UT",city,"West Valley City, UT",United States
39220,-110.8020655,39.599115000000005,gare,1398253435,2020-02-23 04:30:03,"Stansbury Park, UT",city,"Price, UT",United States
41620,-111.883,40.75,gare,1398253435,2020-03-02 22:21:38,"Stansbury Park, UT",city,"Salt Lake City, UT",United States
39220,-110.8020655,39.599115000000005,gare,1398253435,2020-03-09 15:38:14,"Stansbury Park, UT",city,"Price, UT",United States
41620,-112.299283,40.538342,gare,1398253435,2020-03-15 19:53:23,"Stansbury Park, UT",city,"Tooele, UT",United States
39220,-110.8020655,39.599115000000005,gare,1398253435,2020-03-26 08:14:04,"Stansbury Park, UT",city,"Price, UT",United States
41620,-112.299283,40.538342,gare,1398253435,2020-04-27 02:58:37,"Stansbury Park, UT",city,"Tooele, UT",United States
186,-5.98694444,37.37694444,Mara ,1398254744,2020-02-16 10:01:13,Mlaga La Bella ,city,"Sevilla, Espaa",Espaa
205,-0.02336374,51.50181346,Mara ,1398254744,2020-03-28 07:46:14,Mlaga La Bella ,city,"Poplar, London",Reino Unido
152,4.89295,52.36679,Mara ,1398254744,2020-04-22 11:43:44,Mlaga La Bella ,city,"Amsterdam, Holanda",Holanda
205,-0.1397109,51.4960533,Mara ,1398254744,2020-05-23 14:10:07,Mlaga La Bella ,city,"London, England",Reino Unido
65,2.3492,48.8573,Mara ,1398254744,2020-06-05 00:14:36,Mlaga La Bella ,city,"Pars, Francia",Francia
28140,-94.6750935,38.931549,Mark Andrew,1398254814,2020-03-26 14:12:31,The Plains ,city,"Overland Park, KS",United States
205,0.33150949999999996,53.1399125,Colin Davie,1398255601,2020-02-14 21:24:13,"Lincolnshire, United Kingdom ",city,"Skegness, England",United Kingdom
65,1.4329005,43.600757,Colin Davie,1398255601,2020-03-08 09:23:43,"Lincolnshire, United Kingdom ",city,"Toulouse, France",France
205,0.135916,52.200974,Colin Davie,1398255601,2020-03-11 12:59:57,"Lincolnshire, United Kingdom ",city,"Cambridge, England",United Kingdom
186,-6.2998705,36.80474,JOSE LUIS CEBALLOS M,1398255606,2020-03-27 09:30:52,Sanlcar de Bda.,city,"Sanlcar de Barrameda, Espaa",Espaa
8,-64.1593356,-31.39296957, ,1398256014,2020-02-15 20:42:30,"Mendoza, Argentina",city,"Crdoba, Argentina",Argentina
186,2.5310305,41.611437,nuria paituvi sorian,139825687,2020-04-22 05:11:29,,city,"Arenys de Munt, Espaa",Espaa
8,-65.237957,-26.792665500000002,Marcita,1398257094,2020-05-20 19:26:07,"Tucumn, Argentina",city,"Diagonal Norte, Argentina",Argentina
205,0.2105895,51.560587,Lee Clifton,1398258038,2020-02-18 22:37:59,"harold hill, essex",city,"Romford, London",United Kingdom
21,-50.071012,-25.147325,Lasa Braga,1398258824,2020-02-14 01:05:51,Paraso do Norte- Paran,city,"Ponta Grossa, Brasil",Brasil
205,-2.207448,55.80046,Emma Jones,139826021,2020-02-14 22:00:03,Scottish Borders,city,"Chirnside, Scotland",United Kingdom
211,-70.1998275,11.710732,Alonso Larreal,139826163,2020-03-31 14:51:45,,city,"Punto Fijo, Venezuela",Venezuela
205,-1.76682,53.81593349999999,Graham Glover,139826182,2020-02-21 10:12:51,"53.815923,-1.771624",city,"Bradford, England",United Kingdom
151,7.0312755000000005,4.82463,FAITH OVER FEAR ,1398263449,2020-05-25 14:34:57,Nigeria,city,"Port Harcourt, Nigeria",Nigeria
85,15.530508,38.1754575,Maria Di Pietro,139826379,2020-02-16 21:37:01,Messina,city,"Messina, Sicilia",Italia
33,-72.4154,-35.32643,Manuel toco_xomba,139826480,2020-04-18 20:31:05,,city,"Constitucin, Chile",Chile
158,174.8562435,-36.595729,Western Springs FC,1398265346,2020-03-14 03:09:21,"Westmere, Auckland NZ",city,"Auckland, New Zealand",New Zealand
205,-4.084982,51.696666500000006,Dave Lloyd,139826597,2020-02-14 11:19:34,,city,"Llangennech, Wales",United Kingdom
35620,-73.9685415,40.780709,Dave Lloyd,139826597,2020-02-17 12:13:45,,city,"Manhattan, NY",United States
205,-3.453546,51.535375,Dave Lloyd,139826597,2020-02-20 13:01:12,,city,"Llanharan, Wales",United Kingdom
33340,-87.9188,43.0373,"CZ Technologies, LLC",13982672,2020-04-08 18:34:58,United States,city,"Milwaukee, WI",United States
31540,-89.45796,43.53835,"CZ Technologies, LLC",13982672,2020-04-08 22:11:39,United States,city,"Portage, WI",United States
33340,-87.9188,43.0373,"CZ Technologies, LLC",13982672,2020-04-23 20:35:28,United States,city,"Milwaukee, WI",United States
16740,-80.84333333,35.22694444,"CZ Technologies, LLC",13982672,2020-04-29 22:39:54,United States,city,"Charlotte, NC",United States
31540,-89.45796,43.53835,"CZ Technologies, LLC",13982672,2020-05-23 01:57:36,United States,city,"Portage, WI",United States
88,137.247151,36.142828,@,1398268038,2020-02-29 08:26:49, ,poi, ,
205,-1.4835,53.5512,Ryan Bright,1398268094,2020-04-20 13:34:27,"Barnsley, UK",city,"Barnsley, England",United Kingdom
119,-100.37832499,25.65202998,TechShop MTY,1398269444,2020-02-20 00:43:49,Lomas del Valle y Vasconcelos,city,"San Pedro Garza Garca, Nuevo Len",Mexico
186,2.2223405,41.4218995,Gonzalo Muoz,1398270848,2020-05-06 20:21:53,,city,"Sant Adri de Bess, Espaa",Espaa
40900,-121.53724869999999,38.55191370000001,Craig Haarmeyer,13982712,2020-02-14 23:36:42,"Sacramento, CA",city,"West Sacramento, CA",United States
46700,-121.82224,38.44577,Craig Haarmeyer,13982712,2020-02-21 20:45:49,"Sacramento, CA",city,"Dixon, CA",United States
38900,-122.66318000000001,45.51817,Craig Haarmeyer,13982712,2020-02-29 21:27:21,"Sacramento, CA",city,"Portland, OR",United States
40900,-121.47921944,38.54548056,Craig Haarmeyer,13982712,2020-03-23 02:02:52,"Sacramento, CA",city,"Sacramento, CA",United States
21,-46.5955455,-23.682803,letsan,1398273042,2020-02-14 02:03:14,vp ,city,"So Paulo, Brasil",Brasil
8,-58.39244255,-34.58647308,letsan,1398273042,2020-03-11 04:20:27,vp ,city,"Ciudad Autnoma de Buenos Aires, Argentina",Argentina
21,-51.325439,-30.366235999999997,letsan,1398273042,2020-03-19 12:55:44,vp ,city,"Barra do Ribeiro, Brasil",Brasil
8,-58.4397,-34.6089,,139827307,2020-05-19 19:51:27,,city,"Ciudad Autnoma de Buenos Aires, Argentina",Argentina
175,39.8016865,21.389833000000007, ,1398273655,2020-02-22 21:56:02,,city," ,   ",  
20980,-92.665842,33.2138285,Smackover Motors,1398273680,2020-02-27 15:05:31,"Smackover, AR",city,"El Dorado, AR",United States
46700,-121.9719265,38.362844,Scuba Steve,139827598,2020-03-07 08:34:32,"Inglewood, California ",city,"Vacaville, CA",United States
205,-0.1923765,51.8071275,Barney Puttick,1398276037,2020-02-29 23:37:02,"Welwyn Garden City, England",city,"Welwyn Garden City, East",United Kingdom
186,-5.1124565,36.461186,Barney Puttick,1398276037,2020-03-08 15:54:06,"Welwyn Garden City, England",city,"Estepona, Spain",Spain
205,-0.1923765,51.8071275,Barney Puttick,1398276037,2020-03-14 22:20:38,"Welwyn Garden City, England",city,"Welwyn Garden City, East",United Kingdom
35620,-73.9685415,40.780709,Jef Meletio,139827620,2020-05-24 20:45:51,"Manhattan, NY",city,"Manhattan, NY",United States
9,151.206454,-33.875659999999996,sbxgd,1398277028,2020-02-15 04:25:11,,poi,Metro Theatre,Australia
9,148.29620400000002,-41.8708965,Christopher McLeod,1398277242,2020-03-01 10:47:22,Vancouver BC,city,"Bicheno, Tasmania",Australia
24,-123.123581,49.257639000000005,Christopher McLeod,1398277242,2020-03-27 17:16:17,Vancouver BC,city,"Vancouver, British Columbia",Canada
178,26.2233,-29.1182,Festus De Edwin,1398277568,2020-06-05 17:11:38,"Bloemfontein, South Africa",city,"Bloemfontein, South Africa",South Africa
88,139.57274589,35.29133781,AME-CHANG,139827785,2020-02-28 03:41:33,,city, ,
175,41.450244,20.040415, ,1398278148,2020-02-19 06:08:52,,city,",   ",  
160,-77.0049755,-12.1944695,Diana Marcone,139827860,2020-05-03 20:37:48,"Lima, Pe",city,"Chorrillos, Peru",Peru
205,-3.2030084999999997,55.943195499999995,Julie Pigott,1398279379,2020-05-30 19:13:52,,city,"Edinburgh, Scotland",United Kingdom
42540,-75.83707541,41.27508145,Stephen Laielli,139827941,2020-02-22 06:46:42,williamsport pennsylvania,city,"Hudson, PA",United States
48700,-77.0187,41.2444,Stallion Stephen,139827941,2020-04-23 01:40:24,williamsport pennsylvania,city,"Williamsport, PA",United States
186,-2.8487902999999997,43.2694491,Alba,1398280016,2020-02-26 16:06:25,"Castille and Leon, Spain",city,"Lezama, Espaa",Spain
33,-70.6596155,-33.4521615,Denis J.R. ,139828068,2020-02-14 19:58:59,Venezuela,city,"Santiago, Chile",Chile
88,140.06790800000002,35.62453,izumi@,1398280681,2020-05-03 04:33:34,,city,  ,
186,-3.68333,40.4,Jose Recio Montes,139828232,2020-04-17 15:59:57,"Madrid, Comunidad de Madrid",city,"Madrid, Espaa",Espaa
208,-56.157687,-34.925325,Mauro Correa,139828359,2020-02-28 18:00:30,"Montevideo, uruguay",poi,Mercado Siam,Uruguay
200,29.1205295,40.202796000000006,muratcinar,139828362,2020-02-29 06:33:41,,city,"Bursa, Trkiye",Trkiye
85,12.454032000000002,41.902273,Toms,1398284485,2020-03-26 23:25:57,Lisbon,city,Vatican City,Vatican City
205,-0.9820305,51.452524,julie tucker,139828475,2020-04-11 20:41:01,,city,"Reading, England",United Kingdom
71,13.282681,52.687015,Andr Deissler,139828611,2020-02-22 14:55:59,Berlin,city,"Hohen Neuendorf, Deutschland",Deutschland
39300,-71.315972,41.487167,Dontay,1398286202,2020-05-22 03:32:24,"Newport, RI",city,"Newport, RI",United States
242,120.345274,23.1505485,asdfghjkl,1398287022,2020-03-02 09:18:27,,city,", ",
47260,-76.255686,36.895082,Aeife Sienna Genevieve Rysik,139828797,2020-05-30 00:44:29,"Florida, USA",city,"Norfolk, VA",United States
33100,-80.075358,26.788677500000002,Aeife Sienna Genevieve Rysik,139828797,2020-05-30 02:21:12,"Florida, USA",city,"Riviera Beach, FL",United States
205,-1.7348125,54.405349,Laurence Lines,139828845,2020-05-28 14:47:15,North Yorkshire  ,city,"Richmond, England",United Kingdom
30700,-96.6965625,40.803235,Zach Wemhoff,1398288590,2020-02-17 01:46:41,,city,"Lincoln, NE",United States
36540,-95.8595595,40.675871,Zach Wemhoff,1398288590,2020-02-23 01:32:11,,city,"Nebraska City, NE",United States
30700,-96.6965625,40.803235,Zach Wemhoff,1398288590,2020-02-23 04:11:56,,city,"Lincoln, NE",United States
49460,-97.394749,42.8909545,Zach Wemhoff,1398288590,2020-04-04 18:03:24,,city,"Yankton, SD",United States
30700,-96.6965625,40.803235,Zach Wemhoff,1398288590,2020-04-06 01:00:00,,city,"Lincoln, NE",United States
71,6.9667,50.95,Douglas de Almeida,139828957,2020-02-29 22:09:56,Cologne,city,"Colnia, Alemanha",Alemanha
21,-39.284882,-6.353518,Portal Jurdico Sem Fronteiras,1398289880,2020-02-14 22:18:37,"Fortaleza, Brasil",city,"Iguatu, Brasil",Brasil
46660,-83.30251200000002,30.856084499999998,Travis Taylor,1398290905,2020-02-14 18:51:26,,city,"Valdosta, GA",United States
8,-58.442643,-34.604315,@PABLOMARCELOSHOW,139829094,2020-02-17 17:43:26,Argentina,city,"Ciudad Autnoma de Buenos Aires, Argentina",Argentina
31080,-118.4119065,34.0207895,Genesis Discua,1398290996,2020-02-25 19:17:23,"Los Angeles, CA",city,"Los Angeles, CA",United States
41740,-117.10498899999999,32.810012,jen,1398294577,2020-02-22 02:39:50,,city,"San Diego, CA",United States
8,-58.56449,-34.4587225,Nahuel Ortiz,1398294667,2020-02-19 17:28:07,"San Fernando, Argentina",city,"San Fernando, Argentina",Argentina
200,28.164897999999997,41.075237,Hykmet,139829530,2020-05-22 07:35:19,#aslolanGalatasaraydr,poi,Semizkumlar,Trkiye
33,-71.0158865,-29.834815000000003,CORE Coquimbo,1398296029,2020-02-17 15:04:24,,city,"La Serena, Chile",Chile
8,-68.5328495,-31.5314145,CORE Coquimbo,1398296029,2020-02-25 21:54:03,,city,"San Juan, Argentina",Argentina
33,-71.285751,-30.7616485,CORE Coquimbo,1398296029,2020-03-04 14:13:06,,city,"Ovalle, Chile",Chile
8,-58.0296079,-31.382141600000004, ,1398296198,2020-03-23 23:00:24,"Entre Ros, Argentina",city,"Concordia, Argentina",Argentina
88,139.767252,35.681021,Raff@,139829773,2020-02-25 22:48:47,,poi, ,
65,2.0,47.0,Dani Nio,139829783,2020-02-27 10:00:40,,city,"Sainte-Lizaigne, France",Francia
186,-3.7904970000000002,40.41020924,Dani Nio,139829783,2020-03-27 10:07:11,,city,"Pozuelo de Alarcn, Espaa",Espaa
35620,-73.975717,40.682802,Marlon Ming,139829838,2020-02-25 03:48:05,,poi,Barclays Center,United States
117,58.291295,23.588532999999998,oza,1398299280,2020-03-18 07:06:49,"Manchester, England",poi,Muscat International Airport (MCT), 
42660,-122.316,47.6229,kimberley,13983,2020-06-05 19:12:09,seattle,city,"Seattle, WA",United States
175,46.685077,24.7219435,noura abdulaziz,1398302401,2020-03-06 21:46:39,,city,",   ",  
85,9.1593365,45.461345,Nicols Valderrama,139830363,2020-02-14 08:24:35,"Milan, IT ",city,"Milan, Lombardy",Italy
24,-79.27256949999999,43.629311,QBoySchool,139830400,2020-02-15 19:05:09,"Toronto,Ontario",city,"Toronto, Ontario",Canada
85,9.430436,45.37384,Simone Guarnaccia,1398304140,2020-05-09 17:51:30,,city,"Cervignano d'Adda, Lombardia",Italia
171,120.968701,14.3135285,Chic Torres ,1398305220,2020-02-24 13:33:45,"Manila, Philippines",city,"Dasmarinas, Calabarzon",Republic of the Philippines
186,2.1683,41.3894,Miguel angel,1398305660,2020-05-14 21:41:47,"#venezolano Retroceder NUNCA, ",city,"Barcelona, Espaa",Espaa
186,2.0314455,41.3040065,tuituitero,1398306115,2020-02-29 07:16:17,Barcelona,city,"Viladecans, Espaa",Espaa
23060,-85.1700515,41.086917,Cheryl Underwood,1398307470,2020-02-18 17:36:11,"Ft Wayne, IN",city,"Fort Wayne, IN",United States
88,132.4591,34.38263,,1398308682,2020-02-23 04:31:11,,poi,Clip,
175,50.108862,26.446356,   ,1398310406,2020-03-16 10:59:52,Riyadh & Dammam,poi,Eastern Province Emirate |   ,  
205,-0.14893599999999999,51.500091999999995,Maxime #,1398310458,2020-02-14 13:56:41,"London, England",city,"London, England",United Kingdom
119,-99.0835785,19.710635999999997,Carlos Velasco Mejia,139831068,2020-03-24 14:23:49,,city,"Jaltenco, Mxico",Mxico
33,-68.005184,-22.349939000000003,Freddy Serrano,139831103,2020-04-01 01:46:27,"Pealoln, Chile",poi,Geiser del Tatio,Chile
24,-79.27256949999999,43.629311,The Change Foundation,139831142,2020-02-19 02:37:42,"Ontario, Canada",city,"Toronto, Ontario",Canada
24,-123.3583795,48.4267305,Del Manak,1398311527,2020-03-06 05:01:28,"Victoria, BC",city,"Victoria, British Columbia",Canada
21,-49.32289,-25.771179999999998,Pr.Celso Quarentei,139831195,2020-02-14 12:26:38,"Mandirituba, Brasil",city,"Mandirituba, Brasil",Brasil
82,73.67957150000002,18.7311965,Monu jha,139831230,2020-04-11 18:18:55,"Pune, India",city,"Talegaon Dabhade, India",India
19100,-97.3858,32.3469,Ninny Bizzle Mane,1398312942,2020-05-20 09:17:35,"Fort Worth, TX",city,"Cleburne, TX",United States
12060,-84.3889,33.7566,Ninny Bizzle Mane,1398312942,2020-05-23 03:54:44,"Fort Worth, TX",city,"Atlanta, GA",United States
19100,-97.3858,32.3469,Ninny Bizzle Mane,1398312942,2020-05-28 22:44:25,"Fort Worth, TX",city,"Cleburne, TX",United States
205,-1.449612,53.3831645,Hillsborough Pumas,1398313052,2020-02-14 18:07:18,Sheffield,city,"Sheffield, England",United Kingdom
21,-37.100742,-11.0036455,Gabi,1398313057,2020-03-24 02:28:03,"Aracaju, Brasil",city,"Aracaju, Brasil",Brasil
205,-1.5106,52.4081,amy louise beauty,139831317,2020-02-16 17:52:10,"Coventry, UK",city,"Coventry, England",United Kingdom
32780,-122.6936605,42.191646999999996,Daisy,1398313254,2020-02-16 00:20:08,"Washington, USA",city,"Ashland, OR",United States
36500,-122.92351599999999,47.064528,Daisy,1398313254,2020-03-11 18:31:23,"Washington, USA",city,"Olympia, WA",United States
16500,-122.97188349999999,46.7272905,Daisy,1398313254,2020-03-14 17:56:50,"Washington, USA",city,"Centralia, WA",United States
8,-58.539258999999994,-34.814127,Mica Toribio,139831329,2020-03-15 20:41:59,Nueva Pompeya - Buenos Aires,poi,Aeropuerto Internacional de Ezeiza - Ministro Pistarini (EZE),Argentina
21,-48.5185175,-21.4377455,marayara e maraysa,1398314066,2020-03-29 02:32:11,Taquaritinga,city,"Taquaritinga, Brasil",Brasil
186,-15.459848999999998,28.103013,paul bevan,13983142,2020-02-22 19:07:00,"Winchester, England",city,"Las Palmas de Gran Canaria, Spain",Spain
205,1.120798,51.0793705,paul bevan,13983142,2020-03-05 20:03:03,"Winchester, England",city,"Folkestone, England",United Kingdom
47660,-93.554198,38.728312,samuel miller,1398314419,2020-02-25 15:52:55,"Missouri, USA",city,"Whiteman Air Force Base, MO",United States
24,-123.69106399999998,48.405466499999996,NiceLadyProductions,139831617,2020-04-23 02:38:21,"Victoria, BC Canada",city,"Sooke, British Columbia",Canada
24860,-82.208899,34.79872450000001,Alan,1398316531,2020-02-14 11:04:33,,city,"Five Forks, SC",United States
36740,-81.4696845,28.586642,HennyGawd,139831662,2020-03-26 21:19:54,"Orlando, FL",city,"Pine Hills, FL",United States
200,29.015365000000003,41.027312,Av.mer Aca,1398316856,2020-02-17 20:18:31,"stanbul, Trkiye",poi,skdar Sahili,Trkiye
31080,-118.4119065,34.0207895,Jen Banana,1398317048,2020-03-15 10:12:45,"Oxnard, CA",city,"Los Angeles, CA",United States
38,-75.55315376,4.84238274,FREEMN,139831708,2020-02-20 01:16:18,Colombia,city,"Santa Rosa de Cabal, Colombia",Colombia
49,-79.8996,-2.1761,cristian guerra,139831825,2020-05-16 23:55:37,"Guayaquil, Ecuador",city,"Guayaquil, Ecuador",Ecuador
31080,-118.243,34.0522,Brandon Middleton,1398318331,2020-03-31 01:35:16,"Los Angeles via Nashville, TN",city,"Los Angeles, CA",United States
38,-74.24367099999999,4.2622835,Jorge Quiroga,139832001,2020-02-29 13:03:49,,city,"Bogot, D.C., Colombia",Colombia
31080,-118.4119065,34.0207895,Danny Malaysia ,139832146,2020-04-17 15:08:03,"left side of the map, CA",city,"Los Angeles, CA",United States
8,-58.4907496,-34.68539887,Regalos Maga. Gaby,139832240,2020-05-08 00:21:39,Buenos Aires  Argentina,city,"Gonzlez Catn, Argentina",Argentina
16740,-81.18027778,35.25527778,FHS Sports Medicine,1398322572,2020-03-08 23:42:53,"Forestview HS, NC",city,"Gastonia, NC",United States
71,11.421638000000002,49.9067585,Gerhard Schwarzmeier,1398322658,2020-04-23 08:20:10,,city,"Mistelgau, Deutschland",Deutschland
8,-58.54075699999999,-34.4902185,Alejo Mezzarapa,1398323006,2020-02-14 11:29:22,,city,"San Isidro, Argentina",Argentina
186,-3.461792,40.4706885,Juanan,139832352,2020-04-04 10:40:00,Madrid,city,"Torrejn de Ardoz, Espaa",Espaa
88,138.727798,36.870283,,1398323743,2020-02-17 23:54:19,,poi, (Kagura Ski Resort),
24,-73.723025,45.5578305,Gonzalo Muoz Vera,1398324079,2020-03-02 14:06:06,"Montreal, Canada",city,"Montral, Qubec",Canada
37340,-80.7176005,28.259177,Jesse Travis (Jariya Designs),1398324672,2020-04-16 03:20:04,"Florida, USA",city,"Viera East, FL",United States
160,-77.034885,-12.1007775,Isabel Malaga,139832664,2020-02-20 22:29:37,,city,"San isidro, Peru",Peru
38820,-123.096984,48.0890025,E L  #Bernie2020 ,139832676,2020-02-23 07:46:32,Pyongyang  DPRK ,city,"Sequim, WA",United States
11820,-123.812943,46.1873455,E L  #Bernie2020 ,139832676,2020-03-02 02:50:25,Pyongyang  DPRK ,city,"Astoria, OR",United States
28940,-84.16194200000001,35.880157000000004,pillow hands mcgraw,1398327144,2020-05-03 20:19:54,knoxville  chattanooga,poi,Farragut Walk In Clinic,United States
186,2.1412275000000003,41.392657,Luna Miguel,139832755,2020-02-14 06:52:03,Barcelona,city,"Barcelona, Espaa",Espaa
35620,-73.9685415,40.780709,Luna Miguel,139832755,2020-03-06 11:38:38,Barcelona,city,"Manhattan, NY",Estados Unidos
186,2.1412275000000003,41.392657,Luna Miguel,139832755,2020-03-10 12:39:15,Barcelona,city,"Barcelona, Espaa",Espaa
225,55.340807,25.227785,Melvin,1398327596,2020-02-20 14:55:01,"Sterling, VA",poi,Palazzo Versace Swimming Pool,United Arab Emirates
47900,-77.403441,39.0039365,Melvin,1398327596,2020-02-24 18:43:40,"Sterling, VA",city,"Sterling, VA",United States
18140,-83.1598,40.1032,Joy Gallo,1398328087,2020-05-22 19:25:32,,city,"Dublin, OH",United States
21,-43.296872,-22.644558,Monica Rosa,139832836,2020-04-24 20:56:00,,city,"Duque de Caxias, Brasil",Brasil
119,-96.7250025,17.090319,Chema Madrigal,1398328814,2020-03-24 02:56:39,"Distrito Federal, Mxico",city,"Oaxaca de Jurez, Oaxaca",Mxico
21,-43.441578,-22.911421500000003,Yasmin,1398329622,2020-02-14 01:20:14,+5521,city,"Rio de Janeiro, Brasil",Brasil
186,-0.11022699999999999,39.830779,PasqualS,1398329701,2020-06-09 19:00:21,Vila-real  (Pais Valenci),poi,Platges de Nules,Espanya
33460,-93.2620465,44.9706105,University of Minnesota Law School,139833027,2020-02-17 17:56:07,"Minneapolis, MN",city,"Minneapolis, MN",United States
49,-79.5678415,-2.106393,Maritza Beltran,1398330763,2020-02-15 03:28:58,Milagro ,city,"Milagro, Ecuador",Ecuador
21,-47.261794,-22.843816,vivi.,1398331045,2020-02-19 05:02:23, central perk ,city,"Sumar, Brasil",Brasil
41620,-111.89980449999999,40.706168,B,139833134,2020-02-14 01:11:07,"Salt Lake City, UT",city,"South Salt Lake, UT",United States
36260,-111.8838925,40.9282845,B,139833134,2020-02-15 20:36:04,"Salt Lake City, UT",city,"Centerville, UT",United States
41620,-111.89980449999999,40.706168,B,139833134,2020-02-16 02:15:28,"Salt Lake City, UT",city,"South Salt Lake, UT",United States
44920,-111.553954,40.686278,B,139833134,2020-03-01 15:54:11,"Salt Lake City, UT",poi,Canyons Resort,United States
41620,-111.89980449999999,40.706168,B,139833134,2020-03-01 20:46:33,"Salt Lake City, UT",city,"South Salt Lake, UT",United States
8,-60.69740600000001,-32.9516155,joel,1398332334,2020-02-14 01:04:45,,city,"Rosario, Argentina",Argentina
78,-87.889312,15.283995999999998,Jose Luis B.,139833471,2020-04-02 23:23:24,"Honduras, San Pedro Sula",poi,Ingenio Azunosa,Honduras
27600,-83.58773199999999,34.1256065,Patrick Jones,1398336055,2020-06-07 21:34:32,"Lawrenceville, GA",city,"Jefferson, GA",United States
211,-66.930644,10.483539,Jose Luis Castro,1398338526,2020-03-16 17:11:07,Venezuela,city,"Caracas, Venezuela",Venezuela
119,-97.31421390000001,18.2631918,Alan stark,1398339451,2020-03-14 16:44:51,En t subconciente ,city,"San Jos Miahuatln, Puebla",Mxico
119,-103.4847745,20.790657000000003,Ulises Garduo Prez,1398339576,2020-05-17 16:27:01,,city,"Zapopan, Jalisco",Mxico
33860,-86.24472850000002,32.364145,RakkaHD,1398339692,2020-02-18 19:40:16,"Alabama, USA",city,"Montgomery, AL",United States
8,-68.7899315,-32.962086,-,1398341484,2020-04-25 21:58:02,"Maip, Argentina",city,"Maip, Argentina",Argentina
175,39.6540485,24.462089000000002,BWS,139834167,2020-02-23 16:12:42,In your heart,city," ,   ",  
171,125.4432615,7.317582499999999,Lemrol Edylc Cojobiram,1398342492,2020-02-18 13:47:11,"Davao City, Davao Region",city,"Davao City, Davao Region",Republic of the Philippines
41420,-123.228831,44.85018,Janice Weide,1398345536,2020-03-21 00:34:14,,city,"Monmouth, OR",United States
175,39.8016865,21.389833000000007,  ..,1398346370,2020-04-13 15:58:01,  ,city," ,   ",  
178,28.1799355,-26.2288285,13-June-Section-90,1398346465,2020-02-15 18:18:52,"Johannesburg, South Africa",city,"Germiston, South Africa",South Africa
119,-100.44059449999999,20.7152745,A Zolorio,139834654,2020-02-18 17:44:47,,city,"Quertaro, Quertaro Arteaga",Mxico
178,28.056557,-26.199711999999998,Nyiko S. Nxumalo,139834702,2020-03-13 21:44:33,Jozi!!,poi,Marabi Jazz Club,South Africa
42660,-122.3306025,47.614816999999995,Sal Schillaci,1398350510,2020-02-17 03:07:52,"Seattle, WA",city,"Seattle, WA",United States
31080,-118.4119065,34.0207895,Sal Schillaci,1398350510,2020-02-21 17:10:15,"Seattle, WA",city,"Los Angeles, CA",United States
42660,-122.3306025,47.614816999999995,Sal Schillaci,1398350510,2020-05-10 16:38:21,"Seattle, WA",city,"Seattle, WA",United States
33100,-80.369153,25.8256435,Juan Carlos Acosta,139835104,2020-04-19 17:55:01,Punto Fijo,city,"Doral, FL",Estados Unidos
21,-46.544744,-21.820472,theodora,1398352172,2020-03-09 16:13:14,LA LA LAND,city,"Poos de Caldas, Brasil",Brasil
205,-0.1091815,51.5469265,Sara,139835310,2020-03-23 16:39:56,,city,"Islington, London",United Kingdom
36740,-81.3677725,28.5016785,Courtney  Rohde,1398353286,2020-03-12 20:59:42,"Phoenix, AZ",city,"Orlando, FL",United States
39140,-111.78712,34.8582795,Courtney  Rohde,1398353286,2020-05-14 18:53:10,"Phoenix, AZ",city,"Sedona, AZ",United States
40140,-117.63059528,34.107287,Author Claire Gager,139835402,2020-02-15 11:30:10,Southern California,city,"Upland, CA",United States
31080,-117.82477435,34.05673034,Author Claire Gager,139835402,2020-04-18 22:15:35,Southern California,city,"Pomona, CA",United States
40140,-117.65101000000001,34.0994,Author Claire Gager,139835402,2020-04-18 22:42:00,Southern California,city,"Upland, CA",United States
159,-57.60601750000001,-25.300264000000002,Edgar 3',1398355225,2020-02-19 18:16:32,,city,"Asuncion, Paraguay",Paraguay
35620,-73.9487755,40.655138,LB ,1398355530,2020-03-02 06:36:19,Philly | NYC,city,"Brooklyn, NY",United States
119,-99.2645265,19.275564499999998,Diego DeLarge,1398355550,2020-04-05 16:13:33,CDMX,city,"La Magdalena Contreras, Distrito Federal",Mxico
152,4.904053500000001,52.354728,andy,139835586,2020-04-08 10:32:18,"North Holland, The Netherlands",city,"Amsterdam, The Netherlands",The Netherlands
31080,-118.4119065,34.0207895,Marlene Sandoval,139835671,2020-02-17 02:27:14,,city,"Los Angeles, CA",United States
200,27.4067505,38.6239745,serkan,139835707,2020-04-14 18:20:21,,city,"Manisa, Trkiye",Trkiye
186,-5.3839695,37.3261505,Vctor Morn,1398357283,2020-02-16 09:17:30,Marchena (Sevilla),city,"Marchena, Espaa",Espaa
24,-81.25,42.9833,terry foxrun london,1398359635,2020-04-13 00:01:44,,city,"London, Ontario",Canada
29820,-115.2344355,36.0188045,.blackkmatt,139835964,2020-03-02 22:22:50,Vegas,city,"Enterprise, NV",United States
21,-46.5955455,-23.682803,Felipe Souza,1398360102,2020-02-17 09:48:42,"Rio de Janeiro, Brasil",city,"So Paulo, Brasil",Brasil
38,-74.12831783,4.64589387,Vanessa,139836062,2020-02-17 06:25:22,Narnia,city,"Bogot, D.C., Colombia",Colombia
21,-48.183268,-24.776332500000002,nbia ,139836098,2020-06-05 22:25:50,Marte,city,"Cajati, Brasil",Brasil
28940,-84.1496805,36.2123685,Robin Hyden Ed.D.,1398361885,2020-03-16 16:55:33,"Paintsville, KY",city,"Lake City, TN",United States
27740,-82.3882145,36.3447405,Robin Hyden Ed.D.,1398361885,2020-04-25 16:14:06,"Paintsville, KY",city,"Johnson City, TN",United States
49020,-78.16936150000002,39.167891,David Myers,1398362953,2020-03-05 18:33:27,"Winchester, VA",city,"Winchester, VA",United States
47900,-77.57837549999998,38.7508685,David Myers,1398362953,2020-04-29 20:00:10,"Winchester, VA",city,"Linton Hall, VA",United States
205,-0.046718,51.646069,Enfieldislamiccentre,1398363170,2020-05-14 21:10:34,"Enfield, North London",poi,Jalalia Jamme Masjeed Enfield (Enfield Mosque),United Kingdom
171,121.33832549999998,14.4548305,AyyyEm N E R R I E ,1398363750,2020-02-23 18:13:10,"Pililla, Rizal",city,"Pililla, Calabarzon",Republic of the Philippines
40060,-77.417618,37.36513,Young Alfred,139836488,2020-06-01 16:26:32,,poi,Easy Street Grub N Pub,United States
82,72.87424399999999,19.174139999999998,Chirag Vijay Goda,1398364934,2020-03-22 10:38:16,Mumbai,city,"Mumbai, India",India
8,-58.56666667,-34.88333333,cami denise,1398365516,2020-03-03 17:58:36,ARGENTINA,city,"Jos Mara Ezeiza, Argentina",Argentina
205,-1.7874955000000001,52.447226,Abhi Punj,139836560,2020-02-25 09:40:42,"Birmingham, England",city,"Solihull, England",United Kingdom
35620,-74.00076130000001,40.7207559,Abhi Punj,139836560,2020-05-11 11:30:50,"Birmingham, England",city,"Manhattan, NY",United States
151,5.463215,7.433546000000001,Olakunle Adetoba,139836591,2020-03-12 17:05:43,Nigeria,city,"Emure-Ekiti, Nigeria",Nigeria
21,-43.441578,-22.911421500000003,aline,139836660,2020-03-07 15:56:10,Rio de Janeiro ,city,"Rio de Janeiro, Brasil",Brasil
21,-42.7365505,-22.521039,Matheus Katinha ,139836839,2020-02-14 01:57:16,"Cachoeiras de Macacu, Brasil",city,"Cachoeiras de Macacu, Brasil",Brasil
28140,-94.80808499999999,38.886623,Meghan Siebs ,1398369890,2020-03-26 02:26:46,ksu 22,city,"Olathe, KS",United States
205,-4.142930000000001,50.402215000000005,tracylouise1175,1398370226,2020-02-15 21:45:09,England,city,"Plymouth, England",United Kingdom
205,-0.412022,51.375745,Le Petit Nantais,1398370454,2020-03-24 12:38:34,Hampton Court Village ,city,"West Molesey, South East",United Kingdom
175,39.638633,24.439579000000002,| R.A |,1398370632,2020-06-06 14:23:31,almadinah,poi,Maternity & Children Hospital,  
21,-34.88972719,-8.0839359,(sa)fadinha ,139837187,2020-06-02 17:29:50,Recife,city,"Recife, Brasil",Brasil
82,77.095086,28.638489500000002,IG:agungtriansyah.m,1398375422,2020-04-16 15:37:24,"sidrap,Makassar south sulawesi",city," , ",
119,-99.208364,19.199485,Yamilet,1398375438,2020-02-27 17:07:52,,city,"Tlalpan, Distrito Federal",Mxico
28940,-83.9638415,35.982470500000005,MelissaWhatleyGrant,1398375955,2020-02-21 18:54:57,"Knoxville, TN",city,"Knoxville, TN",United States
8,-58.3901175,-34.702244500000006,Daniel Mazzei,139837607,2020-02-14 10:40:34,Buenos Aires Argentina,city,"Lans Oeste, Argentina",Argentina
40060,-77.49317049999998,37.529883,Brian Lalor,13983762,2020-02-19 03:24:32,RVA,city,"Richmond, VA",United States
26420,-95.4464865,29.838495,giulia,1398376458,2020-03-17 01:26:23,"Houston, TX",city,"Houston, TX",United States
51,-6.579388000000001,52.4597335,don lavery,139837687,2020-02-14 11:30:49,"Wexford, Ireland",city,"Wexford, Ireland",Ireland
24860,-82.3422685,34.7959415,Sam Griebel,1398376981,2020-02-20 01:42:53,"Greenville, SC",city,"Greenville, SC",United States
17540,-90.2109935,41.8569045,Sam Griebel,1398376981,2020-03-11 00:01:19,"Greenville, SC",city,"Clinton, IA",United States
24860,-82.3422685,34.7959415,Sam Griebel,1398376981,2020-03-12 15:36:44,"Greenville, SC",city,"Greenville, SC",United States
175,39.2541285,21.5857105,Ali Almasari,1398377954,2020-03-16 08:09:19,,city,",   ",  
35620,-73.8494415,40.8503475,juni colon,1398378007,2020-05-01 01:56:27,"Bedford Park, Bronx",city,"Bronx, NY",United States
205,-2.0093330000000003,52.514873,Paulio Townsend,139837912,2020-04-04 11:31:03,Central England,city,"West Bromwich, England",United Kingdom
29740,-106.603405,32.027344,Victor Ray  Montoya,1398379200,2020-02-15 05:00:50,Anthony New Mexico,city,"Anthony, NM",United States
21340,-106.601,32.006,Victor Ray  Montoya,1398379200,2020-04-21 21:00:39,Anthony New Mexico,city,"Anthony, NM",United States
46220,-87.5334065,33.1966005,amy ryan,1398379417,2020-03-19 22:58:36,"Tuscaloosa, Alabama",city,"Tuscaloosa, AL",United States
38060,-111.7375655,33.4057545,Ben,13983802,2020-04-16 19:48:44,"Phoenix, AZ",city,"Mesa, AZ",United States
175,46.685077,24.7219435, ,1398381582,2020-02-28 10:33:47,",   ",city,",   ",  
222,106.653979,-6.122284,Bang Dend,1398381829,2020-02-18 18:53:48,,poi,Terminal 2F,
175,46.685077,24.7219435, ,1398381972,2020-02-17 10:34:53, -   ,city,",   ",  
205,-0.0601675,51.5476445,ginger menace,139838338,2020-02-14 10:49:46,,city,"Hackney, London",United Kingdom
31080,-118.475374,33.995329999999996,Yusuke Ohno,1398383462,2020-03-17 03:03:42,,poi,Gold's Gym,United States
205,-2.1244419999999997,52.49373350000001,Nicola Rowe,139838573,2020-03-07 18:03:37,Dudley,city,"Dudley, England",United Kingdom
21,-46.5955455,-23.682803,,1398387362,2020-02-14 14:45:53,So Paulo,city,"So Paulo, Brasil",Brasil
38300,-79.761753,40.4235755,Carly B,139838769,2020-02-15 12:29:15,"Pittsburgh, PA",city,"Municipality of Monroeville, PA",United States
35380,-90.253346,30.0093515,Carly B,139838769,2020-02-24 00:19:45,"Pittsburgh, PA",city,"Kenner, LA",United States
38300,-79.761753,40.4235755,Carly B,139838769,2020-03-01 14:00:35,"Pittsburgh, PA",city,"Municipality of Monroeville, PA",United States
26860,-79.15155250000002,40.621319,Carly B,139838769,2020-03-21 17:21:44,"Pittsburgh, PA",city,"Indiana, PA",United States
38300,-79.761753,40.4235755,Carly B,139838769,2020-03-28 14:07:59,"Pittsburgh, PA",city,"Municipality of Monroeville, PA",United States
26860,-79.15155250000002,40.621319,Carly B,139838769,2020-04-05 18:42:00,"Pittsburgh, PA",city,"Indiana, PA",United States
38300,-79.761753,40.4235755,Carly B,139838769,2020-04-06 11:12:34,"Pittsburgh, PA",city,"Municipality of Monroeville, PA",United States
26860,-79.15155250000002,40.621319,Carly B,139838769,2020-04-12 18:01:12,"Pittsburgh, PA",city,"Indiana, PA",United States
38300,-79.761753,40.4235755,Carly B,139838769,2020-04-13 20:48:15,"Pittsburgh, PA",city,"Municipality of Monroeville, PA",United States
26860,-79.15155250000002,40.621319,Carly B,139838769,2020-05-09 16:11:09,"Pittsburgh, PA",city,"Indiana, PA",United States
38300,-79.6493965,40.44276,Carly B,139838769,2020-05-15 19:21:52,"Pittsburgh, PA",city,"Municipality of Murrysville, PA",United States
26860,-79.15155250000002,40.621319,Carly B,139838769,2020-05-25 13:54:14,"Pittsburgh, PA",city,"Indiana, PA",United States
38300,-79.761753,40.4235755,Carly B,139838769,2020-05-30 12:47:01,"Pittsburgh, PA",city,"Municipality of Monroeville, PA",United States
26860,-79.15155250000002,40.621319,Carly B,139838769,2020-06-07 02:58:16,"Pittsburgh, PA",city,"Indiana, PA",United States
25060,-89.069133,30.426027,addi,1398388260,2020-05-13 04:39:06,"La Verne, CA",city,"Gulfport, MS",United States
37860,-87.25223199999998,30.471377,addi,1398388260,2020-05-13 15:16:21,"La Verne, CA",city,"Brent, FL",United States
18880,-86.584769,30.750441499999997,addi,1398388260,2020-05-13 17:18:05,"La Verne, CA",city,"Crestview, FL",United States
12060,-84.43310600000001,33.7671945,addi,1398388260,2020-05-14 01:12:24,"La Verne, CA",city,"Atlanta, GA",United States
37340,-80.66766150000002,28.2756395,addison,1398388260,2020-05-19 03:54:28,"La Verne, CA",city,"Merritt Island, FL",United States
40140,-117.603783,34.0451585,addison,1398388260,2020-05-28 07:03:40,"La Verne, CA",city,"Ontario, CA",United States
88,141.14606,39.156859000000004,,1398391776,2020-02-29 03:43:54,,poi,,
35620,-74.184848,40.734494,nachito koronel ,1398392089,2020-02-16 00:06:57,"New Jersey, USA",city,"Newark, NJ",Estados Unidos
36740,-81.441419,28.6600645,IG: therealrhodessa,139839304,2020-03-11 18:34:51,"Orlando, FL",city,"Forest City, FL",United States
205,-1.2537260000000001,52.3742645,Ruth Headley,139839326,2020-03-27 21:06:07,"Rugby, Warwickshire",city,"Rugby, England",United Kingdom
26900,-86.13244850000002,39.963249499999996,Laura Johnston,1398393637,2020-04-23 11:19:27,,city,"Carmel, IN",United States
85,12.5451455,41.8984165,manuela rella ,139839366,2020-02-29 11:37:21,"Roma, Lazio",city,"Roma, Lazio",Italia
14460,-71.04572941,42.34572861,Steve!,13983942,2020-03-02 17:46:57,"Pottstown, PA",city,"Boston, MA",United States
21,-43.441578,-22.911421500000003,Ana Clara,1398395024,2020-02-24 00:29:45,,city,"Rio de Janeiro, Brasil",Brasil
38,-74.08556,4.6798910000000005,Lorena Monroy O,139839620,2020-05-02 20:23:29,Colombia,poi,Alkosto Av 68,Colombia
23540,-82.3302695,29.6731715, rajel ,1398397154,2020-02-16 22:19:00,"Gainesville, FL",city,"Gainesville, FL",United States
33100,-80.307064,25.976124, rajel ,1398397154,2020-03-02 02:17:30,"Gainesville, FL",city,"Miramar, FL",United States
23540,-82.3302695,29.6731715, rajel ,1398397154,2020-03-17 01:37:49,"Gainesville, FL",city,"Gainesville, FL",United States
33100,-80.307064,25.976124, rajel ,1398397154,2020-03-20 19:40:24,"Gainesville, FL",city,"Miramar, FL",United States
119,-103.335882,20.676652,samuel,1398398472,2020-03-21 05:30:01,,city,"Guadalajara, Jalisco",Mxico
186,-3.7425415,37.791399,ana vane,139839924,2020-02-24 10:07:54,,city,"Jan, Espaa",Espaa
10,50.577384,26.285982,,1398400154,2020-04-15 20:09:39, ,poi, , 
205,-1.852607,50.742268,Nigel Payne,1398401017,2020-02-19 20:49:48,"Bournemouth, England",city,"Bournemouth, England",United Kingdom
41860,-121.9103445,38.016752000000004,rochelle foles,139840194,2020-03-17 20:47:13,"san francisco, my beautiful",city,"Pittsburg, CA",United States
178,31.029386,-29.854064,Natasha Moodley,139840248,2020-02-14 19:15:21,"Durban, South Africa",poi,Durban International Convention Centre,South Africa
211,-66.921,10.493,Glorimar Roso,139840374,2020-05-03 02:52:58,Caracas-Venezuela,city,"Caracas, Venezuela",Venezuela
42300,-84.377103,46.478877000000004,Jake Johnston,1398404562,2020-05-01 13:57:56,"Sault Ste Marie, MI",city,"Sault Ste Marie, MI",United States
153,10.2392715,59.1069125,Skogbrann Helikopter,1398404742,2020-04-14 13:33:07,Torp Sandefjord lufthavn,city,"Sandefjord, Norge",Norway
33,-71.583467,-33.062865,,1398406188,2020-03-22 00:40:14,Chile,poi,Club De Campo Javiera Carrera,Chile
119,-99.050461,19.3427885,IDG,139840638,2020-02-17 15:07:18,"Cuauhtmoc, Distrito Federal",city,"Iztapalapa, Distrito Federal",Mxico
16740,-80.86455649999998,35.56843449999999,"Jason Ward, CISSP",1398406388,2020-02-14 19:39:23,"Charlotte, NC",city,"Mooresville, NC",United States
2,1.2637044999999998,36.1991385,zoudah,1398407204,2020-02-15 10:43:27,,city,"Ech Chott                                                                                           , Algeria",Algrie
31860,-93.9992845,44.16514,Cullen Gahagan,1398407454,2020-06-08 05:45:28,"Oregon, WI Mankato, MN ",city,"Mankato, MN",United States
13820,-86.760091,33.385555,Dean Ethridge,139840902,2020-02-29 12:34:04,"Birmingham, AL",city,"Hoover, AL",United States
19380,-84.022463,39.8069165,Kevin DeWine,13984092,2020-02-15 13:28:32,Probably Ohio,city,"Fairborn, OH",United States
16740,-80.8467855,35.209059,Kevin DeWine,13984092,2020-02-21 21:05:00,Probably Ohio,city,"Charlotte, NC",United States
19380,-84.208466,39.882031,Kevin DeWine,13984092,2020-02-21 22:37:50,Probably Ohio,city,"Vandalia, OH",United States
10740,-106.632718,35.117002500000005,Inez,1398409250,2020-02-21 18:00:15,NM,city,"Albuquerque, NM",United States
8,-58.539258999999994,-34.814127,Rocio Burguete,139840931,2020-03-01 14:09:30,Buenos Aires,poi,Aeropuerto Internacional de Ezeiza - Ministro Pistarini (EZE),Argentina
205,-0.14893599999999999,51.500091999999995,Rocio Burguete,139840931,2020-03-04 01:11:17,Buenos Aires,city,"London, England",United Kingdom
119,-101.601401,21.09806,El To Garnachas,1398409453,2020-02-14 03:32:05,,city,"Len, Guanajuato",Mxico
41740,-117.10498899999999,32.810012,El To Garnachas,1398409453,2020-02-18 01:36:16,,city,"San Diego, CA",Estados Unidos
119,-116.929102,32.332876500000005,El To Garnachas,1398409453,2020-02-18 01:40:58,,city,"Tijuana, Baja California",Mxico
24,-79.65060759999999,44.414711100000005,Kerry M Cook,1398410648,2020-03-29 19:11:34,"Ontario, Canada",city,"Barrie, Ontario",Canada
119,-99.153366,19.432835999999998,Dii Valverde,1398410966,2020-02-14 03:47:08,,city,"Cuauhtmoc, Distrito Federal",Mxico
222,106.09005649999999,-6.363519999999999,kebacut punk,1398411242,2020-04-04 01:51:20,"Pandeglang, Indonesia",city,"Banjar, Indonesia",Indonesia
49,-80.091193,-2.512995,Eunice Simons,139841125,2020-02-20 04:51:33,Ecuador,city,"Guayaquil, Ecuador",Ecuador
88,139.55726950000002,35.618423,SDG Releyt / 4 ,1398411331,2020-03-05 15:41:16, ,city,  ,
178,18.4890615,-34.1216575,Rish,139841226,2020-02-15 20:28:58,Cape Town,city,"Cape Town, South Africa",South Africa
12620,-68.422218,44.533246999999996,Chuck Carter,139841270,2020-02-18 17:23:19,"Ellsworth, Maine",city,"Ellsworth, ME",United States
21,-48.722283,-26.82742,Cacheada,1398412718,2020-02-25 21:29:48,,city,"Navegantes, Brasil",Brasil
205,-1.3255455,51.064240000000005,Trudi Licence,1398413594,2020-02-22 19:37:31,,city,"Winchester, England",United Kingdom
38,-75.619213,6.270883,David Montoya,1398413750,2020-03-13 00:13:52,,city,"Medelln, Colombia",Colombia
65,2.43014574,48.8933191,Laurent Milon ,1398413798,2020-05-20 11:05:56,Paris,city,"Romainville, France",France
47900,-77.03635600000001,38.89993,Lindsay Watts,139841847,2020-06-02 20:34:32,"Washington, DC",poi,Lafayette Square Park,United States
71,7.2186965,51.112820500000005,jurak,1398418730,2020-02-27 12:40:07,"Dsseldorf, Deutschland",city,"Wermelskirchen, Deutschland",Deutschland
14260,-116.238001,43.598033,Social Eyes,139841878,2020-06-08 22:02:02,Portland  Boise  Salt Lake ,city,"Boise, ID",United States
8,-56.8572205,-37.0977935,Branko,1398419492,2020-02-16 21:33:05,"Crdoba, Argentina",city,"Pinamar, Argentina",Argentina
21,-47.261794,-22.843816,Isabelle,1398420120,2020-02-14 13:38:33,,city,"Sumar, Brasil",Brasil
41860,-122.43597849999999,37.7706565,mia,1398420752,2020-06-10 21:18:09,"San Francisco, CA",city,"San Francisco, CA",United States
8,-58.449776,-34.545325,Lucas Casta ,139842127,2020-02-17 13:20:07,,poi,"Estadio Antonio Vespucio Liberti ""Monumental"" (Club Atltico River Plate)",Argentina
200,28.978144,41.007932000000004,Mert Akgl,1398422143,2020-05-30 18:14:38,"stanbul, Trkiye",city,"stanbul, Trkiye",Trkiye
8,-64.1833,-31.4,Gastank Kulture,1398422282,2020-02-21 22:14:29,"Cordoba, Argentina",city,"Crdoba, Argentina",Argentina
18880,-86.6364105,30.447682,Martinez,1398422798,2020-04-07 05:33:08,,city,"Wright, FL",United States
31080,-118.243,34.0522,Grant Nabozny ,139842284,2020-03-06 02:52:07,"Los Angeles, CA",city,"Los Angeles, CA",United States
48,-70.5367755,18.378076500000002,JACQUES Hodson BRA,1398422840,2020-02-16 21:16:04,"Haiti, Hinche",city,"Las Charcas, Dominican Republic",Dominican Republic
35620,-73.9487755,40.655138,JACQUES Hodson BRA,1398422840,2020-02-19 04:45:11,"Haiti, Hinche",city,"Brooklyn, NY",Etats-Unis
14460,-71.0887125,42.3136695,JACQUES Hodson BRA,1398422840,2020-02-22 12:46:30,"Haiti, Hinche",city,"Boston, MA",Etats-Unis
35620,-73.9487755,40.655138,JACQUES Hodson BRA,1398422840,2020-02-25 23:28:23,"Haiti, Hinche",city,"Brooklyn, NY",Etats-Unis
47900,-76.8039955,38.983522,A A Ron,1398423516,2020-02-16 05:15:34,D(M)V,city,"Glenn Dale, MD",United States
12580,-76.70463149999999,39.154153,A A Ron,1398423516,2020-02-22 20:37:57,D(M)V,city,"Severn, MD",United States
47900,-76.8039955,38.983522,A A Ron,1398423516,2020-02-24 07:28:30,D(M)V,city,"Glenn Dale, MD",United States
12580,-76.70463149999999,39.154153,A A Ron,1398423516,2020-02-25 00:23:25,D(M)V,city,"Severn, MD",United States
47900,-76.74663849999997,38.9637825,A A Ron,1398423516,2020-02-25 05:50:46,D(M)V,city,"Bowie, MD",United States
33100,-80.24977249999999,26.270261,juan francisco veloz,139842372,2020-03-07 17:11:04,"Valencia,Venezuela",city,"Coral Springs, FL",United States
34860,-94.6493115,31.6139415,Hales,1398423728,2020-03-06 20:39:34,nac ,city,"Nacogdoches, TX",United States
21,-48.478899,-27.609691,Evolusi Tecnologias,139842403,2020-05-18 02:35:20,"Florianpolis, Brasil",city,"Florianpolis, Brasil",Brasil
42660,-122.32133300000001,47.708706, Aran,1398425292,2020-03-01 18:03:31,Makkah. Tokyo. Seattle ,poi,Starbucks,United States
35,11.55224,3.8334330000000003,Kurai ,139842665,2020-06-09 23:34:09,"Centre, Cameroon",poi,Awae escalier,Cameroon
30860,-111.82938,41.7383585,Prodigy,1398426715,2020-04-15 23:22:58,,city,"Logan, UT",United States
222,112.574913,-7.020892999999999,Andrographis paniculata ,1398429600,2020-03-18 07:35:49,"Gresik, Jawa Timur, Indonesia",city,"Bungah, Indonesia",Indonesia
45060,-76.1164885,43.175639,Jay Cuse,1398430088,2020-04-27 21:26:19,Syracuse,city,"Cicero, NY",United States
48060,-76.201233,43.862538,Jay Cuse,1398430088,2020-05-02 01:17:51,Syracuse,poi,Westview Lodge & Marina,United States
45060,-76.157335,43.056802000000005,Jay Cuse,1398430088,2020-05-02 18:28:50,Syracuse,poi,Franklin Square,United States
38300,-79.9806895,40.431389,brian ,1398430520,2020-02-14 04:36:05,"Pittsburgh, PA",city,"Pittsburgh, PA",United States
21,-51.32931,-30.089702000000003,Lucass ,1398430742,2020-03-01 23:38:24,,poi,Beira - Centro De Guaba,Brasil
11980,-95.8508425,32.196811,Jada Lynn ,1398431408,2020-02-19 18:37:15,"Texas, USA",city,"Athens, TX",United States
18620,-96.4765385,32.092979,Jada Lynn ,1398431408,2020-02-27 03:14:31,"Texas, USA",city,"Corsicana, TX",United States
11980,-95.8508425,32.196811,Jada Lynn ,1398431408,2020-02-28 13:41:15,"Texas, USA",city,"Athens, TX",United States
19100,-96.7617535,32.819858499999995,Jada Lynn ,1398431408,2020-03-01 18:48:33,"Texas, USA",city,"Dallas, TX",United States
11980,-95.8508425,32.196811,Jada Lynn ,1398431408,2020-03-08 15:45:21,"Texas, USA",city,"Athens, TX",United States
12060,-84.612392,34.0110765,Jada Lynn ,1398431408,2020-04-26 15:16:09,"Texas, USA",city,"Kennesaw, GA",United States
11980,-95.8508425,32.196811,Jada Lynn ,1398431408,2020-05-08 14:39:53,"Texas, USA",city,"Athens, TX",United States
12060,-84.61527778,34.02333333,Jada Lynn ,1398431408,2020-06-08 16:04:06,"Texas, USA",city,"Kennesaw, GA",United States
205,0.518546,51.364338000000004,Alison Plummer,139843189,2020-02-20 07:42:17,"West Malling, Kent",city,"Rochester, South East",United Kingdom
69,-0.1842935,5.6231985,ADa_bwoy,1398432348,2020-02-14 13:16:36,,city,"Accra, Ghana",Ghana
200,38.3631535,38.329569000000006,hseyin ERF,1398432612,2020-04-13 08:04:07,"Malatya, Trkiye",city,"Malatya, Trkiye",Trkiye
178,30.386258500000004,-30.8315325,Bandile,139843270,2020-02-19 04:53:09,Where I need to be,city,"Uvongo, South Africa",South Africa
88,135.50439919,34.67429088,1,139843280,2020-05-15 19:06:16,,city,  ,
21,-51.112359999999995,-29.377190000000002,Francis J. Limberger,139843503,2020-02-16 14:51:33,"Ivoti, Brasil",city,"Nova Petrpolis, Brasil",Brasil
11700,-82.47385600000001,35.322191,mommalibearian,1398435920,2020-02-14 19:24:04,,poi,Hendersonville Elementary School,United States
46140,-95.913642,36.1093915,lesli,1398436111,2020-02-14 00:36:52,,city,"Tulsa, OK",United States
205,-1.56549,53.801956,Paul Gorman,139843714,2020-05-05 09:45:39,,city,"Leeds, England",United Kingdom
96,48.1019075,29.170201000000002,Afnan.,1398437161,2020-02-14 10:41:33,Kuwait,city,"Al Egaila, Kuwait",Kuwait
44300,-77.7850045,40.77743200000001,scot sechler,1398438506,2020-02-24 18:14:55,"Lewistown, PA",city,"Boalsburg, PA",United States
30380,-77.578239,40.598523,scot sechler,1398438506,2020-04-26 20:03:27,"Lewistown, PA",city,"Lewistown, PA",United States
48,-70.524989,19.394257,RealAsItGets,139843858,2020-02-14 01:42:50,Dominican Republic ,city,"Moca, Dominican Republic",Dominican Republic
26900,-86.1986,39.7781,RealAsItGets,139843858,2020-03-17 18:33:55,Dominican Republic ,city,"Indianapolis, IN",United States
29820,-115.149,36.1675,RealAsItGets,139843858,2020-03-22 22:15:19,Dominican Republic ,city,"Las Vegas, NV",United States
48,-70.524989,19.394257,RealAsItGets,139843858,2020-05-23 20:29:18,Dominican Republic ,city,"Moca, Dominican Republic",Dominican Republic
16740,-80.92028,35.593346000000004,lawton may,1398438770,2020-03-21 19:16:39,"Mooresville, NC",poi,Lake Norman,United States
11700,-82.56700749999999,35.539072499999996,lawton may,1398438770,2020-05-31 18:00:59,"Mooresville, NC",city,"Asheville, NC",United States
16740,-80.86455649999998,35.56843449999999,lawton may,1398438770,2020-06-02 14:26:49,"Mooresville, NC",city,"Mooresville, NC",United States
11700,-82.6630145,35.6439105,lawton may,1398438770,2020-06-09 21:14:13,"Mooresville, NC",city,"Leicester, NC",United States
120,100.58970500000001,5.398897,shilaaaaaaa,1398439662,2020-04-26 07:53:05,ipoh | kulim,poi,Infineon Technologies (Kulim) Sdn Bhd,Malaysia
21,-45.490088,-23.6210005,Rafael Cardoso,139843993,2020-03-13 21:44:42,so paulo ,city,"Caraguatatuba, Brasil",Brasil
21,-43.441578,-22.911421500000003,Renato Fucking Costa,1398440084,2020-02-14 01:11:29,"Rio de Janeiro, Brasil",city,"Rio de Janeiro, Brasil",Brasil
119,-101.601401,21.09806,Aurelio JS,139844021,2020-02-18 17:06:39,"Guanajuato, Mxico",city,"Len, Guanajuato",Mxico
47900,-77.0143985,38.898603,Paul O.,139844246,2020-05-20 19:56:15,France,city,"Washington, DC",United States
13820,-86.760091,33.385555,kenzie brook,1398442974,2020-04-02 23:41:18,IG: brookkenz,city,"Hoover, AL",United States
8,-58.251882499999994,-32.481933999999995,.,1398443221,2020-04-09 03:50:28,,city,"Uruguay, Argentina",Argentina
33100,-80.307064,25.976124,Uton Bright,139844502,2020-06-10 05:19:13,,city,"Miramar, FL",United States
12420,-97.672732,30.519340500000002,gusthopher,1398446497,2020-02-19 17:33:50,"Austin, TX",city,"Round Rock, TX",United States
19740,-104.94383973,39.54044842,Matthew McCord,1398447547,2020-03-05 04:36:16,,city,"Highlands Ranch, CO",United States
85,14.243452,40.8541125,Dario Gaipa,139844973,2020-04-22 09:00:31,Napoli - Italia,city,"Napoli, Campania",Italia
88,140.8751675,38.0423455,,1398450170,2020-02-14 04:48:54,,city, ,
17460,-81.6937,41.4996,Keita Hall,139845037,2020-03-03 18:17:11,NC,city,"Cleveland, OH",United States
37980,-75.6795405,39.7873205,Kim Eckerson,139845077,2020-04-06 21:46:21,Delaware,city,"Hockessin, DE",United States
175,46.685077,24.7219435,  ,1398451093,2020-02-14 17:34:50,Riyadh,city,",   ",  
24,-79.27256949999999,43.629311,Manu Farias,139845140,2020-05-09 18:33:45,"Toronto, Ontario",city,"Toronto, Ontario",Canada
119,-98.9534575,18.827419,Juan Carlos Castillo,139845183,2020-02-14 01:18:48,Mxico,city,"Cuautla, Morelos",Mxico
21260,-120.539923,46.9932795,j o r g e,1398452088,2020-02-14 04:45:15,CWU,city,"Ellensburg, WA",United States
34180,-119.99155800000001,47.100398,j o r g e,1398452088,2020-03-26 20:01:25,CWU,poi,The Gorge Amphitheatre,United States
21260,-120.539923,46.9932795,j o r g e,1398452088,2020-03-27 22:56:56,CWU,city,"Ellensburg, WA",United States
24,-79.820465,43.381396,Crystal Stewart,139845271,2020-05-12 14:07:05,Canada,city,"Burlington, Ontario",Canada
222,106.79518736,-6.63791036,Citra Maynila,1398452760,2020-02-24 10:31:04,metro,city,"Bogor Selatan, Indonesia",Indonesia
24,-113.49261750000001,53.5558195,Dustin Bajer,139845296,2020-02-25 21:15:22,"Edmonton, Alberta, Canada",city,"Edmonton, Alberta",Canada
24,-97.1526765,49.8538055,Stephen Chernecki,1398453806,2020-04-21 06:58:20,,city,"Winnipeg, Manitoba",Canada
16980,-87.732013,41.8335845,Danyel Bruno,1398454478,2020-04-14 02:21:35,,city,"Chicago, IL",United States
21,-46.566589,-23.539369,li-o,1398455647,2020-03-09 14:10:55,"So Paulo, Brasil",neighborhood,"Tatuape, So Paulo",Brasil
223,-61.526951000000004,16.269867,andale andale negrito,1398457231,2020-03-16 21:57:38,,poi,Guadeloupe,Guadeloupe
65,2.35213,48.8619,andale andale negrito,1398457231,2020-04-18 03:11:11,,poi,Cinq Fois Plus,France
40900,-121.46001000000001,38.60601,Joshua Krage,139845747,2020-02-16 00:00:21,wherever music is being made,city,"Sacramento, CA",United States
119,-89.62361100000003,20.941035,Estefana Lara S.,1398457670,2020-05-28 04:28:31,Sistema solar,city,"Mrida, Yucatn",Mxico
21,-41.69,-12.52,Mauricio Farias,139845810,2020-04-05 23:13:54,"Salvador,Ba",city,"Seabra, Brasil",Brasil
31180,-101.897173,33.5705265,megan (89%),1398459882,2020-02-17 04:12:44,Trying to send it,city,"Lubbock, TX",United States
41740,-117.07300900000001,32.775876000000004,megan (87%),1398459882,2020-03-29 19:43:07,Trying to send it,poi,The Turtle Pond,United States
24860,-82.62793500000002,34.529189,megan (87%),1398459882,2020-04-26 03:41:22,Trying to send it,city,"Anderson, SC",United States
21,-52.85975,-26.471365000000002,Maicon Calvi,139846074,2020-04-24 13:40:25,So Loureno Do Oeste,city,"So Loureno do Oeste, Brasil",Brasil
10740,-106.6506,35.0873,Tommy P.,139846127,2020-03-09 02:59:02,"Rio Rancho, NM",city,"Albuquerque, NM",United States
152,4.3158,52.0778,Starshine Karina,139846174,2020-02-14 10:12:10,"The Hague, The Netherlands",city,"The Hague, The Netherlands",The Netherlands
35620,-74.184848,40.734494,GRANDSON,139846183,2020-05-04 14:47:05,,city,"Newark, NJ",United States
15980,-81.986834,26.63648,Gail.48,1398462068,2020-02-15 09:29:25,"Cape Coral, FL",city,"Cape Coral, FL",United States
21,-45.366890000000005,-23.82396,Firpo,1398462355,2020-02-14 15:39:46,"Argentina, Buenos Aires.",city,"Ilhabela, Brasil",Brasil
48,-69.59768199999999,18.463766500000002,Vampiro,1398462721,2020-02-16 23:27:28,"Merida, Yucatan",city,"Boca Chica, Dominican Republic",Dominican Republic
119,-89.62361100000003,20.941035,Vampiro,1398462721,2020-03-28 05:26:31,"Merida, Yucatan",city,"Mrida, Yucatn",Mxico
200,28.968870399999997,41.0377345,Alev,1398462751,2020-03-14 08:07:29,,city,"Kilis, Trkiye",Trkiye
32860,-91.903835,44.8817265,Lucas Otto,1398463638,2020-03-27 06:18:20,"Eau Claire, WI",city,"Menomonie, WI",United States
211,-67.96411549999999,10.2133095,Carmen Pealver,139846411,2020-03-31 13:07:21,,city,"Los Harales, Venezuela",Venezuela
85,7.60909385,43.79031314,Massimo Stoppino,139846612,2020-02-17 16:28:14,arma di taggia,city,"Ventimiglia, Liguria",Italia
31080,-118.3586779,34.06331426,Massimo Stoppino,139846612,2020-03-02 21:44:39,arma di taggia,city,"Los Angeles, CA",Stati Uniti
85,12.43485087,41.77492734,Massimo Stoppino,139846612,2020-03-04 19:49:43,arma di taggia,city,"Roma, Lazio",Italia
35620,-73.98233999,40.76250141,Massimo Stoppino,139846612,2020-03-26 22:02:02,arma di taggia,city,"Manhattan, NY",Stati Uniti
85,7.85303,43.86374,Massimo Stoppino,139846612,2020-04-18 11:03:06,arma di taggia,city,"Taggia, Liguria",Italia
35620,-73.98979959,40.752401899999995,Massimo Stoppino,139846612,2020-04-29 17:41:32,arma di taggia,city,"Manhattan, NY",Stati Uniti
85,7.85303,43.86374,Massimo Stoppino,139846612,2020-05-01 10:30:04,arma di taggia,city,"Taggia, Liguria",Italia
35620,-74.0064,40.7142,Massimo Stoppino,139846612,2020-05-09 13:54:41,arma di taggia,city,"Manhattan, NY",Stati Uniti
178,28.136140500000003,-25.860881,Chris Reeler,139846651,2020-02-17 14:04:41,Johannesburg,city,"Centurion, South Africa",South Africa
49,-78.6442546,-1.6571428,Luis Jaime Paredes P,1398467514,2020-02-16 19:36:38,"Ambato, Ecuador",city,"Riobamba, Ecuador",Ecuador
19100,-96.5426045,33.018460499999996,Robin,1398469826,2020-06-05 07:26:49,"Wylie, TX",city,"Wylie, TX",United States
19100,-97.2859135,32.7799665,,1398470161,2020-02-19 00:21:22,wherever the world lets me go,city,"Fort Worth, TX",United States
128,3.800797,50.423967499999996,Medhi_  ,139847017,2020-03-05 08:34:14,France,city,"Boussu, Belgique",Belgique
71,6.0964765,50.759687,Medhi_  ,139847017,2020-03-05 10:29:16,France,city,"Aix-la-Chapelle, Allemagne",Allemagne
65,0.6622304999999999,48.9436355,Medhi_  ,139847017,2020-03-06 09:13:19,France,city,"La Barre-en-Ouche, France",France
205,-1.7874955000000001,52.447226,Anna-Liisa DB,1398470192,2020-03-31 23:51:54,"Solihull, England",city,"Solihull, England",United Kingdom
12580,-76.62048200000002,39.284713,rachel,1398470413,2020-02-19 17:32:38,,city,"Baltimore, MD",United States
33,-70.65015799999999,-33.438318,Sergio Nio,139847204,2020-02-17 18:44:01,"Santiago, Chile",poi,Santiago de Chile,Chile
8,-68.30856435,-54.80369654,Iwoka Propiedades,1398472195,2020-02-21 19:43:41,Ushuaia,city,"Ushuaia, Argentina",Argentina
9,130.9333085,-12.425901,Nicky Lawlor,139847244,2020-03-25 10:12:52,Darwin,city,"Darwin, Northern Territory",Australia
71,9.18880721,48.78605896,Simon ,139847248,2020-02-19 09:34:53,Stuttgart,city,"Stuttgart, Deutschland",Deutschland
200,26.30187,38.257314,Furkan TUN,139847362,2020-06-07 12:46:25,Izmir,poi,Boheme Beach,Trkiye
22500,-79.78030799999998,34.182661499999995,Brandon Reid McIntyre,139847416,2020-04-25 23:34:54,"Myrtle Beach, SC",city,"Florence, SC",United States
34820,-78.976213,33.7661365,Brandon Reid McIntyre,139847416,2020-06-06 01:12:12,"Myrtle Beach, SC",city,"Red Hill, SC",United States
186,2.1692299999999998,41.40044,Percris,1398474266,2020-02-17 19:31:04,,city,"Barcelona, Espaa",Espaa
34980,-86.791549,36.200008000000004,spaceman spliff,1398474510,2020-02-14 15:39:09,"Nashville, TN",city,"Nashville, TN",United States
8,-58.442643,-34.604315,Diego Pidoto,139847565,2020-03-18 13:07:22,buenos aires,city,"Ciudad Autnoma de Buenos Aires, Argentina",Argentina
186,-0.338721,39.501203499999995,Populares Alboraya,139847569,2020-03-10 22:19:34,Alboraya (Valencia),city,"Alboraya, Espaa",Espaa
175,39.2541285,21.5857105,Shahad ,1398475747,2020-03-28 03:10:20,Saudi Arabia,city,",   ",  
42660,-122.319351,47.617087,Preston,1398477025,2020-06-04 01:15:55,"Seattle, WA",poi,Cal Anderson Park,United States
27620,-92.1778075,38.5526005,Stephen W. Jones,1398477486,2020-02-14 21:11:38,"Jefferson City, MO",city,"Jefferson City, MO",United States
42680,-80.3911,27.6418,T.R. Shaw Jr,139847807,2020-03-07 14:38:28,"Battle Creek, MI",city,"Vero Beach, FL",United States
175,43.9238929,26.4013278, ,1398478524,2020-02-25 09:51:43,,city,",   ",  
33,-72.362811,-37.416202500000004,Diego Mauln Lagos,139847854,2020-02-18 00:56:24,"Los ngeles, Chile",city,"Los ngeles, Chile",Chile
8,-57.88231,-34.86934,PATAN,139847929,2020-04-02 01:35:08,,city,"Berisso, Argentina",Argentina
158,174.917,-41.2167,Natalia Karenka,1398479671,2020-03-30 09:50:03,"Wellington, NZ",city,"Lower Hutt City, New Zealand",Nueva Zelanda
36420,-97.4451735,35.222301,Jace Derryberry,1398479708,2020-02-16 03:19:54,"Hydro, Oklahoma",city,"Norman, OK",United States
49300,-81.7779495,40.97035,Ari,1398479822,2020-02-15 22:57:46,Walking on Sunshine ,city,"Rittman, OH",United States
17460,-81.7255035,41.024359999999994,Ari,1398479822,2020-02-29 17:37:06,Walking on Sunshine ,city,"Wadsworth, OH",United States
49300,-81.7779495,40.97035,Ari,1398479822,2020-03-03 00:38:15,Walking on Sunshine ,city,"Rittman, OH",United States
17460,-81.7255035,41.024359999999994,Ari,1398479822,2020-03-08 17:11:42,Walking on Sunshine ,city,"Wadsworth, OH",United States
49300,-81.7779495,40.97035,Ari,1398479822,2020-03-10 20:19:38,Walking on Sunshine ,city,"Rittman, OH",United States
17460,-81.7255035,41.024359999999994,Ari,1398479822,2020-03-22 16:44:32,Walking on Sunshine ,city,"Wadsworth, OH",United States
49300,-81.7779495,40.97035,Ari,1398479822,2020-03-23 01:19:58,Walking on Sunshine ,city,"Rittman, OH",United States
17460,-81.7255035,41.024359999999994,Ari,1398479822,2020-04-03 18:58:15,Walking on Sunshine ,city,"Wadsworth, OH",United States
49300,-81.7779495,40.97035,Ari,1398479822,2020-04-07 17:22:41,Walking on Sunshine ,city,"Rittman, OH",United States
17460,-81.7255035,41.024359999999994,Ari,1398479822,2020-06-07 17:18:45,Walking on Sunshine ,city,"Wadsworth, OH",United States
49300,-81.7779495,40.97035,Ari,1398479822,2020-06-10 23:44:09,Walking on Sunshine ,city,"Rittman, OH",United States
16700,-79.88161014,32.79227647,TC Wilkinson,1398480295,2020-03-01 23:21:11,"Charleston, SC",city,"Mount Pleasant, SC",United States
38,-76.18288124,4.09300586,Julian Hernandez,139848109,2020-02-19 05:40:25,"Bogota, Colombia",city,"Bugalagrande, Colombia",Colombia
38,-75.619213,6.270883,Isabel Estrada Jllo.,139848238,2020-03-06 01:15:17,Medelln/Colombia,city,"Medelln, Colombia",Colombia
8,-62.24626,-38.7764,Lucas Pollio,1398482390,2020-02-18 18:50:14,"Bahia Blanca, Argentina",city,"Baha Blanca, Argentina",Argentina
21,-50.2674065,-20.283518,Thiago Rodrigues,1398485030,2020-02-24 05:39:21,"Votuporanga, Brasil",city,"Fernandpolis, Brasil",Brasil
106,13.200073000000001,32.896642,,1398486222,2020-03-15 10:37:08,Valahalla,poi,Aderyan Caf,Libya
200,29.0052225,41.0213205,SKENDER DERMENC,139848856,2020-05-19 18:20:39,"stanbul, Trkiye",city,"stanbul, Trkiye",Trkiye
11640,-66.625,18.375,Pandora Isis,139849349,2020-05-31 15:33:24,"Tempe, AZ",city,"Arrozal, Puerto Rico",United States
41980,-66.5,18.25,Pandora Isis,139849349,2020-06-02 22:36:55,"Tempe, AZ",city,"Cacaos, Puerto Rico",United States
205,-2.9628165,54.4284635,AJay,1398493513,2020-03-21 19:05:18,"England, United Kingdom",city,"Ambleside, England",United Kingdom
47900,-77.0143985,38.898603,BoomChikiBoom,13984952,2020-05-28 18:08:08,Six degrees of X,city,"Washington, DC",United States
31860,-93.99686175,44.14554892,Logan Ray Myers,1398495644,2020-02-25 00:07:27,Gillette 307Bismarck 701,city,"Mankato, MN",United States
13900,-100.77934,46.80536,Logan Ray Myers,1398495644,2020-03-31 19:13:06,Gillette 307Bismarck 701,city,"Bismarck, ND",United States
24,-79.76429,43.68164,Knowledge Bookstore,139849603,2020-02-14 19:36:06," Brampton, Ontario, Canada",city,"Brampton, Ontario",Canada
40900,-121.358006,38.5691135,tiffany.,1398496526,2020-04-12 07:19:42,,city,"La Riviera, CA",United States
211,-66.932124,10.518385,Tomas Collins,139849699,2020-03-20 11:12:37,Caracas,poi,Manicomio,Venezuela
186,-0.956809,37.632515999999995,,139849892,2020-02-14 14:58:54,"Cartagena/Madrid, Spain",city,"Cartagena, Spain",Spain
55,-89.674082,13.866317,Hctor Ramrez,139849961,2020-03-08 18:52:15,"Santa Ana, El Salvador",poi,Cabaas Kal-Tepet,El Salvador
39740,-75.9250215,40.3341185,Shotta Drizzy,1398500059,2020-03-11 19:32:24,"Reading, PA",city,"Reading, PA",United States
21,-36.015144,-8.1849265,Jadiel Oliveira,139850027,2020-05-03 19:30:38,Caruaru - PE,city,"Caruaru, Brasil",Brasil
160,-77.046762,-12.080478,Juan C,1398500803,2020-02-26 01:57:19,"Callao, Peru",city,"Jess Maria, Peru",Peru
35620,-73.9685415,40.780709,EM,1398501037,2020-02-29 16:08:21,"Macclenny, FL",city,"Manhattan, NY",United States
27260,-82.12448149999999,30.279342,EM,1398501037,2020-03-07 15:16:18,"Macclenny, FL",city,"Macclenny, FL",United States
42660,-122.20081699999999,47.617340999999996,mongolian mami,1398501595,2020-02-15 20:03:48,"Marysville, Washington",poi,Maggiano's Little Italy,United States
16980,-88.3305735,41.8804635,Morgan Crawley,1398501740,2020-05-26 18:09:22,Rotolo Middle School ,city,"Geneva, IL",United States
19660,-80.9271385,29.035797,Rachel Ager,1398503701,2020-03-16 13:14:46,"Longwood, FL",city,"New Smyrna Beach, FL",United States
31080,-118.31807989,34.12066109,Adriana Misoul,139850377,2020-02-18 07:57:45,New York City,city,"Los Angeles, CA",United States
41740,-117.31807713,33.12335212,Adriana Misoul,139850377,2020-03-15 03:59:47,New York City,city,"Carlsbad, CA",United States
9,145.0531355,-37.9725665,Laura Angarita,139850380,2020-06-01 11:34:51,"Bogot, D.C., Colombia",city,"Melbourne, Victoria",Australia
39340,-111.671789,40.2486455,paige madsen,1398504415,2020-02-18 05:35:48,KS || BYU,city,"Provo, UT",United States
16940,-104.787092,41.1352835,pag,1398504415,2020-04-22 21:59:59,KS || BYU,city,"Cheyenne, WY",United States
45820,-95.6907325,39.037579,pag,1398504415,2020-04-24 06:30:29,KS || BYU,city,"Topeka, KS",United States
41700,-98.5406515,29.417501,pag,1398504415,2020-05-27 05:32:53,KS || BYU,city,"San Antonio, TX",United States
28140,-94.5592815,39.1000485,pag,1398504415,2020-05-27 19:06:16,KS || BYU,city,"Kansas City, MO",United States
45820,-95.6907325,39.037579,pag,1398504415,2020-05-28 01:44:07,KS || BYU,city,"Topeka, KS",United States
85,8.832103,45.780993,Il larice bianco,139850670,2020-03-10 07:26:44,"Lombardia, Italia",city,"Gazzada Schianno, Lombardia",Italia
205,-0.42283859999999995,50.81620043,It's A Wrap Branding,139850762,2020-02-21 12:41:17,"Worthing, West Sussex, England",city,"Worthing, England",United Kingdom
16580,-88.27921900000003,40.1074845,Jeff Johnson,1398508172,2020-02-16 20:37:10,"Champaign, IL",city,"Champaign, IL",United States
8,-58.4078,-34.7153,Alejo Riga,1398509034,2020-06-08 01:48:27,,city,"Lans Oeste, Argentina",Argentina
24,-79.645081,43.4181905,Kyria Marquez,1398509064,2020-05-26 19:39:31,,city,"Oakville, Ontario",Canada
8,-57.02271579999999,-37.32667182,Qu Monet,139850968,2020-02-17 19:42:53,Argentina,city,"Mar de las Pampas, Argentina",Argentina
27980,-156.32288,20.915879999999998,Qu Monet,139850968,2020-04-11 23:27:27,Argentina,city,"Haiku-Pauwela, HI",Estados Unidos
8,-58.4397,-34.6089,Qu Monet,139850968,2020-04-13 22:51:54,Argentina,city,"Ciudad Autnoma de Buenos Aires, Argentina",Argentina
27980,-156.32288,20.915879999999998,Qu Monet,139850968,2020-04-16 21:30:35,Argentina,city,"Haiku-Pauwela, HI",Estados Unidos
8,-58.4397,-34.6089,Qu Monet,139850968,2020-04-17 21:42:31,Argentina,city,"Ciudad Autnoma de Buenos Aires, Argentina",Argentina
31080,-117.96931193,33.7660011,Qu Monet,139850968,2020-05-04 22:29:15,Argentina,city,"Garden Grove, CA",Estados Unidos
8,-58.45833333,-34.5625,Qu Monet,139850968,2020-05-07 00:28:14,Argentina,city,"Ciudad Autnoma de Buenos Aires, Argentina",Argentina
13460,-121.18147150000001,44.270713,Myda Jane M Allen,1398509983,2020-03-08 18:43:25,,city,"Redmond, OR",United States
88,129.79192799999998,32.758894999999995, ,1398510648,2020-02-18 12:23:00,,city, ,
222,106.7063105,-6.612596000000001,Broker property Kampung,1398513588,2020-06-07 20:13:52,"Ciampea, Indonesia",city,"Ciampea, Indonesia",Indonesia
65,2.293489,48.918011,Harpalos,139851520,2020-02-14 06:38:58,,city,"Asnires-sur-Seine, France",France
41860,-122.2795215,37.875845500000004,John,139851549,2020-02-15 11:08:06,Fontana Ca,city,"Berkeley, CA",United States
40140,-117.2483875,34.049751,John,139851549,2020-06-04 22:18:41,"Berkeley, CA",city,"Loma Linda, CA",United States
160,-77.02679459,-12.16337316,DraClarelisGonzalezM,139851620,2020-02-23 22:37:40,"Lima, Peru",city,"Chorrillos, Peru",Peru
186,-3.705826,40.477019,Maiki,1398518227,2020-03-13 19:00:14,Madrid,poi,Barrio del Pilar,Espaa
159,-55.73426550000001,-22.5388815,Roni,139851862,2020-04-18 22:37:07,"Ponta Por, Brasil",city,"Ponta Pora, Paraguay",Paraguay
16980,-87.7290145,42.079288,,139851872,2020-02-15 02:34:16,"Chicago, IL",city,"Wilmette, IL",United States
41940,-121.9372348,37.3516172,NCIP,139851913,2020-02-14 20:45:25,"Santa Clara, CA",city,"Santa Clara, CA",United States
40900,-121.49752099999999,38.582583,NCIP,139851913,2020-03-13 23:04:24,"Santa Clara, CA",poi,Sacramento County Main Jail,United States
41860,-122.2329345,37.4972935,NCIP,139851913,2020-05-27 00:08:28,"Santa Clara, CA",city,"Redwood City, CA",United States
35380,-90.01100799999999,29.982601000000003,Nancy Dupont,13985202,2020-02-25 21:05:48,"Oxford, MS",city,"New Orleans, LA",United States
37060,-89.53376999999999,34.35467,Nancy Dupont,13985202,2020-02-28 18:43:01,"Oxford, MS",city,"Oxford, MS",United States
33100,-80.1226195,26.721896,TRUMP  THE USA,139852216,2020-02-18 02:59:19,"West Palm Beach, FL",city,"West Palm Beach, FL",United States
41700,-98.5406515,29.417501,Arrogant Observer,139852245,2020-02-17 03:39:46,,city,"San Antonio, TX",United States
119,-104.36338,19.128538,Diego Ramos,139852311,2020-03-17 16:23:10,,city,"Manzanillo, Colima",Mxico
8,-58.50004951,-34.66800686,Luciano,139852382,2020-02-17 15:35:09,"Argentina,CF Rep. de Mataderos",city,"Ciudad Autnoma de Buenos Aires, Argentina",Argentina
222,112.6937195,-7.239339999999999,Novriyan,1398523962,2020-05-19 14:10:42, Surabaya ,city,"Asemrowo, Indonesia",Indonesia
-9999,-61.8117305,44.321234,Brandon Sabourin,1398524114,2020-02-20 13:40:42,"Windsor, Ontario",city,"Halifax, Nova Scotia",Canada
24,-83.00208549999998,42.295065,Brandon Sabourin,1398524114,2020-02-28 00:36:08,"Windsor, Ontario",city,"Windsor, Ontario",Canada
16980,-87.732013,41.8335845,Original ChefLuciano,1398526339,2020-04-17 21:54:03,"Chicago, IL",city,"Chicago, IL",United States
43700,-84.62603100000001,37.037310999999995,Joaquin Roach,1398526628,2020-04-28 11:29:22,,poi,McDonald's,United States
175,39.2541285,21.5857105,ZaMiL ALhuthifi,1398527100,2020-06-06 14:46:48,,city,",   ",  
119,-96.210258,15.821722,Avispa ,1398527738,2020-02-15 05:21:41,,city,"Santa Mara Huatulco, Oaxaca",Mxico
120,101.705305,3.1485305,ZHLM,1398527808,2020-02-14 16:09:25,"54k , Barcelona",city,"Kuala Lumpur City, Kuala Lumpur Federal Territory",Malaysia
88,138.68468700000003,35.2373305,,1398527845,2020-03-05 10:38:34,  ,city, ,
175,50.04765,26.468816999999998,Hussain Al Yaqoub,139853074,2020-06-04 16:37:58,"Saihat City, Saudi Arabia",poi,Saihat,Kingdom of Saudi Arabia
49,-80.297905,-0.9989024999999999,Melichica Mutti,139853233,2020-02-15 13:48:44,,city,"Portoviejo, Ecuador",Ecuador
12020,-83.39977950000001,33.9563835,Shoe Bears,1398532890,2020-02-14 21:53:24,,city,"Athens, GA",United States
15260,-81.394814,31.134006,Shoe Bears,1398532890,2020-02-27 22:53:22,,poi,Neptune Beach - Saint Simons Island,United States
12020,-83.39977950000001,33.9563835,Shoe Bears,1398532890,2020-02-28 21:56:58,,city,"Athens, GA",United States
12060,-84.43310600000001,33.7671945,Shoe Bears,1398532890,2020-05-16 21:17:39,,city,"Atlanta, GA",United States
12260,-81.985881,33.468412,Shoe Bears,1398532890,2020-05-21 20:53:31,,poi,Georgia Cancer Center,United States
12020,-83.39977950000001,33.9563835,Shoe Bears,1398532890,2020-05-25 21:05:04,,city,"Athens, GA",United States
16740,-80.7601875,34.7288365,Austin Blake Shrader,139853300,2020-04-28 13:27:37,"Lancaster, SC",city,"Lancaster, SC",United States
205,-3.17769791,55.95093521,Grant Stott ,139853350,2020-02-26 18:44:34,Edinburgh,city,"Edinburgh, Scotland",United Kingdom
205,-3.6302995000000005,50.310256,Christine Candlish,139853399,2020-02-22 11:55:03,"Totnes, England",city,"Strete, England",United Kingdom
48,-69.95422099999999,18.483498,Rubson,139853591,2020-03-16 17:28:20,Long Nights,poi,Parque de los Jardines del Norte,Dominican Republic
38060,-112.1246765,33.5528625,Ameal Not A Snack ,1398536029,2020-02-19 01:29:39,,city,"Phoenix, AZ",United States
18140,-82.985772,39.9946835,Zakia Broom,1398536660,2020-05-31 18:31:47,,city,"Columbus, OH",United States
17460,-81.343975,41.515269,Zakia Broom,1398536660,2020-06-02 16:29:36,,city,"Chesterland, OH",United States
186,-4.613119999999999,36.5543975,Gaby Romero,139853689,2020-02-14 23:02:51,"Fuengirola, Espaa",city,"Fuengirola, Espaa",Espaa
88,140.750628,40.788120000000006,,1398538514,2020-02-17 07:52:16, ,city, ,
35620,-73.9685415,40.780709,Ashley Mitchell,1398538621,2020-02-14 18:26:48,,city,"Manhattan, NY",United States
49,-80.091193,-2.512995,Angel Fuentes A.,139853869,2020-02-17 23:06:57,"Guayaquil, Ecuador",city,"Guayaquil, Ecuador",Ecuador
16740,-80.8467855,35.209059,Roberta Keener,139854189,2020-03-06 20:16:10,"Charlotte, NC",city,"Charlotte, NC",United States
38,-74.24367099999999,4.2622835,Vanessa Morales R.,139854239,2020-04-23 00:00:36,"Bogot, Colombia",city,"Bogot, D.C., Colombia",Colombia
49,-78.5566815,-0.16657049999999998,Magdalena,139854288,2020-04-14 02:42:35,Quito,city,"Quito, Ecuador",Ecuador
14720,-106.044,39.4864,Corbin Hobbs,139854458,2020-02-26 19:16:36,"Denver, CO",city,"Breckenridge, CO",United States
19740,-104.98360001,39.7391,Corbin Hobbs,139854458,2020-03-25 15:38:04,"Denver, CO",city,"Denver, CO",United States
222,106.97191299999999,-6.437104,es teh manis,1398545844,2020-02-15 08:21:42,"Cileungsi, Bogor Jawa Barat",city,"Cileungsi, Indonesia",Indonesia
119,-97.4223735,18.4661945,Karen,139854842,2020-04-29 03:47:51,"Tehuacn, Puebla",city,"Tehuacn, Puebla",Mxico
45220,-84.26617399999999,30.4762155,Dru Baker,1398549343,2020-03-01 21:18:36,,city,"Tallahassee, FL",United States
31180,-101.897173,33.5705265,Dru Baker,1398549343,2020-03-05 00:22:35,,city,"Lubbock, TX",United States
26420,-95.4464865,29.838495,Dru Baker,1398549343,2020-03-22 19:15:34,,city,"Houston, TX",United States
12060,-84.2978,33.7714,,139854950,2020-03-30 13:22:59,Decatur ,city,"Decatur, GA",United States
28140,-94.628608,38.915593,Dan,1398549654,2020-03-04 22:34:26,"Missouri, USA",city,"Leawood, KS",United States
9,150.931975,-33.848244,Leah Fricke,1398549901,2020-02-21 20:07:52,Sydney,city,"Sydney, New South Wales",Australia
9,144.28854099999998,-38.265023,Melina Chan,13985502,2020-02-29 03:58:53,"Melbourne, AUS (mostly)",neighborhood,"Mount Duneed, Geelong",Australia
36740,-81.406015,28.486144,Dustin thach,1398550676,2020-03-03 10:13:23,,poi,Metro by T-Mobile,United States
8,-57.5712,-38.019,Mirco Lionel5(GAGO),1398551694,2020-03-21 06:39:11,"Rosario, Argentina",city,"Mar del Plata, Argentina",Argentina
8,-58.442643,-34.604315,,1398552002,2020-02-14 14:51:36,,city,"Ciudad Autnoma de Buenos Aires, Argentina",Argentina
21,-38.494971899999996,-12.9848281,SUELI PAIM MARTINS,1398552181,2020-04-25 01:57:49,Salvador - Bahia - Brasil,city,"Salvador, Brasil",Brasil
120,101.481514,3.102426,Faiz Ramly,1398553248,2020-05-25 02:19:25,"Kuala Lumpur, Wilayah Persekut",poi,Eco Ardence Park,Malaysia
35620,-73.98464,40.741890999999995,Mark Oldman,139855451,2020-02-18 18:47:04,wherever corks pop + caps snap,poi,Upland,United States
85,10.5740115,43.8461865,danidaka ,139855491,2020-02-22 16:16:40,"Toscana, Italia",city,"Capannori, Toscana",Italia
85,12.3267,45.4386,Alessandro Trabucco,139855493,2020-02-19 10:40:27,Venezia,city,"Venezia, Veneto",Italia
119,-99.145061,19.429025,Evelyn Pineda Carril,1398555000,2020-03-23 23:49:04,,poi,Comedor Empelados TELMEX San Juan,Mxico
151,8.470568,11.958346,Omar,139855511,2020-03-27 00:34:49,Nigeria,city,"Rijiyar Zaki, Nigeria",Nigeria
178,18.572996,-33.98217,Fez,139855554,2020-02-14 09:08:33,,city,"Guguletu, South Africa",South Africa
205,-4.274209,53.1030025,Eluned Haf,139855580,2020-02-16 20:18:14,Cymru / Wales,city,"Llanwnda, Wales",United Kingdom
65,6.9290965,45.9317765,Eluned Haf,139855580,2020-02-25 22:51:01,Cymru / Wales,city,"Chamonix-Mont-Blanc, France",France
205,-3.6115505,51.453255,Eluned Haf,139855580,2020-03-06 22:45:28,Cymru / Wales,city,"Southerndown, Wales",United Kingdom
51,-6.247621499999999,53.3549025,Eluned Haf,139855580,2020-03-09 00:47:51,Cymru / Wales,city,"Dublin City, Ireland",Ireland
205,-3.6115505,51.453255,Eluned Haf,139855580,2020-03-12 23:58:38,Cymru / Wales,city,"Southerndown, Wales",United Kingdom
38,-74.849933,10.958072999999999,Jose Ricardo,139855600,2020-03-12 23:48:48,"Barranquilla, Colombia",city,"Barranquilla, Colombia",Colombia
119,-99.2041725,19.4363375,Marcosaurio,1398556140,2020-02-14 04:50:28,CDMX,neighborhood,"Polanco II Seccin, Miguel Hidalgo",Mxico
41980,-65.67242022,18.3460557,ALKIM,1398557449,2020-06-08 20:39:58,,city,"Quebrada Fajardo, Puerto Rico",Estados Unidos
8,-58.583605000000006,-34.600632000000004,mariana moyano,1398557473,2020-03-14 16:11:23,,city,"Caseros, Argentina",Argentina
47260,-76.49311155,37.09593864,The 10thletter,1398558061,2020-02-17 20:48:44,Virginia,city,"Newport News, VA",United States
35380,-90.01100799999999,29.982601000000003,Elizabeth Duncan,1398558529,2020-02-21 00:35:45,,city,"New Orleans, LA",United States
88,136.62617949999998,35.457231,hirokun408,139856013,2020-02-20 11:13:24,2152,city, ,
119,-100.521713,20.1849595,Antonio OH,139856052,2020-03-07 22:35:31,El Cerro de las Ranas,city,"Jercuaro, Guanajuato",Mxico
205,-0.0601675,51.5476445,Virna Di Schiavi,139856176,2020-05-14 21:14:20,London,city,"Hackney, London",Regno Unito
38,-74.24367099999999,4.2622835,leonardo carrillo,139856219,2020-03-07 16:47:54,,city,"Bogot, D.C., Colombia",Colombia
9,147.333,-42.95,Dr Alecia Bellgrove,1398562968,2020-03-03 21:12:03,Warrnambool,city,"Hobart, Tasmania",Australia
38,-74.109707,4.671712,BCh,139856306,2020-03-27 01:23:07,Colombia,poi,Parque Principal Normanda,Colombia
27460,-79.415053,42.172922,Brandon Greiner,1398563322,2020-04-19 12:17:51,"Bemus Point, NY",poi,Long Point State Park,United States
41180,-90.3758,38.4227, ,1398563353,2020-04-08 22:09:35,,city,"Arnold, MO",United States
42660,-122.149768,47.5978565,Makaela,139856392,2020-02-14 05:13:29,"Seattle, WA",city,"Bellevue, WA",United States
38900,-122.630908,45.536402,Makaela,139856392,2020-03-01 14:51:27,"Seattle, WA",city,"Portland, OR",United States
42660,-122.19439799999999,47.481598,Makaela,139856392,2020-03-02 20:16:01,"Seattle, WA",city,"Renton, WA",United States
31080,-117.85108899999999,33.842863,Makaela,139856392,2020-03-14 07:04:41,"Seattle, WA",city,"Anaheim, CA",United States
42660,-122.3306025,47.614816999999995,Makaela,139856392,2020-03-19 17:05:55,"Seattle, WA",city,"Seattle, WA",United States
33,-70.66595600000001,-33.529876,Francisco Gonzlez,139856515,2020-03-08 17:36:58,Caracas - Venezuela ,city,"La Cisterna, Chile",Chile
45940,-74.51939853,40.26274428,Peddie Track & XC,1398565933,2020-05-25 01:44:50,"Hightstown, NJ",city,"Hightstown, NJ",United States
41980,-65.771054,18.350842,AlexPlass,1398566630,2020-05-08 00:27:32,Puerto Rico,poi,Colinas Del Yunque,United States
42340,-81.08687359999999,32.075776,Savannah Convention Center,139856754,2020-02-15 15:15:14,"Savannah, GA",city,"Savannah, GA",United States
47900,-77.0143985,38.898603,"David (as in Ew, David!)",139856758,2020-04-17 00:20:25,"Washington, DC",city,"Washington, DC",United States
42660,-122.34728500000001,47.465059000000004,"Chad Hiner RN, MS",1398567704,2020-03-05 04:06:28,"Seattle, WA and Boulder, CO",city,"Burien, WA",United States
38300,-79.9806895,40.431389,Ashley Brown,1398567758,2020-02-14 02:34:09,Pennsylvania,city,"Pittsburgh, PA",United States
32740,-79.6703985,41.628539,Ashley Brown,1398567758,2020-03-06 00:53:28,Pennsylvania,city,"Titusville, PA",United States
38300,-79.9806895,40.431389,Ashley Brown,1398567758,2020-03-09 00:19:42,Pennsylvania,city,"Pittsburgh, PA",United States
8,-58.722573,-34.543243,Ulises Pablo Fuentes,139856797,2020-02-29 20:54:07,Buenos Aires,city,"San Miguel, Argentina",Argentina
119,-97.547392,25.558993,Coke Zamarripa,1398568184,2020-04-26 12:06:40,"Ciudad Victoria, Tamaulipas",city,"Matamoros, Tamaulipas",Mxico
8,-58.442643,-34.604315,CM,1398568207,2020-03-06 22:37:54,Burzaco ,city,"Ciudad Autnoma de Buenos Aires, Argentina",Argentina
12940,-90.89005300000001,30.2300475,bail,1398568261,2020-06-11 02:23:24,,city,"Gonzales, LA",United States
200,29.0052225,41.0213205, ,139856848,2020-03-25 12:20:52,"Paris, France",city,"stanbul, Trkiye",Trkiye
119,-109.76626850000001,23.269879,Jason Birkenbeil,1398568826,2020-02-14 01:44:32,Lexington IL,city,"Los Cabos, Baja California Sur",Mexico
30660,-89.37378149999999,40.1258215,Jason Birkenbeil,1398568826,2020-04-16 14:55:15,Lexington IL,city,"Lincoln, IL",United States
22780,-92.619708,38.149118,Jason Birkenbeil,1398568826,2020-05-02 17:19:49,Lexington IL,city,"Osage Beach, MO",United States
30660,-89.37378149999999,40.1258215,Jason Birkenbeil,1398568826,2020-05-11 15:06:18,Lexington IL,city,"Lincoln, IL",United States
51,-6.247621499999999,53.3549025,Mildred Hdz Pazos,1398570900,2020-05-25 19:20:11,"Oaxaca de Jurez, Oaxaca",city,"Dubln, Irlanda",Irlanda
88,139.73951449999998,35.56689400000001,,1398571676,2020-03-28 03:01:24,,city, ,
88,137.811445,35.507768,,139857179,2020-04-09 12:34:05,,poi, ,
40380,-77.82296600000001,42.803888,maybe: isaiah,1398571855,2020-03-07 16:48:46,"Geneseo, NY",poi,Orchard Street,United States
21,-46.5955455,-23.682803,LinkinPark:br,13985722,2020-03-25 10:00:03,Brazil,city,"Sao Paulo, Brazil",Brazil
19100,-96.69960400000001,33.1946515,Luke Johnson,1398575443,2020-02-14 01:27:54,North Texas,city,"McKinney, TX",United States
205,-3.0394275,53.36269300000001,Charlotte Walker,139857574,2020-02-26 16:42:57,"Wirral, England",city,"Birkenhead, England",United Kingdom
19740,-104.9220935,39.713563,Ally DeBastiani,1398576596,2020-03-06 23:48:04,"Baker, Denver",city,"Denver, CO",United States
12380,-92.9699545,43.6755125,John Alberts,1398577603,2020-02-14 16:48:46,"Austin, MN",city,"Austin, MN",United States
33460,-93.1056485,44.9415155,John Alberts,1398577603,2020-02-20 00:14:25,"Austin, MN",city,"St Paul, MN",United States
12380,-92.979135,43.667963,John Alberts,1398577603,2020-02-20 21:04:27,"Austin, MN",poi,Austin High School,United States
40340,-92.458889,43.973413,John Alberts,1398577603,2020-02-27 16:20:11,"Austin, MN",poi,Southeast Service Cooperative,United States
12380,-92.9699545,43.6755125,John Alberts,1398577603,2020-03-06 19:42:59,"Austin, MN",city,"Austin, MN",United States
21,-35.196138,-8.870714,Sunia Clemente Alves,1398579212,2020-02-29 22:13:29,"Maragogi, Brasil",city,"So Jos da Coroa Grande, Brasil",Brasil
41740,-117.14895600000001,32.735355,Kulaba M Kyabanji,139858242,2020-02-16 01:09:13,always on the go..,poi,San Diego Zoo,United States
31080,-118.399639,34.082496500000005,Kulaba M Kyabanji,139858242,2020-02-28 21:02:42,always on the go..,city,"Beverly Hills, CA",United States
40140,-117.700903,34.0717425,Kulaba M Kyabanji,139858242,2020-05-25 06:03:34,always on the go..,city,"Montclair, CA",United States
31080,-118.4119065,34.0207895,Kulaba M Kyabanji,139858242,2020-05-25 15:52:13,always on the go..,city,"Los Angeles, CA",United States
19820,-82.93591550000001,42.509768,Meow-sama ,1398582601,2020-02-15 22:10:45,"Detroit, MI",city,"Roseville, MI",United States
26420,-95.3268995,29.5478845,Thomas Roach,1398583069,2020-02-23 00:10:59,"Manvel, Texas",city,"Pearland, TX",United States
12260,-82.03255250000001,33.3294005,Thomas Roach,1398583069,2020-04-30 03:50:04,"Manvel, Texas",city,"Melton, GA",United States
26420,-94.96799150000001,29.3800455,Thomas Roach,1398583069,2020-05-15 15:29:12,"Manvel, Texas",city,"Texas City, TX",United States
175,39.2541285,21.5857105,anmar !,1398583747,2020-03-12 12:47:02,",   ",city,"Jeddah, Kingdom of Saudi Arabia",Kingdom of Saudi Arabia
12100,-74.53040288,39.49157037,Lex,1398584532,2020-03-07 23:51:59,,city,"Pomona, NJ",United States
21,-46.63496909,-23.56124438,Giuliano Peccilli,139858558,2020-02-17 21:37:01,So Paulo,city,"So Paulo, Brasil",Brasil
38,-77.17049800000002,1.0755555,Erick Velasco | Concejal de Pasto,139858580,2020-02-16 20:17:01,"Pasto, Colombia",city,"Pasto, Colombia",Colombia
49,-78.81666667,-1.46666667,Belkyss Loor Alcvar,139858648,2020-02-18 03:52:45,Ecuador,city,"Guano, Ecuador",Ecuador
33460,-93.20965844,44.7164053,Vicki Sue,1398586651,2020-06-05 17:43:26,Minnesota,city,"Lakeville, MN",United States
38,-74.24367099999999,4.2622835,Mafe Gonzlez,1398586735,2020-02-19 03:50:34,"Carmen de Apical, Colombia",city,"Bogot, D.C., Colombia",Colombia
82,76.4763085,18.427528,Rahul Ramrao Joshi,1398587426,2020-02-14 04:21:21,LATUR MAHARASHTRA,city,"Latur, India",India
119,-100.1687175,25.778679,Mirtha Salinas,139858743,2020-02-19 14:43:39,"Monterrey, Nuevo Len",city,"Apodaca, Nuevo Len",Mxico
