currentGEOID,lon,lat,name,author_Id,created_at,location,place_type,place_full_name,place_country
211,-66.930644,10.483539,Indrek Espinoza ,374150706,2020-05-02 08:51:21,"Caracas, Venezuela",city,"Caracas, Venezuela",Venezuela
37980,-74.9315,40.1127,Bensalem HS Athletic,3741507556,2020-02-22 03:33:00,"Bensalem, PA",city,"Bensalem, PA",United States
9,150.931975,-33.848244,SKYview_Aerial_Photo,3741508333,2020-02-14 19:22:47,"Sydney, New South Wales",city,"Sydney, New South Wales",Australia
16980,-87.732013,41.8335845,"Ali Saiz, MD",374150915,2020-02-14 14:35:30,"Chicago, IL",city,"Chicago, IL",United States
40900,-121.469664,38.561721999999996,"Ali Saiz, MD",374150915,2020-06-05 04:16:56,"Chicago, IL",city,"Sacramento, CA",United States
16980,-87.732013,41.8335845,"Ali Saiz, MD",374150915,2020-06-10 20:32:56,"Chicago, IL",city,"Chicago, IL",United States
55,-89.3158035,13.626873499999999,Sergio Gomez,374151042,2020-02-24 01:09:41,El Salvador,city,"Antiguo Cuscatlan, El Salvador",El Salvador
205,-1.120205,54.57707600000001,Charlie,37415107,2020-02-14 16:04:37,"Redcar, England",city,"Redcar, England",United Kingdom
200,27.634726,38.655998,Mehti Abdullah KAPAR,374151146,2020-06-10 10:08:11,trkiye cezayir,poi,Koldere Kasabas,Trkiye
65,2.4735435000000003,48.8503415,Jean-Fabien,374151345,2020-05-12 18:10:39,"Montreuil, Ile-de-France",city,"Fontenay-sous-Bois, France",France
82,85.385683,23.3604345,mohit singh,3741516568,2020-02-20 09:35:47,,city,"Ranchi, India",India
26420,-95.4464865,29.838495,Call Me Smiley,3741519376,2020-02-28 23:44:33,"Houston, TX",city,"Houston, TX",United States
200,29.057118,41.139125,FatihDoramac ,374151991,2020-03-30 19:45:06,stanbul - Trkiye ,poi,Tarabya Sahili,Trkiye
47900,-77.020816,38.898177000000004,queenBA ,37415220,2020-03-05 00:59:11,,poi,Capital One Arena,United States
10900,-75.36719649999999,40.6252755,queenBA ,37415220,2020-03-10 15:45:52,,city,"Bethlehem, PA",United States
47900,-77.0367,38.8951,queenBA ,37415220,2020-03-12 00:07:34,,city,"Washington, DC",United States
10900,-75.4839355,40.591825,queenBA ,37415220,2020-03-22 21:44:59,,city,"Allentown, PA",United States
186,-8.422813000000001,43.345661,Jose Lameiro,374152468,2020-03-12 08:59:43,Galicia,city,"A Corua, Espaa",Espaa
21,-42.880259,-20.7479715,Jos Paulo Filho,37415257,2020-02-14 01:54:51,Viosa-MG,city,"Viosa, Brasil",Brasil
41860,-122.419,37.7793,Tessa Kayser ,374153405,2020-06-02 05:00:19,San Francisco,city,"San Francisco, CA",United States
65,2.364195,48.867406,Valentin,37415375,2020-06-09 16:58:25,"Paris, France",poi,Place de la Rpublique,France
205,-1.5491,53.7998,Lee Sheard,374153753,2020-04-22 09:15:05,"Leeds, England",city,"Leeds, England",United Kingdom
151,9.81316463,10.28916889,Alamin kasim,3741538157,2020-06-11 12:36:20,bauchi,city,"Bauchi, Nigeria",Nigeria
82,73.025191,19.170194,ANAF ANSARI,374154265,2020-05-10 15:03:44,,poi,New Nasheman,India
21,-43.2285606,-22.964897699999998,Cau Costa,374154343,2020-02-16 02:49:10,"Rio de Janeiro, Brazil",city,"Rio de Janeiro, Brasil",Brasil
151,7.0312755000000005,4.82463,,374154387,2020-04-20 14:56:09,Nigeria,city,"Port Harcourt, Nigeria",Nigeria
82,73.910077,18.5081615,Aniket Chougule,3741544653,2020-03-19 06:50:57,"Pune, India",city,"Haveli, India",India
21,-46.334399,-23.464825,Christpher Franco X'S,374155020,2020-03-03 23:36:21,estou em so paulo,city,"Itaquaquecetuba, Brasil",Brasil
19340,-90.57413199999999,41.522386,Chri_Chri,374155058,2020-02-23 23:31:15,"Davenport, IA",city,"Davenport, IA",United States
15380,-78.85356300000002,42.8962295,The Rossi Law Firm,37415510,2020-03-27 14:58:49,"Buffalo, NY",city,"Buffalo, NY",United States
38,-75.619213,6.270883,SAGITARIO,374155301,2020-03-07 16:17:30,Colombia,city,"Medelln, Colombia",Colombia
205,-2.915427,53.4198785,Emma,37415546,2020-02-21 20:14:27,liverpool uk,city,"Liverpool, England",United Kingdom
28140,-94.4345195,39.2396655,Robert Vogelaar,37415560,2020-03-28 16:10:36,,city,"Liberty, MO",United States
10660,-93.3663105,43.6567535,Alyssa Fast,374156003,2020-04-18 22:24:42,"Albert Lea, MN",city,"Albert Lea, MN",United States
205,-1.2225015,54.5594145,mandy macdonald,374156051,2020-04-20 22:10:21,,city,"Middlesbrough, England",United Kingdom
65,1.4329005,43.600757,Stephanie,3741561615,2020-04-02 16:57:53,"Toulouse, France",city,"Toulouse, France",France
38,-74.7964,10.9639,Dreisgram,374156279,2020-05-06 20:26:29,Colombia,city,"Barranquilla, Colombia",Colombia
39740,-76.00461899999999,40.3345525,Alex V,3741566595,2020-02-15 00:37:49,"Fleetwood, PA",city,"Whitfield, PA",United States
21,-46.5955455,-23.682803,claudio roberto mara,374156779,2020-05-06 08:24:37,,city,"Sao Paulo, Brazil",Brazil
205,-1.56549,53.801956,Billy Salkeld,3741569553,2020-03-23 18:11:34,pudsey,city,"Leeds, England",United Kingdom
205,-3.4129025000000004,56.0354455,Nick Hood,374157056,2020-03-12 18:07:58,Edinburgh,city,"Inverkeithing, Scotland",United Kingdom
24660,-79.8859,36.1991,Wendi D Brannigan,374157093,2020-04-30 02:01:48,Greensboro NC,city,"Summerfield, NC",United States
33700,-120.9322685,37.738040000000005,Leslie,3741571945,2020-04-29 08:29:44,Your mans house,city,"Riverbank, CA",United States
119,-115.22918,31.7896695,Myriam Moreno Jaime,374157280,2020-02-29 16:03:44,,city,"Mexicali, Baja California",Mxico
41180,-90.305126,38.656055,chris harris,37415746,2020-02-22 23:16:51,Land of Ahh's,poi,Salt + Smoke,United States
28140,-94.79019749999999,39.0084315,chris harris,37415746,2020-02-26 19:25:20,Land of Ahh's,city,"Shawnee, KS",United States
35620,-73.8311875,40.6708795,Thomas Mitchell,37415756,2020-03-30 19:37:02,"New York, NY",city,"Queens, NY",United States
65,1.1087325000000001,49.7107495,660+7 Connard,374157601,2020-03-27 18:58:29,Jojolastreet Land,city,"Auffay, France",France
8,-67.520174,-45.878122499999996,Maite,3741576687,2020-02-20 11:19:43,"Comodoro Rivadavia, Argentina",city,"Comodoro Rivadavia, Argentina",Argentina
205,-1.3496945,53.9745715,Huddo,374158009,2020-03-19 09:49:10,"Hunsingore, England",city,"Hunsingore, England",United Kingdom
119,-100.521713,20.1849595,Carlos Acevedo,3741581833,2020-05-19 04:46:32,,city,"Jercuaro, Guanajuato",Mexico
38900,-122.8249355,45.8590575,maria serna,3741582613,2020-03-01 22:43:58,"Joint Base Lewis-McChord, WA",city,"St Helens, OR",United States
42660,-122.551856,47.111487,maria serna,3741582613,2020-03-02 03:57:23,"Joint Base Lewis-McChord, WA",city,"Joint Base Lewis-McChord, WA",United States
36500,-122.7808305,47.051444,maria serna,3741582613,2020-05-14 21:44:58,"Joint Base Lewis-McChord, WA",city,"Tanglewilde, WA",United States
42660,-122.551856,47.111487,maria serna,3741582613,2020-05-15 18:30:36,"Joint Base Lewis-McChord, WA",city,"Joint Base Lewis-McChord, WA",United States
33100,-80.18271,25.89043,24SKINN G.F.I.E Jcam prod,374158273,2020-03-21 15:28:07,miami fl,city,"North Miami, FL",United States
41740,-116.98802250000001,32.85118,ria ,3741583049,2020-06-08 06:05:36,uc san diego,city,"Santee, CA",United States
205,-1.8906405,52.493966500000006,ria ,3741583049,2020-06-09 17:19:44,uc san diego,city,"Birmingham, England",United Kingdom
31080,-118.32514499999999,34.18216,Lauren Faulkner,374158308,2020-05-23 04:48:37,"Actor in Los Angeles, CA",city,"Burbank, CA",United States
35620,-74.460487,41.184244,Janine Brady,37415837,2020-04-05 21:42:55,"Vernon, New Jersey",city,"Highland Lake, NJ",United States
35620,-74.15394699999997,40.57237600000001,Gil A. Schweiger,37415838,2020-02-24 00:08:52,"Staten Island, New York",city,"Staten Island, NY",United States
26420,-95.7787115,29.721989,Yung $am ,3741584306,2020-05-15 15:32:54,"Houston, TX",city,"Cinco Ranch, TX",United States
173,50.080283,53.118663, ,374158577,2020-02-25 11:50:22,", ",poi,  10,
35620,-73.8311875,40.6708795,Diane Wilde,3741586516,2020-03-19 14:31:38,,city,"Queens, NY",United States
33,-69.9328285,-18.472955499999998,Carlonganiza,374158797,2020-02-29 01:31:08,Chile,city,"Arica, Chile",Chile
91,39.700382,-4.000891,Blaq Jewel,3741588083,2020-05-03 11:03:01,"Mombasa, Kenya",poi,The Hub (Naivas Bamburi),Kenya
119,-105.2198,20.6479,Nelly Groman,3741590533,2020-02-23 21:43:17,,city,"Puerto Vallarta, Jalisco",Mxico
152,5.264950499999999,51.654597,Marc Balemans,374159215,2020-03-21 09:19:39,Vught,city,"Vught, Nederland",Nederland
8,-58.442643,-34.604315,British Council,3741594267,2020-02-18 16:05:09,Argentina,city,"Ciudad Autnoma de Buenos Aires, Argentina",Argentina
35620,-74.11787849999997,40.9057975,BREAD FLINTSTONE ,374159465,2020-02-23 07:15:44,,city,"Elmwood Park, NJ",United States
186,0.553042,41.624821999999995,Gerard Boquet,374159469,2020-02-27 15:52:15,Tarragona,city,"Lleida, Espaa",Espaa
35620,-74.3063,40.4016,Matt Donato,374159603,2020-05-15 23:43:12,"Old Bridge, NJ",city,"Brownville, NJ",United States
24,-106.6612,52.1266,Robbie Cumming,374159979,2020-02-23 04:37:41,,city,"Saskatoon, Saskatchewan",Canada
88,137.3108565,35.140860499999995,,37416029,2020-02-16 07:23:06,,city, ,
119,-99.101997,18.991533,Intelligent Baseball,3741603072,2020-04-20 18:16:03,Dominican Rep. - Mexico - USA,city,"Tepoztln, Morelos",Mexico
119,-96.115585,19.162268,Mai,374160313,2020-03-13 05:04:56,,poi,Lab. Actividades Acuaticas FEFUV,Mxico
65,-1.1389200000000002,46.10709,P-Antoine Bisson,374160316,2020-05-21 19:47:07,"Bordeaux, France",city,"Angoulins, France",France
151,3.38489338,6.45710341,asapetem,374160516,2020-03-14 06:05:38,"Lagos, Nigeria",city,"Lagos, Nigeria",Nigeria
41740,-117.10498899999999,32.810012,Sarah Brandl,3741605773,2020-02-20 01:04:32,,city,"San Diego, CA",United States
14540,-86.4355085,36.965671,Pro Tax Service,374160950,2020-02-28 17:53:07,"Bowling Green, Ky",city,"Bowling Green, KY",United States
175,50.019311,26.469296999999997,   ,374161073,2020-03-19 19:13:05,,poi, - ,  
14460,-71.0887125,42.3136695,Jeff D'Antonio,37416127,2020-02-20 22:41:45,"Boston, MA",city,"Boston, MA",United States
21,-61.813293,-10.4481485,Lucivaldo Brandao,374161498,2020-04-14 16:21:10,"Boa Vista, Brasil",city,"Ji-Paran, Brasil",Brasil
153,5.4234775,60.3591995,Morten Myksvoll,37416154,2020-02-14 06:47:23,"Bergen, Norway",city,"Bergen, Norge",Norge
178,25.555316,-33.907562,Amir Mpayipeli,374162170,2020-02-14 06:34:35,"Port Elizabeth, South Africa",city,"Port Elizabeth, South Africa",South Africa
211,-66.930644,10.483539,Papi Luis,374162568,2020-04-29 03:44:26,"Caracas, Venezuela ",city,"Caracas, Venezuela",Venezuela
205,-2.24923545,53.47737142,Steve Livesey,374162696,2020-04-19 16:40:45,The end of the bar,city,"Manchester, England",United Kingdom
205,-0.2374891,51.493482799999995,Club Azucar - UK,374162999,2020-03-28 13:31:07,Londin - United Kingdown,city,"Hammersmith, London",United Kingdom
189,18.011036999999998,59.3699245,Bengt Anderson,37416302,2020-02-24 17:39:52,Rsunda,city,"Solna, Sverige",Sweden
51,-6.399521,53.2735025,Karl Kearns,374163241,2020-06-09 21:12:52,Dublin,city,"South Dublin, Ireland",Ireland
21,-43.1975,-22.908,Ary  Giancotti  Moro,37416349,2020-03-07 09:38:09,Rio de Janeiro  Brazil,city,"Rio de Janeiro, Brasil",Brasil
205,0.13187000000000001,51.443846, mol ,374163614,2020-05-15 06:31:48,,city,"Bexley, London",United Kingdom
205,-3.0079355,53.874422499999994,Debbie Taaffe,3741636261,2020-02-14 20:14:38,,city,"Fleetwood, England",United Kingdom
14140,-81.2187,37.2622,Troy Josef Gottlieb,37416364,2020-05-01 03:21:41,"Memphis, TN",city,"Bluefield, WV",United States
85,12.1748175,45.4091175,Riccardo Gubatti ,374163787,2020-05-15 09:43:28,Mira,city,"Mira, Veneto",Italia
12060,-84.06610599999998,34.0489705,Kiley ,3741638655,2020-02-15 23:21:39,Somewhere under the Rainbow,city,"Suwanee, GA",United States
38,-74.952625,11.005978,roxana fontalvo,374163895,2020-03-15 12:29:01,"Barranquilla, Colombia",poi,Klimandiaro Sunset Lounge,Colombia
21,-46.6560955,-23.582371300000002,Edison Monge,37416391,2020-02-16 22:09:44,Brasil,city,"Sao Paulo, Brazil",Brazil
24,-104.64089399999999,50.455135999999996,TVCasualtee,3741639252,2020-02-14 01:22:50,Canada,city,"Regina, Saskatchewan",Canada
205,-2.5853900000000003,51.457877,Dr Zara Nanu,374163998,2020-02-14 10:57:34,"Bristol, UK",city,"Bristol, England",United Kingdom
82,77.095086,28.638489500000002,mbharat,37416424,2020-03-26 12:48:27,"New Delhi, Delhi",city,"New Delhi, India",India
55,-89.1366275,13.700207500000001,godofredo sevillano,3741642672,2020-03-19 18:30:45,,city,"Tonacatepeque, El Salvador",El Salvador
119,-103.6567385,19.100342,Celeste Garibay,3741643702,2020-02-14 15:20:06,,city,"Colima, Mxico",Mexico
200,29.0052225,41.0213205,Ufuk koray,374164744,2020-03-16 15:53:32,STANBUL KKEKMECE ,city,"stanbul, Trkiye",Trkiye
47900,-77.00747799999998,39.0904545,Jennifer Dexter,374164763,2020-05-28 21:41:28,"Washington, DC",city,"Colesville, MD",United States
205,-3.945735,51.644289,Laura-Kate Davies,374164926,2020-04-05 20:21:19,"Wales, United Kingdom",city,"Swansea, Wales",United Kingdom
205,-1.56549,53.801956,Jaspal Panesar,3741649581,2020-03-08 09:03:52,"Leeds, England",city,"Leeds, England",United Kingdom
205,-0.2108945,51.611884499999995,Impressionable Minds,374165121,2020-03-11 07:36:56,"London, England",city,"Barnet, London",United Kingdom
51,-6.579388000000001,52.4597335,Ger Lawlor,374165174,2020-04-25 20:05:59,"Wexford, Ireland.",city,"Wexford, Ireland",Ireland
34820,-78.688827,33.82451399999999,kourtney,374165210,2020-05-10 16:53:40,,city,"North Myrtle Beach, SC",United States
38,-74.849933,10.958072999999999,,374165292,2020-03-19 03:23:48,Colombia,city,"Barranquilla, Colombia",Colombia
38300,-80.1278485,40.6897805,Emily Larrier,37416539,2020-03-05 14:43:36,"Colorado Springs, CO",city,"Fernway, PA",United States
49660,-80.65759299999998,41.01594,Emily Larrier,37416539,2020-03-18 01:01:04,"Colorado Springs, CO",city,"Boardman, OH",United States
88,139.753367,35.693736,,3741655154,2020-02-16 06:46:01,,poi,,
34980,-86.791549,36.200008000000004,Alan Babiry,374165530,2020-03-13 22:26:06,"Nashville, TN ",city,"Nashville, TN",United States
24620,-82.84830099999998,36.14116,Caleb Julian,37416561,2020-04-22 22:06:03,"Mohawk, TN",city,"Greeneville, TN",United States
203,35.760085,-6.1690059999999995,Tanzania Kwanza,3741656369,2020-02-16 18:49:42,,poi,Area c,Tanzania
159,-57.60601750000001,-25.300264000000002,Eder Steven #73755,374165828,2020-02-14 15:46:28,Amsterdam ,city,"Asuncion, Paraguay",Paraguay
119,-107.3420565,24.662488500000002,Alberto Ypiz,37416592,2020-02-20 00:50:27,"Hermosillo, Sonora",city,"Culiacn, Sinaloa",Mexico
41860,-122.43597849999999,37.7706565,Reza Esmaili,374166231,2020-03-29 21:34:53,"San Francisco, CA",city,"San Francisco, CA",United States
175,50.2047,26.280189,.   ,374166286,2020-02-25 17:25:16,",  ",poi,Mohammed Al Dossary Hospital,  
96,47.902907,29.2430535,  ,374166308,2020-02-14 07:03:54, ,city,"Abdullah Al Mubarak - West Jleeb, Kuwait",Kuwait
24,-75.80014150000001,45.248791,Kerry Carruthers,3741663389,2020-04-09 14:57:47,"Carp, Ontario",city,"Ottawa, Ontario",Canada
205,-2.915427,53.4198785,Graham Hurley,374166429,2020-02-14 17:42:21,"Moreton, Wirral, England",city,"Liverpool, England",United Kingdom
205,-4.291421499999999,55.79426899999999,Luciano Iafrate,37416671,2020-04-11 17:14:30,Glasgow,city,"Thornliebank, Scotland",United Kingdom
38,-75.61344100000001,6.151366,HALIFAX,374166773,2020-05-15 15:52:40,"Medelln, Colombia",poi,Sabaneta,Colombia
30060,-92.67005202,37.70821119,Johnny W Browning,3741668242,2020-02-16 20:57:35,"Lebanon, MO",city,"Lebanon, MO",United States
200,38.386185,40.916022999999996,Funda,374166902,2020-02-17 05:56:18,,city,"Giresun, Trkiye",Trkiye
38300,-79.9806895,40.431389,Taylor,374166963,2020-02-14 07:10:10,,city,"Pittsburgh, PA",United States
37980,-75.05008649999998,39.9602435,Taylor,374166963,2020-02-29 05:22:52,,city,"Pennsauken, NJ",United States
38300,-79.9806895,40.431389,Taylor,374166963,2020-03-10 00:35:16,,city,"Pittsburgh, PA",United States
37980,-75.05008649999998,39.9602435,Taylor,374166963,2020-03-18 03:03:21,,city,"Pennsauken, NJ",United States
222,115.2261395,-8.705967999999999,love l Full,374167240,2020-05-14 15:58:10,"Denpasar, Bali",city,"Denpasar Selatan, Indonesia",Indonesia
186,-8.54638589,42.83733459,Noelia Solleiro,374167625,2020-05-08 22:58:36,Vigo,city,"Teo, Espaa",Espaa
80,19.129828,47.4812305,Yasin,3741679097,2020-03-20 05:28:57,,city,"Budapest, Magyarorszg",Magyarorszg
175,49.580434999999994,25.388978,-,3741679108,2020-02-24 05:30:12,     .,poi,JOE CAF,  
19100,-96.7617535,32.819858499999995,Lisa Ricciardelli,374168095,2020-03-22 22:10:26,Texas,city,"Dallas, TX",United States
29460,-81.53224850000002,27.837509499999996,KU Seahawks Tennis,3741681449,2020-02-15 19:25:13,"West Palm Beach, FL",city,"Babson Park, FL",United States
33100,-80.134986,26.3739755,KU Seahawks Tennis,3741681449,2020-02-19 19:28:40,"West Palm Beach, FL",city,"Boca Raton, FL",United States
33100,-80.13296249999998,25.8169655,Detroit Player Ace,374168724,2020-04-02 00:08:49,"Detroit, MI",city,"Miami Beach, FL",United States
33340,-87.9672925,43.0567225,Heavin Gallipeau,374168844,2020-02-18 07:19:22,,city,"Milwaukee, WI",United States
43100,-87.7326905,43.686218,Heavin Gallipeau,374168844,2020-05-20 00:00:34,,city,"Wilson, WI",United States
8,-58.351764,-34.682640500000005,Nahir Trichilo,3741690377,2020-02-14 03:39:22,,city,"Avellaneda, Argentina",Argentina
21,-43.296872,-22.644558,Ronaldo,3741691463,2020-02-16 14:37:02,,city,"Duque de Caxias, Brasil",Brasil
21,-43.2333,-22.9,Michelly barbosa,374169315,2020-04-05 15:44:57,"Araruama, Brasil",city,"Rio de Janeiro, Brasil",Brasil
14660,-93.550433,47.226565,Bob Conzemius,374169735,2020-02-17 17:47:33,"Grand Rapids, MN",poi,Sylvan Bay,United States
24220,-96.602301,47.778315,Bob Conzemius,374169735,2020-06-08 02:13:03,"Grand Rapids, MN",city,"Crookston, MN",United States
14660,-93.5338115,47.2276555,Bob Conzemius,374169735,2020-06-08 14:54:51,"Grand Rapids, MN",city,"Grand Rapids, MN",United States
25840,-118.80935349999999,45.672252,SpiritManStudios,3741698359,2020-02-14 07:20:58,"Oregon, USA",city,"Pendleton, OR",United States
160,-77.0049755,-12.1944695,yovi manco,374169874,2020-03-10 12:24:36,,city,"Chorrillos, Peru",Peru
21,-43.441578,-22.911421500000003,Leonardo Ramos,37417041,2020-03-30 11:23:14,Rio de Janeiro,city,"Rio de Janeiro, Brasil",Brasil
20700,-75.358873,41.125657000000004,Poetic Goddess,374170477,2020-05-18 12:19:08,,city,"Mount Pocono, PA",United States
24,-79.27256949999999,43.629311,Eric Mark Do,374170691,2020-02-14 03:48:10,"Toronto, Ontario ",city,"Toronto, Ontario",Canada
152,6.654252499999999,53.2452815,Ben van der Meer,374170784,2020-03-01 10:18:36,Groningen,neighborhood,"Garmerwolde, Ten Boer",Nederland
85,11.5883299,43.55055,Giocandocoimestoli,374171102,2020-03-29 10:04:29,"Montevarchi, Toscana",city,"Terranuova Bracciolini, Toscana",Italia
8,-60.69740600000001,-32.9516155,Sergio,374171440,2020-05-19 15:34:20,"Rosario, Argentina",city,"Rosario, Argentina",Argentina
152,4.3063955,52.07686800000001,HappinessBureau,3741715875,2020-03-12 19:45:37,,city,"Den Haag, Nederland",Nederland
200,41.8144715,41.1770845,Bar,3741716189,2020-02-21 19:03:49,,city,"Artvin, Trkiye",Trkiye
24,-135.06777449999998,60.700368000000005,Jackie Hong,374171747,2020-02-16 05:16:09,Whitehorse/Kwanlin,city,"Whitehorse, Yukon",Canada
35620,-74.0010704,40.757308,Medal Addict,3741719488,2020-03-09 19:22:32,,city,"Manhattan, NY",United States
171,120.94676479,14.65792982,Medal Addict,3741719488,2020-03-18 11:39:01,,city,"Navotas City, National Capital Region",Republic of the Philippines
35620,-74.0064,40.7142,Medal Addict,3741719488,2020-03-21 00:16:43,,city,"Manhattan, NY",United States
41700,-98.5406515,29.417501,Chris Salinas,374172340,2020-04-27 03:07:37,SA / TX / USA,city,"San Antonio, TX",United States
18140,-83.0677285,39.849472999999996,love (Byrd),374172530,2020-02-14 23:22:50,The Crib w Waifu,city,"Grove City, OH",United States
200,28.968726,41.037805999999996,Onur,374172760,2020-05-22 17:53:33,zmir/Ankara,city,"Ankara, Trkiye",Trkiye
8,-60.69740600000001,-32.9516155,,374172924,2020-04-14 21:25:57,,city,"Rosario, Argentina",Argentina
18140,-83.1433925,40.0408125,Azer Fox,374173558,2020-02-14 12:39:03,"Columbus, OH",city,"Hilliard, OH",United States
19100,-96.7617535,32.819858499999995,Hanna Battah,374174304,2020-03-02 14:14:00,"Dallas, TX",city,"Dallas, TX",United States
37980,-75.117998,40.0048655,Matt Mayfield,374174486,2020-03-12 13:55:02,,city,"Philadelphia, PA",United States
85,9.1593365,45.461345,bisikletiZm,3741745456,2020-02-15 16:54:42,,city,"Milano, Lombardia",Italia
71,9.741763,52.377078999999995,Timo,37417459,2020-03-08 20:14:24,"53.201,8.579",city,"Hannover, Deutschland",Deutschland
38,-73.4704055,4.0882915,Paola Saavedra,374174606,2020-02-14 02:43:20,Colombia,city,"Villavicencio, Colombia",Colombia
82,86.64528100000001,24.266794500000003,Ajay kumar maurya,3741748096,2020-03-29 05:14:16,Madhupur Sonebhadra,city,"Madhupur, India",India
153,7.818382499999999,61.286030000000004,Frank yre,374175249,2020-03-31 13:38:20,"vre rdal, Norway",city,"rdal, Norge",Norway
119,-99.2115105,19.4299345,SERGIO SNCHEZ,374175430,2020-05-09 15:30:28,Planet Earth,city,"Miguel Hidalgo, Distrito Federal",Mexico
8,-58.442643,-34.604315,Rau,37417554,2020-03-30 01:05:18,"Buenos Aires, Argentina",city,"Ciudad Autnoma de Buenos Aires, Argentina",Argentina
119,-88.19165577,20.69146885,Angel Velazquez,374175955,2020-02-16 22:08:26,"Comalcalco,Tabasco",city,"Valladolid, Yucatn",Mxico
175,46.685077,24.7219435,wafa,374176331,2020-04-28 12:15:42,"Ksa, Riyadh ",city,",   ",  
41860,-122.52809939999999,37.97320555,Rebecca Rae Design Inc.,374176713,2020-03-23 21:43:37,"San Rafael, CA",city,"San Rafael, CA",United States
12580,-76.4816155,38.931078,Raftyr,374176989,2020-05-15 05:21:15,,city,"Annapolis Neck, MD",United States
28660,-97.75384,31.0793065,Jaimito,3741770119,2020-06-01 21:51:14,"Tejas, USA",city,"Killeen, TX",United States
35620,-74.0108855,40.787365,Reina Calle,374177054,2020-02-19 09:56:24,"West New York, NJ",city,"West New York, NJ",United States
14460,-71.06215300000001,42.366329,Jeremy Fitch,374177178,2020-02-14 05:49:22,"New York, NY",poi,TD Garden,United States
200,27.363989,37.058257,fato,374177245,2020-02-16 21:02:41,"Bodrum, Trkiye",city,"Bodrum, Trkiye",Trkiye
31080,-118.4119065,34.0207895,Scott Garner,374177260,2020-03-23 18:54:30,"Los Angeles, CA",city,"Los Angeles, CA",United States
36980,-87.1023995,37.765135,#shannonb,3741774093,2020-02-16 14:08:03,,city,"Owensboro, KY",United States
175,50.171614,26.196555,  ,3741776834,2020-02-22 12:23:26,",   ",poi,   - Al Nawras walkway,  
96,47.942662,29.341794,,3741778752,2020-03-04 07:36:59,,poi,VOL.1,Kuwait
200,29.0052225,41.0213205,Enes Akay,374177885,2020-03-06 09:59:30,,city,"stanbul, Trkiye",Trkiye
119,-99.08179,19.2362445,Carla Isabel ,374178026,2020-03-10 20:04:37,,city,"Xochimilco, Distrito Federal",Mxico
205,-0.189289,51.4108755,Madeleine Dunne,37417809,2020-03-26 21:22:09,"Sussex, London & Ireland",city,"Merton, London",United Kingdom
21,-48.772193,-25.795313500000002,,3741781696,2020-02-24 17:41:31,,city,"Guaratuba, Brasil",Brasil
120,100.29101,5.295139000000002,Ren,37417845,2020-04-12 15:52:49,"Penang, Malaysia",city,"Mukim 12 (Bayan Lepas), Pulau Pinang",Malaysia
205,-0.01368557,51.58212681,LozzieS,37417871,2020-03-07 17:56:04,,city,"Walthamstow, London",United Kingdom
205,-2.0140545000000003,52.348972499999995,edward morris,374178789,2020-03-08 20:09:06,Birmingham ,city,"Blackwell, England",United Kingdom
200,29.0052225,41.0213205,Cem MENEKE,374178858,2020-05-13 22:42:51,Selimiye,city,"stanbul, Trkiye",Trkiye
35620,-74.03391363,40.61261969,jerry norris,3741789736,2020-02-22 00:02:42,"New Jersey, USA",city,"Brooklyn, NY",United States
33340,-87.97298,43.18169,jerry norris,3741789736,2020-03-03 14:15:47,"New Jersey, USA",city,"Brown Deer, WI",United States
31080,-118.441694,34.068437,maddy,3741790814,2020-02-28 21:59:54,ucla,poi,UCLA W. G. Young Hall,United States
205,-2.5933005000000002,53.38260800000001,Liam Parkin,374179127,2020-03-05 14:05:59,,city,"Warrington, England",United Kingdom
47260,-76.069946,36.8025415,Marcos Machuca,374179272,2020-02-14 16:46:40,"Virginia Beach, VA",city,"Virginia Beach, VA",United States
65,-0.006503999999999999,48.154300000000006,MarWIN  ,3741793816,2020-02-15 01:10:07,"Evreux, France ",city,"Neuvillalais, France",France
35620,-73.5040475,40.81477,Anthony Leo,37417948,2020-02-26 20:38:44,Syosset New York,city,"Syosset, NY",United States
42660,-122.50467923,47.29938023,Tuanh Dinh,374179826,2020-03-27 04:04:15,"Tacoma, Wa",city,"Tacoma, WA",United States
34740,-86.36652600000001,43.508385,TylerHopefully Some festival.,374179844,2020-04-01 23:27:23,"Providence, RI",poi,Electric Forest,United States
39300,-71.378008,41.877246,TylerHopefully Some festival.,374179844,2020-04-02 13:09:42,"Providence, RI",city,"Pawtucket, RI",United States
34740,-86.36652600000001,43.508385,Tyler6 feet away,374179844,2020-04-22 03:07:45,"Providence, RI",poi,Electric Forest,United States
39300,-71.378008,41.877246,Tyler6 feet away,374179844,2020-04-23 17:56:04,"Providence, RI",city,"Pawtucket, RI",United States
35620,-74.2482835,40.3341475,Nicole Meyrick,3741799648,2020-02-20 00:06:26,"New Jersey, USA",city,"Marlboro, NJ",United States
21,-47.5736535,-5.3899099999999995,Holden Arruda,37418023,2020-02-25 00:26:22,Imperatriz,city,"Imperatriz, Brasil",Brasil
35620,-73.9685415,40.780709,wellington perez,374180304,2020-02-14 14:43:53,NYC,city,"Manhattan, NY",United States
186,-3.7035075,40.4777945,Mon,374180520,2020-02-27 20:41:40,Madrid,city,"Madrid, Espaa",Espaa
21,-53.323565,-32.40351750000001,Claiton Dias Silva,3741807142,2020-02-15 21:33:58,Jaguaro/Pelotas ,city,"Jaguaro, Brasil",Brasil
171,120.9839865,14.5914565,AmlodiQueen,37418091,2020-02-14 09:05:51,Paraaque / Manila / Cebu,city,"Manila City, National Capital Region",Republic of the Philippines
51,-6.247621499999999,53.3549025,Johnny Williams,374180937,2020-02-14 18:24:42,,city,"Dublin City, Ireland",Ireland
11180,-93.6393635,42.032506500000004,Duchess Lindsay Kroeger,37418118,2020-03-17 16:40:28,Iowa,city,"Ames, IA",United States
186,-3.6975135000000003,40.007569,Patricia lvarez,374181390,2020-03-09 22:52:26,"Aranjuez, Madrid",city,"Aranjuez, Espaa",Espaa
88,139.6345155,35.636514,,3741814933,2020-03-20 03:32:42, ,city, ,
35620,-73.9685415,40.780709,Kara Stevick,3741815001,2020-02-21 19:52:08,NYC ,city,"Manhattan, NY",United States
8,-58.013021499999994,-34.9363185,Rodri Gallo,374181661,2020-02-24 04:11:22,"Abasto, La Plata",city,"La Plata, Argentina",Argentina
24,-113.492,53.522,Bart,374181780,2020-05-31 04:52:22,"Edmonton, AB",city,"Edmonton, Alberta",Canada
25060,-89.069133,30.426027,Kathryn Anna ,37418206,2020-02-27 19:45:19,"Biloxi, MS",city,"Gulfport, MS",United States
25620,-89.338039,31.310637,Kathryn Anna ,37418206,2020-03-01 15:28:07,"Biloxi, MS",city,"Hattiesburg, MS",United States
25060,-89.069133,30.426027,Kathryn Anna ,37418206,2020-03-04 22:06:40,"Biloxi, MS",city,"Gulfport, MS",United States
25620,-89.338039,31.310637,Kathryn Anna ,37418206,2020-06-03 00:49:17,"Biloxi, MS",city,"Hattiesburg, MS",United States
9,149.1297825,-35.313979499999995,Nicola Maynard,374182361,2020-04-27 03:43:31,Canberra,city,"Canberra, Australian Capital Territory",Australia
96,48.0198595,29.335547499999997,AR AHMED,37418260,2020-02-27 08:37:50,Kuwait,city,"Hawalli, Kuwait",Kuwait
16980,-87.632496,41.883221999999996,Matthew Stoklosa,374182730,2020-05-08 21:04:44,,city,"Chicago, IL",United States
8,-58.527781,-33.014360499999995,outside,3741832995,2020-05-13 20:31:49,"Gualeguaych, Argentina",city,"Gualeguaych, Argentina",Argentina
205,-2.147965,52.5801345,Amy Mitchell,374183587,2020-03-24 09:21:43,,city,"Wolverhampton, England",United Kingdom
14500,-105.2426865,40.02398150000001,Asap Beltrami,374183775,2020-06-03 18:43:35,,city,"Boulder, CO",United States
29100,-91.258412,43.9468265,Patrick Schaller,374183901,2020-04-03 14:40:31,"La Crosse, WI",city,"Holmen, WI",United States
151,3.39583,6.45306,sunday,374184431,2020-05-18 02:16:39,Lagos Nigeria,city,"Lagos, Nigeria",Nigeria
65,2.3685080000000003,48.853615000000005,Bruno Le Maire,374184532,2020-06-02 07:51:17,,poi,Caf des Phares,France
33100,-80.05881,26.831478000000004,Judy Cohen,3741848295,2020-02-25 12:47:42,,city,"North Palm Beach, FL",United States
200,29.087084,41.092607,Murat Doan,3741848415,2020-06-09 18:19:26,"stanbul, Trkiye",poi,Alta Tv stanbul Stdyosu,Trkiye
222,119.4766899,-5.16123441,Wahdah Islamiyah Makassar,37418500,2020-05-24 09:49:37,"Makassar, Indonesia",city,"Panakkukang, Indonesia",Indonesia
21,-48.50288,-1.45434,liton Novais,37418524,2020-03-26 16:03:58,"Paran, Brasil",city,"Belm, Brasil",Brasil
19100,-97.225487,32.4054385,Stephen Zelaya Youngberg,374185467,2020-02-21 19:32:48,Honduras,city,"Alvarado, TX",United States
12260,-82.207437,33.470772,Connor Clements,3741856515,2020-04-26 20:12:04,,city,"Grovetown, GA",United States
38900,-122.5889745,45.630589,Magdalena C.l.Roper,374185754,2020-02-15 05:50:31,san jose california,city,"Vancouver, WA",United States
91,36.878751,-1.217855,IAN_GITOBU,3741858195,2020-02-19 06:39:11,Nairobi ,poi,United States International University (USIU),Kenya
200,27.358441999999997,41.4019075,evrim,374185953,2020-02-23 06:44:28,"Lleburgaz, Trkiye",city,"Lleburgaz, Trkiye",Trkiye
85,14.355935500000001,41.244118,Patrick Domen,3741859936,2020-02-17 18:36:06,Guyana fr   Brasil Italy,city,"Alvignano, Campania",Italia
119,-99.177127,19.398891,A MartinezBaez,374186092,2020-03-10 23:22:06,MEX,poi,cranker,Mexico
21,-48.48564450000001,-16.1157295,Clebhson Gontijo,3741862828,2020-02-23 18:28:27,Brasil,city,"Alexnia, Brasil",Brasil
152,4.904053500000001,52.354728,Nantia Makrynioti,374186349,2020-03-29 19:43:22,,city,"Amsterdam, The Netherlands",The Netherlands
24,-82.34337049999998,43.036842,PE McGibbon,3741864132,2020-02-19 20:05:37,"Sarnia, Ontario",city,"Sarnia, Ontario",Canada
71,11.015366,50.984976,Kilian Ropeter,374186512,2020-02-15 21:09:15,Erfurt / Einbeck,city,"Erfurt, Deutschland",Deutschland
21,-47.03021800000001,-22.8949945,Matuo,374186644,2020-03-31 15:06:39,,city,"Campinas, Brasil",Brasil
211,-66.930644,10.483539,Alfredo Crdenas,3741866549,2020-05-31 06:28:43,Venezuela,city,"Caracas, Venezuela",Venezuela
200,29.0052225,41.0213205,emre,374186696,2020-05-23 01:36:41,,city,"stanbul, Trkiye",Trkiye
35620,-73.9859,40.6937,Moms1166,37418677,2020-04-23 19:46:04,where u want me 2 b,city,"Brooklyn, NY",United States
21,-51.1593095,-30.099836,Augusto Reginatto,374186955,2020-02-15 09:44:16,Porto Alegre,city,"Porto Alegre, Brasil",Brasil
8,-58.446241,-34.659632,David,374186982,2020-05-13 11:33:02,,city,"Villa Soldati, Argentina",Argentina
119,-103.335882,20.676652,Juancho Fdz,374187172,2020-04-29 01:57:25,,city,"Guadalajara, Jalisco",Mxico
211,-66.930644,10.483539,LA CALLE ES TU GYM,374187341,2020-03-08 03:31:14,Venezuela,city,"Caracas, Venezuela",Venezuela
173,46.70601,61.226181999999994,AKabrinsky,374187370,2020-03-10 17:48:16,", ",city,", ",
24,-79.27256949999999,43.629311,Cheryl Eckler,37418749,2020-03-28 01:34:01,Canada,city,"Toronto, Ontario",Canada
151,7.5723685,8.829421499999997,samira abubakar,374187869,2020-04-05 21:55:05,"Abuja, Nigeria",city,"Karshi, Nigeria",Nigeria
31140,-85.531889,38.2732645,Nicholas Smith,374188009,2020-03-09 16:50:10,"Bowling Green, KY",city,"Anchorage, KY",United States
21,-44.3025505,-2.6292855,Mauro Lincon,374188024,2020-02-17 15:55:20,So Lus/MA,city,"So Lus, Brasil",Brasil
128,4.375364,50.82067050000001,Barbara Hayes,374188422,2020-02-18 12:40:26,London,city,"Elsene, Belgi",Belgium
205,-0.115406,51.4603395,Barbara Hayes,374188422,2020-03-03 18:40:06,London,city,"Lambeth, London",United Kingdom
161,74.3584865,31.5318195,Ayeza Raza,374188555,2020-02-22 13:45:55,Islamabad,city,"Lahore, Pakistan",Pakistan
200,28.968173999999998,41.037713000000004,ADVENTURE TME,374189115,2020-04-29 17:52:00,"stanbul, Trkiye",city,"Denizli, Trkiye",Trkiye
37980,-75.117998,40.0048655,Machmud,374189274,2020-02-18 22:07:56,"Philadelphia, PA",city,"Philadelphia, PA",United States
29820,-115.03833700000001,36.006256,Machmud,374189274,2020-02-20 21:24:34,"Philadelphia, PA",city,"Henderson, NV",United States
37980,-75.117998,40.0048655,Machmud,374189274,2020-02-23 21:07:45,"Philadelphia, PA",city,"Philadelphia, PA",United States
45300,-82.8349015,27.937634000000003,Cole,374189755,2020-02-15 02:18:56,"Lakeland, FL",city,"Belleair Beach, FL",United States
29460,-81.97270499999998,28.049601000000006,Cole,374189755,2020-02-19 01:37:07,"Lakeland, FL",city,"Lakeland, FL",United States
35840,-82.480177,27.172338,Cole,374189755,2020-05-24 18:45:50,"Lakeland, FL",poi,poolside @ Bentleys,United States
29460,-81.97270499999998,28.049601000000006,Cole,374189755,2020-05-29 10:29:26,"Lakeland, FL",city,"Lakeland, FL",United States
45300,-82.46383,27.961114000000002,Cole,374189755,2020-06-06 20:49:42,"Lakeland, FL",poi,Tampa Armature Works,United States
29460,-81.97270499999998,28.049601000000006,Cole,374189755,2020-06-09 14:02:09,"Lakeland, FL",city,"Lakeland, FL",United States
178,28.103551,-25.988404,Keaobaka,374189886,2020-02-21 21:50:56,KLD / JHB,city,"Midrand, South Africa",South Africa
96,47.974911999999996,29.375295, ,374190145,2020-02-17 18:17:48,Kuwait,poi,  -   ( ),Kuwait
222,106.8293805,-6.2529575,Daniel Tantra Wiratama,37419019,2020-02-21 13:56:29,"DKI Jakarta, Indonesia",city,"Mampang Prapatan, Indonesia",Indonesia
-9999,-61.8117305,44.321234,Kayla Hoolwerf,374190220,2020-03-20 11:04:56,"Halifax, Nova Scotia",city,"Halifax, Nova Scotia",Canada
38,-73.916667,3.816667,CARITOCHAPARRO,374190366,2020-04-29 15:05:14,"Medelln, Colombia",city,"San Luis de Cubarral, Colombia",Colombia
200,28.968176,41.037873,Doukan,374190624,2020-05-12 22:25:41,,city,"Kastamonu, Trkiye",Trkiye
85,9.1952305,44.3281075,Nicola Brissolese,374190683,2020-03-06 08:04:44,S.Margherita Ligure,city,"Santa Margherita Ligure, Liguria",Italia
8,-68.8666875,-32.8833425,Abel Cardin,374190866,2020-02-21 16:37:11,"Mendoza, Argentina",city,"Mendoza, Argentina",Argentina
21,-52.444227500000004,-28.2628375,falkowski,374190905,2020-02-14 14:29:38,"Passo Fundo, Brasil",city,"Passo Fundo, Brasil",Brasil
31080,-117.918989,33.810485,lima ,3741909554,2020-03-09 02:52:11,,poi,Disneyland Park,United States
25940,-80.748747,32.1898025,Phillys Cafe & Deli,374191096,2020-02-25 18:38:58,"Hilton Head Island, SC",city,"Hilton Head Island, SC",United States
85,13.155801,38.131481,Elisa Calcagno,374191602,2020-03-15 10:47:21,,city,"Carini, Sicilia",Italia
10580,-73.754986,42.648556,Kendra Breshears,374191841,2020-03-08 04:10:21,"Amsterdam, Ny",poi,Times Union Center,United States
159,-57.60601750000001,-25.300264000000002,Papo Jimenez,374191869,2020-02-17 02:42:23,Paraguay,city,"Asuncion, Paraguay",Paraguay
21,-46.94429022,-22.37647801,Mateus Bandeira,374191969,2020-02-19 01:35:31,Mogi Guau,city,"Mogi Guau, Brasil",Brasil
8,-57.9546,-34.9213,Alan silva,3741919895,2020-04-20 03:38:23,la plata - los hornos,city,"La Plata, Argentina",Argentina
34980,-86.791549,36.200008000000004,Rebecca Cardenas,3741920236,2020-02-16 21:25:19,"Nashville, TN",city,"Nashville, TN",United States
11700,-82.5721305,35.71153,Rebecca Cardenas,3741920236,2020-05-01 21:01:25,"Nashville, TN",city,"Weaverville, NC",United States
85,7.641227000000001,45.109658,Dario Nicosia,374192034,2020-02-16 17:31:59,Italy,poi,Allianz Stadium (Juventus Stadium),Italia
205,-1.570206,55.18015450000001,Sophie Sutherland,37419211,2020-02-16 03:16:01,"Newbiggin-by-the-Sea, England",city,"Ashington, England",United Kingdom
169,21.274839,46.1537355,Marius Roman,3741922342,2020-05-25 08:38:19,"Arad, Romnia",city,"Arad, Romnia",Romnia
200,39.590412,41.0194805,GkHan ,374192295,2020-02-15 19:13:47,Bize Her Yer TRABZON ;),city,"Akaabat, Trkiye",Trkiye
152,4.3063955,52.07686800000001,G.van de Merkt,374192300,2020-02-15 14:34:41,,city,"Den Haag, Nederland",Nederland
29820,-115.1678655,36.1075595,laced up,374192626,2020-04-24 04:18:14,,neighborhood,"The Las Vegas Strip, Paradise",United States
65,-0.371959,49.184634499999994, ,3741926961,2020-04-13 22:43:16,"Le Havre, France",city,"Caen, France",France
35620,-73.93885,40.79987,Latino Leadership Institute - New York Chapter,3741928241,2020-03-02 20:35:57,"New York, USA",city,"Manhattan, NY",United States
21,-42.543348,-19.3913215,Raigoo,374193083,2020-04-18 12:46:34,Santana do Paraso,city,"Santana do Paraso, Brasil",Brasil
205,-1.852607,50.742268,Liam Cooper,374193152,2020-05-22 15:05:55,United Kingdom,city,"Bournemouth, England",United Kingdom
186,-5.7967405,37.288552,PacoPepe_Sevilla,374193262,2020-03-14 12:26:31,"Sevilla, Andaluca",city,"Alcal de Guadara, Espaa",Espaa
186,2.352358,41.6467475,Mart ColoVila,3741933675,2020-04-03 23:37:45,Cardedeu ,city,"Cardedeu, Espanya",Espanya
205,-5.705072,54.32745799999999,Chle Mahon,374193488,2020-04-15 12:51:33,"Downpatrick, Northern Ireland",city,"Downpatrick, Northern Ireland",United Kingdom
171,120.9839865,14.5914565,abs,3741935833,2020-02-14 01:06:04,trash,city,"Manila City, National Capital Region",Republic of the Philippines
9,150.931975,-33.848244,Annie Shu,374193675,2020-03-15 20:52:41,Australia,city,"Sydney, New South Wales",Australia
31080,-117.89,33.8362,Eli Arnold,3741938059,2020-04-03 00:49:01,"Anaheim, CA",city,"Anaheim, CA",United States
222,110.46184,-6.955201,Satpol_Kudus,3741938118,2020-02-21 11:13:35,"Kudus, Indonesia",poi,RSI Sultan Agung Semarang,Indonesia
175,39.8016865,21.389833000000007,|AYG,3741939013,2020-03-24 00:36:58,"Jeddah, Makkah Al Mukarrama",city,"Makkah Al Mukarrama, Kingdom of Saudi Arabia",Kingdom of Saudi Arabia
38060,-111.8583985,33.639340000000004,Luke Brenneman,374194007,2020-03-22 20:07:06,"Phoenix, AZ",city,"Scottsdale, AZ",United States
12060,-84.43310600000001,33.7671945,Ashley Vega,37419409,2020-02-14 01:59:51,"Georgia, USA",city,"Atlanta, GA",United States
178,28.15492,-26.145529999999997,Justin Hendricks,37419412,2020-04-21 14:32:51,Johannesburg,city,"Edenvale, South Africa",South Africa
152,4.88331614,52.37443051,Jrme Charr,37419417,2020-02-14 12:05:37,Aulnay-sous-Bois (France),city,"Amsterdam, Pays-Bas",Pays-Bas
186,2.1412275000000003,41.392657,Aitor Ario,374194996,2020-03-01 15:58:25,Barcelona,city,"Barcelona, Espaa",Espaa
205,-4.2417515,55.85830249999999,Abercorn Secondary,3741954316,2020-02-18 14:27:15,,city,"Glasgow, Scotland",United Kingdom
17140,-84.55096,39.217909999999996,JayLock,374195674,2020-02-21 04:39:06,Cincinnati  Cleveland,city,"North College Hill, OH",United States
40140,-116.98992050000001,33.7293785,raaafaa,3741957854,2020-02-23 19:34:43,,city,"Hemet, CA",United States
36540,-96.1488935,41.1654695,Sam Tuttle,374195873,2020-03-10 19:14:47,"Papillion, NE",city,"Chalco, NE",United States
172,-66.0667,18.45,Monica Diaz,37419616,2020-05-14 03:22:02,Puerto Rico,city,"San Juan, USA",United States
21,-40.6415485,-4.3821080000000014,Vick ,374196168,2020-03-20 18:05:05,"Cear, Brasil",city,"Ipu, Brasil",Brasil
88,139.872415,35.912011,,37419628,2020-03-01 09:34:07,81-5-2-303,poi,,
47900,-77.37887604,38.93507520000001,Heritage Teens,374196433,2020-02-26 20:41:49,Heritage Fellowship Church,city,"Franklin Farm, VA",United States
35620,-74.06838990000001,40.34305,Dana Nicole Mauro,374196509,2020-03-07 23:53:48,"Point Pleasant, New Jersey.",city,"Red Bank, NJ",United States
85,11.9459975,46.647609,Antonello Morelli,374196824,2020-03-06 17:43:56,,city,"Mareo, Trentino-South Tyrol",Italy
205,-5.0536,50.26527,Darren Taylor-Browning,37419720,2020-03-24 17:14:37,Cornwall,city,"Truro, England",United Kingdom
85,11.1285025,44.9031485,Evangelista Luca,374197213,2020-06-01 22:19:34,,city,"Mirandola, Emilia Romagna",Italia
18580,-97.432425,27.737151,,3741973460,2020-02-25 00:10:17,Texas/Worldwide,city,"Corpus Christi, TX",United States
37860,-87.04299999999999,30.6291,Tina,374197861,2020-04-11 17:01:25,Pensacola FL,city,"Milton, FL",United States
45780,-83.6289,41.556709999999995,AMMO NYC,374197995,2020-02-18 00:12:16,"Valhalla, NY",city,"Perrysburg, OH",United States
35620,-73.98609044,40.75282556,AMMO NYC,374197995,2020-02-18 20:30:33,"Valhalla, NY",city,"Manhattan, NY",United States
14860,-73.41,41.4825,AMMO NYC,374197995,2020-03-10 01:28:14,"Valhalla, NY",city,"Brookfield, CT",United States
25540,-72.7,41.6,AMMO NYC,374197995,2020-03-11 13:36:05,"Valhalla, NY",city,"Middletown, CT",United States
35620,-74.00589108,40.71270142,AMMO NYC,374197995,2020-03-12 14:32:06,"Valhalla, NY",city,"Manhattan, NY",United States
41740,-117.1585,32.7155,AMMO NYC,374197995,2020-03-22 01:11:21,"Valhalla, NY",city,"San Diego, CA",United States
35620,-74.0889,40.6303,AMMO NYC,374197995,2020-03-26 23:39:44,"Valhalla, NY",city,"Staten Island, NY",United States
12220,-85.4817,32.6065,AMMO NYC,374197995,2020-04-09 01:21:40,"Valhalla, NY",city,"Auburn, AL",United States
35620,-74.0064,40.7142,AMMO NYC,374197995,2020-04-14 18:21:06,"Valhalla, NY",city,"Manhattan, NY",United States
14860,-73.4861,41.4664,AMMO NYC,374197995,2020-05-03 16:46:48,"Valhalla, NY",city,"New Fairfield, CT",United States
37980,-75.2689,40.1447,AMMO NYC,374197995,2020-05-05 00:25:37,"Valhalla, NY",city,"Blue Bell, PA",United States
35620,-73.98609044,40.75282556,AMMO NYC,374197995,2020-05-05 23:36:42,"Valhalla, NY",city,"Manhattan, NY",United States
35300,-73.2136,41.4814,AMMO NYC,374197995,2020-05-13 19:50:51,"Valhalla, NY",city,"Southbury, CT",United States
35620,-74.0064,40.7142,AMMO NYC,374197995,2020-05-16 14:20:10,"Valhalla, NY",city,"Manhattan, NY",United States
205,-2.7192,52.0577,AMMO NYC,374197995,2020-05-27 22:58:35,"Valhalla, NY",city,"Hereford, England",United Kingdom
35620,-73.98609044,40.75282556,AMMO NYC,374197995,2020-05-29 10:24:08,"Valhalla, NY",city,"Manhattan, NY",United States
38300,-79.9806895,40.431389,44 & 30,37419842,2020-02-14 00:22:16,"Pittsburgh, Pennsylvania",city,"Pittsburgh, PA",United States
35620,-73.9685415,40.780709,44 & 30,37419842,2020-03-07 11:26:09,"Pittsburgh, Pennsylvania",city,"Manhattan, NY",United States
33460,-93.1056485,44.9415155,44 & 30,37419842,2020-03-12 22:48:13,"Pittsburgh, Pennsylvania",city,"St Paul, MN",United States
29820,-115.13516499999999,36.060964500000004,44 & 30,37419842,2020-03-17 01:17:04,"Pittsburgh, Pennsylvania",city,"Paradise, NV",United States
42660,-122.2964885,47.442583,44 & 30,37419842,2020-03-17 06:01:05,"Pittsburgh, Pennsylvania",city,"SeaTac, WA",United States
205,-0.2735825,51.6616215,Jeorge Bird,37419851,2020-02-17 18:48:04,North London,city,"Borehamwood, East",United Kingdom
36420,-97.552161,35.4828435,EO OKC,374198646,2020-03-25 01:13:10,Oklahoma,city,"Oklahoma City, OK",United States
35620,-74.16995005,39.9861515,TurnerWinning,374198839,2020-04-16 02:12:11,Jersey,city,"Toms River, NJ",United States
45300,-82.50241568,27.97623182,TurnerWinning,374198839,2020-04-21 20:28:40,Jersey,city,"Tampa, FL",United States
35620,-74.07128379,39.9414993,TurnerWinning,374198839,2020-04-22 04:05:06,Jersey,city,"Seaside Heights, NJ",United States
200,30.987728000000004,36.860110999999996,Sualp Erkalkan,3741988815,2020-02-21 13:14:44,"Antalya, Trkiye",poi,IC Hotels International Comfort Santai,Trkiye
19820,-83.099288,42.3527865,KB,3741991221,2020-02-15 01:55:27,"Detroit, MI",city,"Detroit, MI",United States
21,-42.605343,-19.5537345, Santos Carola ,374199312,2020-02-14 00:58:46,Timteo-MG,city,"Timteo, Brasil",Brasil
8,-58.3734,-34.6086,didier bruno,37419957,2020-05-15 04:39:52,Buenos Aires,city,"Ciudad Autnoma de Buenos Aires, Argentina",Argentina
8,-58.442643,-34.604315,Vc ,374199606,2020-03-06 21:10:34,Bs.As. Argentina,city,"Ciudad Autnoma de Buenos Aires, Argentina",Argentina
152,5.590921499999999,51.431777000000004,MamaBia,3741996088,2020-02-16 18:42:51,,city,"Geldrop-Mierlo, Nederland",Nederland
57,12.594116499999998,47.372901500000005,MamaBia,3741996088,2020-02-27 22:26:46,,city,"Saalbach-Hinterglemm, sterreich",Oostenrijk
152,5.0636235,51.5850175,MamaBia,3741996088,2020-03-05 11:08:15,,city,"Tilburg, Nederland",Nederland
128,3.3050085,51.333171500000006,MamaBia,3741996088,2020-03-06 19:43:54,,city,"Knokke-Heist, Belgi",Belgi
152,5.590921499999999,51.431777000000004,MamaBia,3741996088,2020-03-09 18:42:29,,city,"Geldrop-Mierlo, Nederland",Nederland
41860,-122.43597849999999,37.7706565,Jonathan Tuck,37419973,2020-03-21 21:01:46,"Atlanta, GA",city,"San Francisco, CA",United States
205,-2.4349525,53.5841845,Carl Thorley,374199832,2020-02-14 16:29:38,Manchester,city,"Bolton, England",United Kingdom
36740,-81.7332615,28.5381695,Ivan Pato,3741999797,2020-02-18 01:53:04,"Clermont, FL",city,"Clermont, FL",United States
175,49.684975,26.928042,    +44,374200670,2020-02-14 11:07:27,"Jubail, Kingdom of Saudi Arabi",city,",   ",  
186,-5.5377,39.89051,Marisol Cerezo/,374200769,2020-02-21 09:44:34,Navalmoral de la Mata,city,"Navalmoral de la Mata, Espaa",Espaa
21,-43.43008,-22.820062,L.o,3742008029,2020-02-14 00:23:14,"Nilpolis, Brasil",city,"Nilpolis, Brasil",Brasil
82,72.8764,19.0627,Lionel ,37420083,2020-03-06 03:48:41,"Navi Mumbai, India",city,"Mumbai, India",India
24,-79.3872,43.648,ddogg vlogs,37420101,2020-04-30 11:16:19,"Ontario, Canada",city,"Toronto, Ontario",Canada
45,10.761406999999998,55.2986395,FrkenKlokken the artist formerly known as Stonie,37420103,2020-02-15 18:57:18,Rosilde ved Nyborg,city,"Nyborg, Danmark",Danmark
35620,-73.67672250000003,40.7004115,Richard Sunny,3742011142,2020-02-16 03:37:32,"New York, NY",city,"Franklin Square, NY",United States
33100,-80.2333285,25.7823535,Richard Sunny,3742011142,2020-03-06 15:42:05,"New York, NY",city,"Miami, FL",United States
35620,-73.67672250000003,40.7004115,Richard Sunny,3742011142,2020-03-09 18:16:59,"New York, NY",city,"Franklin Square, NY",United States
24,-97.1526765,49.8538055,madison,3742011432,2020-03-04 16:27:26,,city,"Winnipeg, Manitoba",Canada
88,139.690975,35.685748, ,3742012279,2020-03-17 14:02:59, ,poi,,
21,-48.64545122,-27.0379043,Jo,374201317,2020-06-07 10:21:30,,city,"Cambori, Brasil",Brasil
35620,-74.37799799999998,40.5387865,Athletic Director,3742015817,2020-02-22 16:21:01,,city,"Edison, NJ",United States
37980,-74.664383,40.163045000000004,Athletic Director,3742015817,2020-02-29 17:54:21,,city,"Groveville, NJ",United States
45940,-74.539446,40.27041850000001,Athletic Director,3742015817,2020-03-04 00:32:54,,city,"Hightstown, NJ",United States
37980,-74.664383,40.163045000000004,Athletic Director,3742015817,2020-04-10 14:45:56,,city,"Groveville, NJ",United States
41940,-122.11423,37.38308,Becky Mackintosh,37420163,2020-02-25 05:55:42,"Utah, USA",city,"Los Altos, CA",United States
46520,-157.92090124,21.63994176,Becky Mackintosh,37420163,2020-03-22 01:09:37,"Utah, USA",city,"Laie, HI",United States
39340,-111.859,40.4017,Becky Mackintosh,37420163,2020-04-05 21:36:08,"Utah, USA",city,"Lehi, UT",United States
33,-71.0158865,-29.834815000000003,susana,374201662,2020-05-06 16:11:36,"Las Condes, Chile",city,"La Serena, Chile",Chile
28140,-94.582724,39.111,Colby Walter,374201781,2020-06-07 18:57:35,,city,"Kansas City, MO",United States
222,101.520524,0.5351575,Java girl,3742019952,2020-05-17 10:15:01,"Pekan Baru, Riau",city,"Bukit Raya, Indonesia",Indonesia
205,-1.441646,53.504751,Deano,374202111,2020-05-02 19:17:52,,city,"Hoyland, England",United Kingdom
160,-77.14253249999999,-11.862884,Carlos Criollo LIBERTAD FINANCIERA,374202119,2020-05-08 13:21:58,"Lima, Peru",city,"Ventanilla, Peru",Peru
25820,-102.392996,34.823149,Brianna Jade,3742023673,2020-04-16 02:04:00,,city,"Hereford, TX",United States
161,74.3584865,31.5318195,Ebrahim Yusuf,374202869,2020-04-19 23:50:27,,city,"Lahore, Pakistan",Pakistan
128,4.35070195,50.84880055,Tomas Rousseaux,374203033,2020-04-03 12:10:44,"Belgium, Roeselare",city,"Brussel, Belgi",Belgi
205,-0.7640635,52.03356700000001,Jody,374203192,2020-03-16 16:38:17,London ,city,"Milton Keynes, England",United Kingdom
184,103.750197,1.390625,Capt Raj Varada,37420398,2020-05-01 05:31:05,"1.389811,103.75187",poi,Villa Verde,Singapore
82,74.91993550000002,29.572959499999996,Sanjeev Insan,374204290,2020-04-16 09:46:12,"Belgrade, Republic of Serbia",city,"sirsa, India",India
41980,-66.11294050000001,18.373829,Luz M Acevedo-Vargas,37420461,2020-04-25 14:12:03,,city,"Frailes, USA",United States
11640,-66.868161,18.4787585,Luz M Acevedo-Vargas,37420461,2020-05-26 14:00:44,,city,"Membrillo, USA",United States
41980,-66.11294050000001,18.373829,Luz M Acevedo-Vargas,37420461,2020-05-26 21:33:15,,city,"Frailes, USA",United States
172,-66.0116515,18.4408955,Luz M Acevedo-Vargas,37420461,2020-06-04 11:26:43,,city,"Isla Verde, USA",United States
41980,-65.9461665,18.362115,Luz M Acevedo-Vargas,37420461,2020-06-04 14:57:54,,city,"Trujillo Bajo, Puerto Rico",United States
172,-66.0116515,18.4408955,Luz M Acevedo-Vargas,37420461,2020-06-08 16:31:27,,city,"Isla Verde, USA",United States
41980,-66.11294050000001,18.373829,Luz M Acevedo-Vargas,37420461,2020-06-09 18:08:57,,city,"Frailes, USA",United States
47900,-76.9924405,38.752715,Rock Robinson,374204669,2020-02-14 18:10:05,Fort Washington Md.,city,"Fort Washington, MD",United States
205,0.1645095,50.923497999999995,James Haddow,37420498,2020-03-01 07:47:47,"Brighton, Southampton & London",city,"East Hoathly, England",United Kingdom
9,149.10528599999995,-21.107255,Dr Pauline Lenancker  ,3742050434,2020-03-12 00:54:32,"Mackay, Queensland",city,"Farleigh, Queensland",Australia
24,-122.818486,49.111519,Marla Poirier,37420527,2020-06-04 07:16:55,"Vancouver, BC",city,"Surrey, British Columbia",Canada
200,32.8237367,39.9270436,kbra yaar,374205337,2020-04-26 19:35:55,,city,"Ankara, Trkiye",Trkiye
31080,-118.32514499999999,34.18216,Ashley Boyd,374205458,2020-02-19 19:19:05,LA,city,"Burbank, CA",United States
40140,-116.2781615,33.668045500000005,Ashley Boyd,374205458,2020-05-10 07:41:40,LA,city,"La Quinta, CA",United States
31080,-118.32514499999999,34.18216,Ashley Boyd,374205458,2020-05-21 00:20:38,LA,city,"Burbank, CA",United States
16980,-87.732013,41.8335845,ismael,374205534,2020-06-07 16:36:49,chicago ,city,"Chicago, IL",United States
151,8.9,9.83333,iamMCM,3742055835,2020-02-15 07:28:38,"Jos,nigeria, west africa",city,"Rayfield, Nigeria",Nigeria
16980,-87.732013,41.8335845,Patrick Cullen,374205784,2020-03-23 21:45:39,"Chicago, IL",city,"Chicago, IL",United States
160,-77.0332315,-12.0868105,fabricio sierra,374205895,2020-02-14 17:53:11,Lima Peru,city,"Lince, Peru",Peru
14460,-71.046031,42.345698999999996,Mikey D.  Pax East 2020,374206590,2020-03-02 11:57:27,NJ,poi,Boston Convention & Exhibition Center (BCEC),United States
175,39.103489,21.645006,A M,3742071193,2020-02-23 07:53:13,Jeddah,poi,Medd Caf & Roastery |    ,Kingdom of Saudi Arabia
71,10.7727555,47.579596,Lyv Preuilh,374207154,2020-04-19 13:33:45,"Berlin, Allemagne",city,"Schwangau, Allemagne",Allemagne
65,-0.5919355,44.806101,Lyv Preuilh,374207154,2020-04-23 16:21:45,"Berlin, Allemagne",city,"Talence, France",France
35620,-73.8494415,40.8503475,vicki auerbach,374207176,2020-03-14 00:56:52,,city,"Bronx, NY",United States
205,-2.29918,53.471839,Lucy Brown,374207468,2020-03-03 12:39:18,"London, England",poi,BBC Quay House,United Kingdom
189,12.7833925,56.7432125,Hanna Q. Rasoulzadeh,374207475,2020-02-25 22:46:51,"Halmstad, Sverige",city,"Halmstad, Sverige",Sweden
12420,-97.754724,30.3233455,Brian,374207536,2020-03-09 21:15:38,"Austin, TX",city,"Austin, TX",United States
205,-0.14893599999999999,51.500091999999995,Lisa Ogleby,374207610,2020-02-29 12:51:50,"Walsall, England",city,"London, England",United Kingdom
33460,-93.2620465,44.9706105,Nora Van Aartsen,374207613,2020-02-28 22:23:53,"Minneapolis, MN",city,"Minneapolis, MN",United States
47900,-77.0143985,38.898603,Erin Lauer,37420768,2020-02-20 03:35:15,"District of Columbia, USA",city,"Washington, DC",United States
14500,-105.072231,39.9472495,Erin Lauer,37420768,2020-03-15 03:25:05,"District of Columbia, USA",city,"Broomfield, CO",United States
47900,-77.0143985,38.898603,Erin Lauer,37420768,2020-03-20 12:39:25,"District of Columbia, USA",city,"Washington, DC",United States
80,19.129828,47.4812305,jason elliot,37420773,2020-04-16 16:56:23,"Budapest, Hungary",city,"Budapest, Hungary",Hungary
58,14.465875500000001,50.05958,Reba,374207737,2020-02-14 18:55:11,"Prague, Czech Republic",city,"Prague, Czech Republic",Czech Republic
88,139.74908946,35.64516951,,3742079719,2020-03-01 06:10:22,,city, ,
205,-0.62463,51.478809999999996,Bo,374208251,2020-02-15 13:24:12,"England, United Kingdom",city,"Windsor, South East",United Kingdom
91,39.6667,-4.05,FWAMBA NC FWAMBA,37420830,2020-02-18 11:58:52,Nairobi,city,"Mombasa, Kenya",Kenya
38300,-80.28314549999997,40.74930000000001,jennifer,37420844,2020-03-12 14:11:54,,city,"New Brighton, PA",United States
14460,-71.0887125,42.3136695,Icarus0w0,3742086928,2020-02-19 03:43:22,"Amherst, MA",city,"Boston, MA",United States
38,-73.1428195,6.541764499999998,Luchin65,3742088607,2020-02-14 19:34:19,"Bogot, D.C., Colombia",city,"San Gil, Colombia",Colombia
49180,-80.661644,36.1295755,marley ann,3742091493,2020-03-22 18:08:23,YC,city,"Yadkinville, NC",United States
205,-0.2108945,51.611884499999995,Ozzi's Burrito Shack,3742094727,2020-03-01 22:50:32,"Barnet, London",city,"Barnet, London",United Kingdom
24,-79.27256949999999,43.629311,Oksana,374209538,2020-05-30 22:48:35,,city,"Toronto, Ontario",Canada
175,42.464622999999996,18.234046,ibrahim,374209648,2020-06-09 04:34:39,,poi,  - ,Kingdom of Saudi Arabia
12540,-119.025163,35.3469015,lex,3742097652,2020-03-01 05:02:00,,city,"Bakersfield, CA",United States
51,-6.1743985000000015,53.257282999999994,Risn White,374209783,2020-03-19 16:06:57,"Dublin, Ireland.",city,"Dun Laoghaire-Rathdown, Ireland",Ireland
31080,-118.1130755,33.8446495,Mads,374209822,2020-02-15 18:39:59,"California, USA",city,"Lakewood, CA",United States
205,-0.115406,51.4603395,kristina thiele,374209978,2020-02-14 14:29:18,London- UK,city,"Lambeth, London",United Kingdom
37980,-75.4576725,40.071383000000004,Jay Warner,3742100188,2020-02-22 05:31:15,"Chesterbrook, PA",city,"Chesterbrook, PA",United States
186,-8.8556899,42.12028,B.  // ,37421021,2020-02-24 20:45:28,"Sants, Barcelona",city,"Baiona, Spain",Spain
21,-43.1833,-22.95,01 DO NLIO ,374210316,2020-03-29 18:27:29,Segue voc ,city,"Rio de Janeiro, Brasil",Brasil
40900,-121.469664,38.561721999999996,Tanya Anthony Curry,374210478,2020-03-20 12:30:41,"Sacramento, CA",city,"Sacramento, CA",United States
21,-43.441578,-22.911421500000003,Yan ,374210595,2020-02-20 21:41:31,"Jacarepagu, Rio de Janeiro",city,"Rio de Janeiro, Brasil",Brasil
85,12.453132,41.903587,RoccoilRicco,374210790,2020-03-09 18:38:20,Roma,poi,Citt del Vaticano | Vatican City,Citt del Vaticano
24,-83.00208549999998,42.295065,mads,374210827,2020-03-21 13:38:02,South Detroit ,city,"Windsor, Ontario",Canada
205,-0.1091815,51.5469265,Simon Fielding,37421096,2020-04-16 09:09:52,,city,"Islington, London",United Kingdom
14460,-71.10704784,42.33598676,Sophie Chung,374211038,2020-04-22 14:40:25,"Boston, MA",city,"Boston, MA",United States
119,-95.8132295,18.8352255,Danyboy,374211279,2020-05-07 01:23:32,Veracruz de Ignacio de la Llav,city,"Alvarado, Veracruz de Ignacio de la Llave",Mxico
175,46.685077,24.7219435,OMAR,374211384,2020-05-23 09:08:33,Riyadh ,city,",   ",  
186,0.8304014999999999,41.6253645,Sagetta,374211847,2020-05-04 09:00:00,,city,"Sidamon, Espaa",Spain
51,-6.1743985000000015,53.257282999999994,Daniel Jordan,374211869,2020-03-08 18:26:29,Dublin,city,"Dun Laoghaire-Rathdown, Ireland",Ireland
40380,-77.489723,43.0995265,Patrick Kettle,374211886,2020-06-10 16:57:46,"East Rochester, NY",city,"East Rochester, NY",United States
14460,-70.79115662,43.09551559,Gym Momentum,374212160,2020-02-27 20:19:04,Earth,city,"Newington, NH",United States
151,7.424094,9.073663999999999,Dave Graphics___P.K.,374212323,2020-05-19 09:22:13,"F.C.T. Abuja,Nigeria",city,"Abuja, Nigeria",Nigeria
205,-0.0784765,53.556467000000005,James Purling,374212351,2020-02-14 10:43:05,"Hull, East Yorkshire",city,"Grimsby, England",United Kingdom
205,-3.8153015,53.293526,Conwy Cricket Club,374212443,2020-02-15 12:36:47,"Conwy, Wales",city,"Deganwy, Wales",United Kingdom
21,-46.5955455,-23.682803,Kris BiancoSP,3742126156,2020-02-14 02:39:42,"So Paulo, Brasil",city,"So Paulo, Brasil",Brasil
119,-105.1485805,20.6970525,ChicCcodio`,374212887,2020-02-14 00:49:49,Everywhere! ,city,"Puerto Vallarta, Jalisco",Mxico
19380,-84.24186350000001,40.1478565,Ryan Counts,374213116,2020-03-12 17:26:20,"Sidney, OH",city,"Piqua, OH",United States
43380,-84.130287,40.34471,Ryan Counts,374213116,2020-03-19 16:47:36,"Sidney, OH",poi,Shelby Oaks Golf Course,United States
16980,-87.8211335,41.811298,Sean Zloch,37421328,2020-02-17 20:46:42,"Chicago, IL",city,"Lyons, IL",United States
151,5.4847280000000005,10.406884000000002,,3742132877,2020-03-25 10:56:26,"Jalingo, Nigeria",city,"Kontagora, Nigeria",Nigeria
186,2.1075,41.54833333,Oriol Trujillo ,374213864,2020-05-02 18:04:33,Sabadell,city,"Sabadell, Spain",Spain
186,2.04393625,41.47276788,Mariana Taborda,37421465,2020-03-04 08:42:26,"Sant Cugat del Valls, Espaa",city,"Sant Cugat del Valls, Espaa",Espaa
175,46.63398,24.736675, ,374215135,2020-02-19 04:45:23,"Riyadh, Kingdom of Saudi Arabia",poi,CITC |    ,Kingdom of Saudi Arabia
21,-46.33939,-23.950770000000002,Breno Passos,374215354,2020-02-16 20:10:43,Nilpolis-RJ,city,"Santos, Brasil",Brasil
35620,-73.1534595,40.881978,H e i d i,374215398,2020-03-24 18:15:54,"New York, NY",city,"St James, NY",United States
12700,-70.603749,41.554941,Tara Marden,37421559,2020-03-24 23:29:05,,poi,Arnie Allen Diamond at Guv Fuller Field,United States
21,-46.5955455,-23.682803,Rita de Cassia Burgo,3742156403,2020-04-03 01:39:10,,city,"So Paulo, Brasil",Brasil
175,50.20694949999999,26.124798000000002, ,374215764,2020-06-06 18:17:45,Kingdom of Saudi Arabia,city,"Aziziah, Kingdom of Saudi Arabia",Kingdom of Saudi Arabia
205,1.2730815,52.641482999999994,Amy,3742161135,2020-05-29 11:00:02,"Norwich, England",city,"Norwich, England",United Kingdom
35620,-74.0112745,40.2175144,Troy Teeboom,374216321,2020-06-05 16:28:50,"Asbury Park, NJ",city,"Asbury Park, NJ",United States
38060,-112.1246765,33.5528625,"Witson Law, P.C.",374216705,2020-04-08 13:48:19,"Phoenix, Arizona",city,"Phoenix, AZ",United States
21,-49.8268225,-29.195125,Emily,374216826,2020-02-14 09:19:05,,city,"So Joo do Sul, Brasil",Brasil
51,-6.239966000000001,53.687653000000005,Planedrvr,3742168401,2020-05-09 09:30:41,,poi,Laytown Beach,Ireland
200,29.0052225,41.0213205,Erdal Kaya,374216909,2020-03-23 20:48:02,EypSultan,city,"stanbul, Trkiye",Trkiye
8,-58.26975,-34.72497,ClubTucumanAuditorio,374216924,2020-02-17 16:37:59,Andres Baranda 941- Quilmes,city,"Quilmes, Argentina",Argentina
85,11.890837,45.398722,Francesca Rovati,374216955,2020-02-25 22:47:15,,city,"Padova, Veneto",Italia
175,46.685077,24.7219435,S A A D ,374217071,2020-02-18 13:29:43,,city,"Riyadh, Kingdom of Saudi Arabia",Kingdom of Saudi Arabia
21,-47.2901425,-22.724059,matheus,374217251,2020-02-14 22:10:37,"Americana, Brasil",city,"Americana, Brasil",Brasil
38,-73.359554,10.090876,Juan David Murgas Hugueth,374217288,2020-04-26 22:31:47,San Diego Cesar Colombia,city,"San Diego, Colombia",Colombia
14460,-70.936509,42.75452,MichelleReneeFisher,374217699,2020-02-17 10:30:35,"Boston, MA",city,"Byfield, MA",United States
35620,-73.9685415,40.780709,Michelle Fisher,374217699,2020-03-13 17:42:05,New York City,city,"Manhattan, NY",United States
47260,-76.069946,36.8025415,Michelle Fisher,374217699,2020-05-25 04:37:55,New York City,city,"Virginia Beach, VA",United States
35620,-73.9685415,40.780709,Michelle Fisher,374217699,2020-05-26 00:27:01,New York City,city,"Manhattan, NY",United States
49,-79.88367059,-2.14522289,ZC Mayoristas,374217830,2020-02-20 16:10:16,Guayaquil - Ecuador,city,"Guayaquil, Ecuador",Ecuador
205,-0.191723,50.839575,Jamie Barnes,374218214,2020-03-21 08:33:01,"Hampshire, UK",city,"Hove, England",United Kingdom
40900,-121.34623688,38.55874987,Eric Duncan Sr.,374218259,2020-02-26 06:47:03,,city,"Rosemont, CA",United States
44700,-121.31476532,37.9075326,Eric Duncan Sr.,374218259,2020-03-06 17:01:34,,city,"Stockton, CA",United States
46700,-122.20202966,38.08669085,Eric Duncan Sr.,374218259,2020-03-11 06:50:30,,city,"Vallejo, CA",United States
44700,-121.24641799999999,38.132203000000004,Eric Duncan Sr.,374218259,2020-05-11 03:36:11,,city,"Lodi, CA",United States
38,-72.44500958,6.40814897,Andres Tolos,374218443,2020-03-19 17:10:29,"Bogota, Colombia ",city,"El Cocuy, Colombia",Colombia
37980,-75.264843,39.8692185,Christopher Thomas,374218452,2020-03-19 22:44:45,,city,"Lester, PA",United States
12580,-76.6079345,39.2200845,Christopher Thomas,374218452,2020-03-21 04:26:02,,city,"Brooklyn Park, MD",United States
37980,-75.264843,39.8692185,Christopher Thomas,374218452,2020-03-31 12:36:58,,city,"Lester, PA",United States
26780,-94.37759,44.883311000000006,Trevor Evans,37421849,2020-02-15 14:16:23,"Hutchinson, MN",city,"Hutchinson, MN",United States
24,-79.5657915,43.8371045,Nicholas Bonifacio,374218523,2020-03-31 16:13:24,,city,"Vaughan, Ontario",Canada
119,-92.230893,14.628910000000001,Mauricio Mota,3742185314,2020-02-21 03:23:10,"Tuxtla Chico, Chiapas",city,"Suchiate, Chiapas",Mexico
42660,-122.3306025,47.614816999999995,Bonnie Bizzell (she/her),3742187113,2020-05-10 23:53:27,,city,"Seattle, WA",United States
33,-72.18855649999999,-41.751064500000005,MaravillasEnChile,3742189403,2020-02-18 16:38:59,,city,"Cocham, Chile",Chile
-9999,-79.8014215,-33.710382,MaravillasEnChile,3742189403,2020-04-03 18:46:45,,city,"Juan Fernndez, Chile",Chile
33,-72.8739415,-51.0825845,MaravillasEnChile,3742189403,2020-04-05 22:08:19,,city,"Torres del Paine, Chile",Chile
175,45.621018,25.6079075,,374219413,2020-04-23 15:50:28, - ,city," ,   ",  
31180,-101.897173,33.5705265,Mohamed,374219753,2020-03-05 19:01:10,"Lubbock, TX | Dammam, SA",city,"Lubbock, TX",United States
151,3.39583,6.45306,Samuel Amanze Nzeh,374219982,2020-03-15 12:21:34,lasgidi,city,"Lagos, Nigeria",Nigeria
33,-70.60265749999998,-33.454414,Camila,374220000,2020-02-28 03:10:22,"Goinia, GO",city,"uoa, Chile",Chile
21,-46.4539065,-23.39208,Camila,374220000,2020-03-05 17:51:26,"Goinia, GO",city,"Guarulhos, Brasil",Brasil
33,-70.51873,-33.60025,Camila,374220000,2020-03-10 19:49:23,"Goinia, GO",city,"Puente Alto, Chile",Chile
38,-74.08621252,4.61116025,SOLUCIONES COFODEX,374220078,2020-02-17 15:20:25,"Bogot, D.C., Colombia",city,"Bogot, D.C., Colombia",Colombia
42200,-120.4636465,34.7039105,toriiii,3742203792,2020-02-14 06:04:05,"California, USA",city,"Vandenberg Village, CA",United States
34980,-86.791549,36.200008000000004,Jonathan Lee,3742203861,2020-04-20 06:05:03,,city,"Nashville, TN",United States
82,80.2751,13.0812,shykhmtw,3742205353,2020-04-12 16:23:04,India,city,"Fort Tondiarpet, India",India
21,-43.441578,-22.911421500000003,M.C.Araujo Lima,374220660,2020-05-24 16:06:38,,city,"Rio de Janeiro, Brazil",Brazil
33100,-80.26509399,26.26632257,DavidGaryLloyd,374220694,2020-02-23 17:43:48,Miami,city,"Coral Springs, FL",United States
36740,-81.36542586,28.57299663,DavidGaryLloyd,374220694,2020-03-06 14:38:08,Miami,city,"Orlando, FL",United States
33100,-80.26295,25.74924,DavidGaryLloyd,374220694,2020-03-15 16:06:21,Miami,city,"Coral Gables, FL",United States
35620,-73.9685415,40.780709,Zoe Stuckless,3742209373,2020-03-26 11:33:03,"Portland, OR",city,"Manhattan, NY",United States
38900,-122.630908,45.536402,Zoe Stuckless,3742209373,2020-04-24 04:45:20,"Portland, OR",city,"Portland, OR",United States
88,139.7091805,35.701657,,374221029,2020-03-27 03:02:50,,city, ,
151,3.3386055,6.4931125000000005,Udoka C.,37422110,2020-02-14 12:38:04,Nigeria,city,"Lagos, Nigeria",Nigeria
175,39.2541285,21.5857105,a9ool.m.b,374221115,2020-02-15 19:56:53,",   ",city,"Jeddah, Kingdom of Saudi Arabia",Kingdom of Saudi Arabia
18140,-82.8541995,40.021793,OSU Womens Legal Society,3742216336,2020-03-03 02:21:20,"Columbus, OH",city,"Gahanna, OH",United States
41740,-117.10498899999999,32.810012,adrianne,3742218674,2020-03-30 04:56:34,,city,"San Diego, CA",United States
119,-103.335882,20.676652,sad bunny,3742219475,2020-02-14 03:42:27,"Jalisco, Mxico",city,"Guadalajara, Jalisco",Mxico
60,22.84027778,62.79027778,Seinjoen Valaat,3742220783,2020-02-23 19:25:57,"Seinjoki, Suomi",city,"Seinjoki, Suomi",Suomi
186,-3.7035075,40.4777945,Chris EA4UC,374222314,2020-05-30 21:04:17,"Madrid, Spain",city,"Madrid, Espaa",Espaa
36740,-81.47159,28.671840000000003,Zachary Chapman,3742227195,2020-02-21 00:32:58,"Orlando, FL",city,"South Apopka, FL",United States
186,-1.9019445,38.929325,Ana Fernndez,374223022,2020-02-25 17:59:26,"Albacete, Espaa",city,"Albacete, Espaa",Espaa
44140,-72.7567035,42.13094200000001,angel,374223490,2020-02-16 16:59:31,"Massachusetts, USA",city,"Westfield, MA",United States
14460,-71.0899345,42.672666,angel,374223490,2020-02-21 15:50:17,"Massachusetts, USA",city,"North Andover, MA",United States
44140,-72.642499,42.1237835,angel,374223490,2020-02-23 00:35:26,"Massachusetts, USA",city,"West Springfield, MA",United States
9,150.931975,-33.848244,Peter Skinner,37422355,2020-02-27 05:47:56,"Sydney, New South Wales",city,"Sydney, New South Wales",Australia
51,-6.579388000000001,52.4597335,darren smith,374223819,2020-02-22 19:12:09,"Wexford, Ireland",city,"Wexford, Ireland",Ireland
47900,-77.093641,38.984159999999996,Coakley & Williams,374223908,2020-02-28 19:28:24,"Bethesda, MD",city,"Bethesda, MD",United States
200,29.0052225,41.0213205,tit(r),3742239147,2020-03-29 13:52:13,"Fatih, stanbul",city,"stanbul, Trkiye",Turkey
65,7.26470947,43.6956797,Juliane Poeta,374224178,2020-02-14 13:56:03,Charqueadas/RS,city,"Nice, France",Frana
85,7.6777,45.0702,Juliane Poeta,374224178,2020-03-09 00:24:24,Charqueadas/RS,city,"Turim, Piemonte",Itlia
205,-0.12731805,51.50711486,Juliane Poeta,374224178,2020-04-05 20:10:41,Charqueadas/RS,city,"London, England",Reino Unido
10580,-73.8812975,42.683504,Hal Sossner,37422442,2020-03-03 11:21:03,"42.611238,-73.817491",city,"Westmere, NY",United States
205,-3.1798,51.4970015,luckycatphotography,374224429,2020-05-22 20:30:35,Cardiff,city,"Cardiff, Wales",United Kingdom
200,29.399435999999998,38.668339,Melike,374224464,2020-06-11 11:23:54,"Uak, Trkiye",poi,Atapark,Trkiye
38,-75.6123815,4.811547,Lore Jimenez,374224516,2020-03-07 21:49:14,Pereira,city,"Santa Rosa de Cabal, Colombia",Colombia
35620,-73.086248,40.7455045,Rania Perales,3742245979,2020-03-15 19:34:05,"Dallas, TX",city,"Sayville, NY",United States
19100,-96.7617535,32.819858499999995,Rania Perales,3742245979,2020-04-07 19:09:43,"Dallas, TX",city,"Dallas, TX",United States
40140,-117.11037250000001,33.595946000000005,Wheeler's Pest,374224688,2020-04-07 20:44:53,"Winchester, CA",city,"French Valley, CA",United States
175,46.709877,24.813792000000003, 96Fawaz,374225159,2020-02-17 11:42:50,,poi,  ,Kingdom of Saudi Arabia
73,21.799742499999997,38.207278499999994,Hatha Yoga & Pilates Studio,374225174,2020-03-28 00:44:02,Patra,city,"Patra, Greece",Hellas
51,-9.0333065,51.903863,Skrrt Skrrt,3742253542,2020-03-29 21:18:39,"Cork, Ireland",city,"Cork, Ireland",Ireland
175,39.58351087,24.48852075, ,374225503,2020-02-17 18:26:29, .. ,city," ,   ",  
12260,-82.095304,33.526322,Bad Berto,374225569,2020-05-11 02:01:07,,city,"Martinez, GA",United States
205,-3.09992981,51.60666656,Kelly john,3742256242,2020-02-24 14:13:41,"Risca, Wales",city,"Risca, Wales",United Kingdom
9,150.931975,-33.848244,Ezyy ,3742257499,2020-04-22 13:06:59,"Sydney, New South Wales",city,"Sydney, New South Wales",Australia
205,-0.25539,50.8485305,Fiona Walker,374225855,2020-02-29 18:22:07,"Shoreham-by-Sea, England",city,"Shoreham-by-Sea, England",United Kingdom
205,-2.3730085,53.13995,Mark Booth,374225866,2020-04-26 13:00:50,Sandbach,city,"Sandbach, England",United Kingdom
205,-1.6453615000000001,54.992055500000006,Charles Holland,3742259417,2020-04-12 06:41:39,Newcastle NE2.,city,"Newcastle Upon Tyne, England",United Kingdom
211,-66.819634,10.467922999999999,Johan Nava,374226113,2020-03-12 14:09:45,Caracas,poi,Centro Comercial Macaracuay Plaza,Venezuela
151,5.2292464999999995,13.032478,CN!,374226155,2020-05-19 20:45:07,"Gusau, Nigeria",city,"Sokoto, Nigeria",Nigeria
21,-51.1826578,0.8558174999999999,Dotinha,374226164,2020-03-25 22:10:41,Macap - Ap / Brasil ,city,"Ferreira Gomes, Brasil",Brasil
205,-2.4349525,53.5841845,KE SUPPLIES LIMITED,3742261817,2020-02-14 12:14:14,"Bolton, England",city,"Bolton, England",United Kingdom
45,10.169119,56.16304350000001,Anita Lykke,374226228,2020-04-04 08:03:38,"Aarhus, Denmark",city,"Arhus, Denmark",Denmark
19100,-97.1356375,32.70185,Jared Tyra,374226267,2020-02-18 20:48:02,Teksus,city,"Arlington, TX",United States
36420,-97.552161,35.4828435,Jared Tyra,374226267,2020-03-09 19:12:22,Teksus,city,"Oklahoma City, OK",United States
19100,-97.116784,32.5735485,Jared Tyra,374226267,2020-04-08 03:25:49,Teksus,city,"Mansfield, TX",United States
12420,-97.9351915,29.8956065,DeplorableDregPoppinator,374226275,2020-02-16 17:18:46,"Texas, USA",city,"San Marcos, TX",United States
171,121.0627355,14.683012,Jen Ramos,37422630,2020-05-21 09:01:43,Quezon City,city,"Quezon City, National Capital Region",Republic of the Philippines
119,-99.153366,19.432835999999998,The Rt. Hon. Gentleman Francisco Antilln,37422655,2020-04-07 20:19:48,"Mxico, DF (y Chihuahua)",city,"Cuauhtmoc, Distrito Federal",Mxico
42220,-122.699418,38.343445,Karsten Reuter,374226659,2020-02-15 03:47:14,"Cincinnati,Ohio",city,"Rohnert Park, CA",United States
17140,-84.53981250000002,39.137038,Karsten Reuter,374226659,2020-02-19 05:47:40,"Cincinnati,Ohio",city,"Cincinnati, OH",United States
200,32.8183815,39.8889765,Av. Zeyid ASLAN,3742268177,2020-04-25 18:55:23,"Ankara, Trkiye",city,"Ankara, Trkiye",Trkiye
21,-47.796623,-15.776254000000002,"Arkhrer ""Jonas"" Pendragon",374227176,2020-05-13 06:19:11,"Brasil, Braslia - DF",city,"Braslia, Brasil",Brasil
29820,-115.149,36.1675,Damon Butler,374227719,2020-03-09 23:18:34,,city,"Las Vegas, NV",United States
88,139.5210305,35.557981,,374227725,2020-04-12 16:05:44,,city,  ,
24,-75.80014150000001,45.248791,Samuel McPhail,374227802,2020-03-16 23:50:19,"Ottawa, Ontario",city,"Ottawa, Ontario",Canada
45220,-84.282149,30.438596,Nicole Young,374227877,2020-02-20 16:47:27,"Jacksonville, FL",poi,Florida State Capitol,United States
27260,-81.689656,29.9878005,Nicole Young,374227877,2020-03-18 14:55:50,"Jacksonville, FL",city,"Green Cove Springs, FL",United States
38,-74.26612800000001,4.7540565,Anderson Buitrago,3742279222,2020-06-07 18:08:31,,city,"Madrid, Colombia",Colombia
21,-49.097229999999996,-26.91978,Tio Grahl,374227970,2020-03-05 23:48:44,"Blumenau, Brasil",city,"Blumenau, Brasil",Brasil
41860,-122.0770345,37.953816499999995,Kevin Calder,37422837,2020-04-20 17:51:45,Walnut Creek,city,"Pleasant Hill, CA",United States
205,-2.236568,53.086420499999996,Lesley Goodburn,37422838,2020-04-28 07:34:07,Staffordshire,city,"Kidsgrove, England",United Kingdom
88,131.65598500000002,33.195507,,374228417,2020-02-29 10:10:06, ,poi,T,
82,77.5584485,12.9231145,gopal reddy,3742284612,2020-05-26 06:04:50,"Bengaluru, India",city,"Bengaluru South, India",India
200,29.177858,40.97729,Derya,374228498,2020-04-09 00:06:12,"Kadky, stanbul",poi,Kadky Moda,Trkiye
82,83.180776,26.06486,Brijesh Kumar Maurya,3742285453,2020-04-13 23:18:41,"New Delhi, India",poi,Azamgarh,India
88,139.71509400000002,35.7291085,YAMAGUCHI Taihei,374228660,2020-02-15 05:28:44,,city, ,
171,124.647,8.48222,Jay Valmonte,374228683,2020-04-07 23:27:19,Philippines,city,"Cagayan De Oro City, Northern Mindanao",Republic of the Philippines
33100,-80.13381050000002,25.8876495,Dalia Rodriguez,3742289787,2020-03-16 16:19:46,"Bay Harbor Islands, FL",city,"Bay Harbor Islands, FL",United States
31080,-117.709673,34.099133,Chris Cullen,37422918,2020-03-06 17:25:45,"Denton, TX",poi,Haldeman Pool,United States
19100,-97.066849,33.13993,Chris Cullen,37422918,2020-03-19 14:31:53,"Denton, TX",city,"Corinth, TX",United States
41940,-121.88893799999998,37.329589,Robin Doran Robinson,3742292773,2020-02-14 02:21:46,Bay Area,poi,San Jose McEnery Convention Center,United States
205,-2.8948825,53.1973495,Steph,37422957,2020-02-14 08:26:31,"Chester, England",city,"Chester, England",United Kingdom
33100,-80.1936,25.7751,Massimo Bergamaschi,374229750,2020-05-03 17:06:52,"Miami, FL",city,"Miami, FL",United States
186,-3.68333,40.4,Sandra A.,374229762,2020-05-15 16:21:31,Madrid,city,"Madrid, Espaa",Espaa
42540,-75.66877,41.4194095,Scott Tokash,37422978,2020-03-18 01:03:21,"Scranton, PA",city,"Scranton, PA",United States
162,18.635338100000002,54.3866708,Joanna Staniszewska,374230184,2020-02-15 14:23:58,"Poland, Gdansk",city,"Gdask, Polska",Polska
88,130.555749,31.522809000000002,,3742305552,2020-05-16 22:30:13, ,city,"Kagoshima-shi, Kagoshima",Japan
38,-74.071712,4.669719000000001,David Agudelo,374230608,2020-02-19 12:50:42,CHIA,poi,TransMilenio: NQS - Calle 75,Colombia
21,-43.441578,-22.911421500000003,Felipe,37423103,2020-02-14 13:30:52,,city,"Rio de Janeiro, Brasil",Brasil
119,-86.74851277,21.25835193,Davis,374231110,2020-03-13 22:20:46,336 / 414,city,"Isla Mujeres, Quintana Roo",Mexico
41740,-117.17299999999999,32.6782,Davis,374231110,2020-03-27 22:01:33,336 / 414,city,"Coronado, CA",United States
151,7.424094,9.073663999999999,I Am ZiggZ,374231324,2020-02-24 09:21:27,Nottingham\ Abuja\ Lagos,city,"Abuja, Nigeria",Nigeria
119,-107.3420565,24.662488500000002,Revista Strikeout,3742315396,2020-02-15 15:15:56,"Culiacn, Sinaloa.",city,"Culiacn, Sinaloa",Mxico
21,-35.547976,-8.217101,hlio vilar,374231564,2020-02-19 23:20:21,"Gravat- Pernambuco, Brasil",city,"Gravat, Brasil",Brasil
44700,-121.3004255,37.980826,Jen :),3742318034,2020-02-15 01:27:05,"California, USA",city,"Stockton, CA",United States
12540,-119.1679225,35.379814,Jen :),3742318034,2020-02-22 05:14:46,"California, USA",city,"Rosedale, CA",United States
44700,-121.3004255,37.980826,Jen :),3742318034,2020-02-24 06:50:25,"California, USA",city,"Stockton, CA",United States
41860,-122.2286855,37.791994,Jen :),3742318034,2020-03-02 01:28:31,"California, USA",city,"Oakland, CA",United States
44700,-121.3004255,37.980826,Jen :),3742318034,2020-03-05 02:20:14,"California, USA",city,"Stockton, CA",United States
19740,-104.9220935,39.713563,Jen :),3742318034,2020-05-31 07:27:35,"California, USA",city,"Denver, CO",United States
186,2.2,41.4333,Marc Grau,374231856,2020-05-26 11:58:58,"Barcelona, Catalua",city,"Barcelona, Espaa",Espaa
186,2.2264425,41.9205965,,3742320159,2020-02-15 08:37:53,|Somewhere in my Levis,city,"Vic, Espaa",Espaa
191,6.16225,46.2639165,Sanna Harty,37423213,2020-05-15 21:35:04,"Geneva, Switzerland",city,"Genthod, Suisse",Switzerland
85,11.2286395,42.5040865,sandor daniel mircea,374232508,2020-02-21 16:58:20,Italy,city,"Orbetello, Toscana",Italia
21,-43.441578,-22.911421500000003,Erick Feliz,37423294,2020-02-15 11:18:09,Rio de Janeiro,city,"Rio de Janeiro, Brasil",Brasil
36420,-97.630809,35.589016,Renita white,374233119,2020-06-04 13:10:44,"Edmond, OK",poi,James L. Dennis Elementary,United States
38060,-112.42497549999999,33.4128725,Thom Luedemann,37423318,2020-04-22 16:45:41,"Phoenix, AZ",city,"Goodyear, AZ",United States
8,-60.6664,-32.9511,Leandro lvarez,374233343,2020-03-15 00:25:10,"Rosario, Santa Fe, Argentina",city,"Rosario, Argentina",Argentina
35300,-73.022108,41.5665785,Felix Manuel Rodriguez,37423362,2020-02-22 01:00:50,Connecticut,city,"Waterbury, CT",United States
119,-99.1332,19.4326,Nico Chiara,374233852,2020-05-29 00:08:06,"Ro Cuarto, Argentina",city,"Cuauhtmoc, Distrito Federal",Mxico
21,-46.55338706,-23.54510605,Pelos & Cabelos,374234512,2020-03-08 14:21:32,Tatuap - So Paulo,city,"So Paulo, Brasil",Brasil
35620,-74.032258,40.746379499999996,Kevin,374234629,2020-02-29 06:00:39,"Hoboken, NJ",city,"Hoboken, NJ",United States
21,-42.680388,-19.440516,Lei de Murphy,374234735,2020-02-18 23:42:46,,city,"Coronel Fabriciano, Brasil",Brasil
37980,-75.117998,40.0048655,jefe,374235111,2020-04-07 11:41:09,,city,"Philadelphia, PA",United States
205,-1.5255295,54.901909499999995,Andy Watson,374235404,2020-02-14 11:11:33,"Washington,The Glorious North",city,"Washington, England",United Kingdom
24,-113.49261750000001,53.5558195,Peter,37423564,2020-02-14 20:55:17,"Edmonton, Alberta, Canada",city,"Edmonton, Alberta",Canada
21,-51.1593095,-30.099836,Will Antunes,374235653,2020-05-14 18:07:20,"Porto Alegre, Brasil",city,"Porto Alegre, Brasil",Brasil
222,106.8233,-6.1803,Vicky Tanzil,37423598,2020-05-22 11:30:28,,city,"Tanah Abang, Indonesia",Indonesia
19100,-96.7617535,32.819858499999995,Will Wrench,37423619,2020-04-12 19:30:49,"Atlanta, GA",city,"Dallas, TX",United States
30620,-84.0364195,41.02169600000001,sam i am,374236272,2020-05-05 21:14:59,"Ottawa, OH",city,"Ottawa, OH",United States
10420,-81.5290775,41.33941900000001,sam i am,374236272,2020-05-25 09:15:12,"Ottawa, OH",city,"Northfield, OH",United States
85,16.2017099,39.812709999999996,Giuseppe Bonifati,374236464,2020-03-19 08:53:35,Milano,city,"Castrovillari, Calabria",Italia
205,-3.4121910000000004,53.298617500000006,Clare Stappleton,37423666,2020-02-15 18:22:00,North Wales,city,"Dyserth, Wales",United Kingdom
29200,-86.84675250000002,40.407236,Paul Luebcke,3742366877,2020-02-26 01:21:56,"Indiana, USA",city,"Lafayette, IN",United States
38300,-80.322378,40.764886499999996,TP13,374236940,2020-02-21 14:58:03,,city,"Beaver Falls, PA",United States
24,-79.616073,43.555244,TP13,374236940,2020-02-27 12:20:04,,city,"Mississauga, Ontario",Canada
38300,-80.22681349999998,40.522217,TP13,374236940,2020-03-15 18:59:27,,city,"Moon, PA",United States
41700,-98.5,29.4167,Ali Martinez,374237009,2020-03-29 03:47:35,San Antonio Texas ,city,"San Antonio, TX",United States
12900,-91.6250775,35.785776,Tephany A Spivey,374237266,2020-02-18 01:30:40,"batesville, arkansas",city,"Batesville, AR",United States
24,-78.817061,44.5222745,Pane Vino Lindsay,374237317,2020-04-04 17:14:29,56 Kent St. W. Lindsay ON,city,"Kawartha Lakes, Ontario",Canada
38060,-111.75534768,33.37130053,Taylor Galas,374237333,2020-02-15 05:18:51,Arizona ,city,"Gilbert, AZ",United States
200,31.516252,40.714663,edepli :) @d@m(o eskidendi),3742373357,2020-03-02 10:09:40,Trkiye,poi,Abant zzet Baysal niversitesi,Trkiye
35620,-73.9685415,40.780709,Amber Mundinger,37423751,2020-03-12 01:18:42,New York City,city,"Manhattan, NY",United States
205,-0.13153553,51.48242521,Lea Gabrielle,374237792,2020-02-20 19:02:59,New York,city,"Wandsworth, London",United Kingdom
47260,-76.24199,36.85833,Lea Gabrielle,374237792,2020-03-05 14:04:51,New York,city,"Norfolk, VA",United States
31080,-118.0076,33.6638,Lea Gabrielle,374237792,2020-04-11 04:04:16,New York,city,"Huntington Beach, CA",United States
47900,-77.1073,38.7252,Lea Gabrielle,374237792,2020-04-30 18:35:28,"Washington, DC",city,"Mount Vernon, VA",United States
47260,-76.08533884,36.90514179,Lea Gabrielle,374237792,2020-06-07 23:09:04,"Washington, DC",city,"Virginia Beach, VA",United States
205,-0.019732,51.45661,Lizzie Pea,3742379842,2020-05-08 12:02:03,,poi,Le Dlice,United Kingdom
175,43.9595905,26.345051,,3742381220,2020-02-14 17:03:24,N.,city,",   ",  
242,120.612349,22.973791000000002,,374238669,2020-02-27 09:06:38,,city,", ",
186,-3.816975,40.429126000000004,Alberto R. Aguiar,374238680,2020-03-05 11:51:47,Cdiz - Madrid,city,"Pozuelo de Alarcn, Espaa",Espaa
151,3.3180660000000004,6.590611,Mark Henry Kaycey,374238730,2020-02-20 06:04:46,,city,"Ikeja, Nigeria",Nigeria
31080,-118.1567105,33.809171500000005,Jazz,374238848,2020-03-10 16:26:22,,city,"Long Beach, CA",United States
128,4.342162,50.83015949999999,Sandra Guedes,3742388536,2020-02-19 15:42:52,"Saint-Gilles, Belgique",city,"Sint-Gillis, Belgi",Belgium
19100,-96.7617535,32.819858499999995,Chris Howard,374238870,2020-02-14 00:01:48,Dallas,city,"Dallas, TX",United States
29820,-115.13516499999999,36.060964500000004,Chris Howard,374238870,2020-03-17 00:03:08,Dallas,city,"Paradise, NV",United States
19100,-96.8320095,32.959787500000004,Chris Howard,374238870,2020-03-18 01:26:48,Dallas,city,"Addison, TX",United States
38900,-122.65361000000001,45.49773,Music Quest,3742390695,2020-03-25 16:05:02,"Portland, OR",city,"Portland, OR",United States
205,-3.5148765,50.72094,Emma Sanders,3742391595,2020-03-28 16:20:53,"Exeter, England",city,"Exeter, England",United Kingdom
35620,-73.997941,40.723917,Ashly Tiros M.,3742396301,2020-02-25 13:08:32,"New York, NY",poi,Museum Of Ice Cream NYC,United States
119,-115.22918,31.7896695,Jos ngel,374239682,2020-04-06 00:28:23,"Mexicali, B.C",city,"Mexicali, Baja California",Mxico
160,-77.1611705,-11.804942500000001,Jhoselin Jb,374239723,2020-02-22 16:59:00,"Lima, Peru",city,"Santa Rosa, Peru",Peru
151,7.548144000000001,6.308427,Dream big ,3742400841,2020-04-30 17:14:52,Nigeria,city,"Agbani, Nigeria",Nigeria
19100,-97.1031385,33.030083000000005,Hunter Hart Lightner,374240416,2020-02-14 07:47:03,"North Hollywood, Los Angeles",city,"Flower Mound, TX",United States
36420,-97.552161,35.4828435,Hunter Hart Lightner,374240416,2020-02-21 02:07:20,"North Hollywood, Los Angeles",city,"Oklahoma City, OK",United States
19100,-96.991828,33.042437,Hunter Hart Lightner,374240416,2020-05-24 20:02:08,"North Hollywood, Los Angeles",city,"Lewisville, TX",United States
36420,-97.455741,35.695221999999994,Hunter Hart Lightner,374240416,2020-05-30 22:37:52,"North Hollywood, Los Angeles",city,"Edmond, OK",United States
119,-99.16373305,19.4257391,David Imperial ,374240550,2020-03-09 00:34:09,"Sinaloa, Mxico",city,"Cuauhtmoc, Distrito Federal",Mxico
175,40.4908105,21.38543,,374240608,2020-02-24 19:29:19,,city,",   ",  
12060,-84.1059,33.7127,Matthew N.Ray Dice,37424096,2020-02-18 05:55:24,,city,"Lithonia, GA",United States
23580,-83.6642,34.3897,Matthew N.Ray Dice,37424096,2020-03-18 23:41:31,,city,"Lula, GA",United States
12060,-84.3889,33.7566,Matthew N.Ray Dice,37424096,2020-03-29 01:06:48,,city,"Atlanta, GA",United States
23580,-83.6642,34.3897,Matthew N.Ray Dice,37424096,2020-04-02 00:00:03,,city,"Lula, GA",United States
12060,-84.3889,33.7566,Matthew N.Ray Dice,37424096,2020-05-16 22:59:08,,city,"Atlanta, GA",United States
23580,-83.6642,34.3897,Matthew N.Ray Dice,37424096,2020-05-30 15:24:00,,city,"Lula, GA",United States
12060,-84.3889,33.7566,Matthew N.Ray Dice,37424096,2020-05-30 22:29:01,,city,"Atlanta, GA",United States
21,-49.2884605,-25.4952495,Will,374240962,2020-02-14 02:51:48,"Stio Cercado, Curitiba",city,"Curitiba, Brasil",Brasil
205,-2.5853900000000003,51.457877,Mehrannisa Sadiq,3742409669,2020-03-16 11:37:10,,city,"Bristol, England",United Kingdom
205,-0.2631405,51.5651955,Elysse Bautista G.,374241019,2020-03-08 00:30:15,CDMX,city,"Brent, London",Reino Unido
24,-79.27256949999999,43.629311,Elysse Bautista G.,374241019,2020-03-15 22:04:23,CDMX,city,"Toronto, Ontario",Canad
119,-98.775808,20.1056375,Elysse Bautista G.,374241019,2020-03-29 22:29:32,CDMX,city,"Pachuca de Soto, Hidalgo",Mxico
65,-0.8106869999999999,46.503692,Rakout Olivier,3742411041,2020-04-12 20:58:04,,city,"Pissotte, France",France
26420,-95.1271425,29.526190000000003,Kacie Little,3742414873,2020-03-07 03:20:23,"Houston, TX",city,"Webster, TX",United States
18260,-85.51020700000002,36.1395275,Ryan Williams,374241533,2020-02-14 16:36:35,"Cookeville, TN",city,"Cookeville, TN",United States
34980,-86.791549,36.200008000000004,Ryan Williams,374241533,2020-02-15 01:56:24,"Cookeville, TN",city,"Nashville, TN",United States
18260,-85.506943,36.165335,Ryan Williams,374241533,2020-02-19 13:49:57,"Cookeville, TN",poi,Cookeville-Putnam County Chamber Of Commerce,United States
34980,-86.791549,36.200008000000004,Ryan Williams,374241533,2020-02-20 00:43:32,"Cookeville, TN",city,"Nashville, TN",United States
18260,-85.51020700000002,36.1395275,Ryan Williams,374241533,2020-02-21 03:19:26,"Cookeville, TN",city,"Cookeville, TN",United States
34980,-86.771245,36.166838,Ryan Williams,374241533,2020-03-01 00:35:29,"Cookeville, TN",poi,Nissan Stadium,United States
18260,-85.51020700000002,36.1395275,Ryan Williams,374241533,2020-03-03 12:08:31,"Cookeville, TN",city,"Cookeville, TN",United States
34980,-86.791549,36.200008000000004,Ryan Williams,374241533,2020-03-03 15:38:51,"Cookeville, TN",city,"Nashville, TN",United States
18260,-85.51020700000002,36.1395275,Ryan Williams,374241533,2020-03-03 23:18:11,"Cookeville, TN",city,"Cookeville, TN",United States
34980,-86.791549,36.200008000000004,Ryan Williams,374241533,2020-03-04 03:42:58,"Cookeville, TN",city,"Nashville, TN",United States
18260,-85.51020700000002,36.1395275,Ryan Williams,374241533,2020-03-05 17:19:45,"Cookeville, TN",city,"Cookeville, TN",United States
34980,-86.83606800000001,36.152519,Ryan Williams,374241533,2020-03-18 16:52:37,"Cookeville, TN",poi,Five Points Pizza,United States
18260,-85.51020700000002,36.1395275,Ryan Williams,374241533,2020-03-20 16:33:06,"Cookeville, TN",city,"Cookeville, TN",United States
34980,-86.784284,36.165934,Ryan Williams,374241533,2020-04-20 20:06:04,"Cookeville, TN",poi,Tennessee State Capitol,United States
84,35.176671,31.774277,Ryan Williams,374241533,2020-04-22 01:13:39,"Cookeville, TN",poi,Yad Vashem ( ),Israel
18260,-85.51020700000002,36.1395275,Ryan Williams,374241533,2020-04-22 19:15:06,"Cookeville, TN",city,"Cookeville, TN",United States
34980,-86.791549,36.200008000000004,Ryan Williams,374241533,2020-06-02 02:39:55,"Cookeville, TN",city,"Nashville, TN",United States
18260,-85.508139,36.162563,Ryan Williams,374241533,2020-06-05 21:52:34,"Cookeville, TN",poi,Ralph's Donuts,United States
34980,-86.791549,36.200008000000004,Ryan Williams,374241533,2020-06-09 21:58:39,"Cookeville, TN",city,"Nashville, TN",United States
113,-5.92390655,35.79014654,NASMI Anass,374241634,2020-02-14 23:12:02,Grand Casablanca,city,"Tanger Mdina, Royaume du Maroc",Royaume du Maroc
85,11.34464863,44.49345517,NASMI Anass,374241634,2020-03-11 21:38:05,Grand Casablanca,city,"Bologne, milie-Romagne",Italie
113,-7.98214674,31.62142939,NASMI Anass,374241634,2020-04-11 19:33:24,Grand Casablanca,city,"Marrakech Mdina, Royaume du Maroc",Royaume du Maroc
85,9.19031519,45.46536939,NASMI Anass,374241634,2020-05-10 00:21:05,Grand Casablanca,city,"Milan, Lombardie",Italie
8,-68.46835999999999,-33.080625500000004,sergio cano,374241894,2020-02-14 02:10:43,"Mendoza, Argentina",city,"San Martn, Argentina",Argentina
26900,-86.238661,39.793113,Belardi Auto Racing,374241921,2020-02-28 13:21:38,"Indianapolis, IN",poi,The Yard of Bricks,United States
29200,-86.9299805,40.4590815,Belardi Auto Racing,374241921,2020-03-04 20:36:22,"Indianapolis, IN",city,"West Lafayette, IN",United States
26900,-86.2503435,39.788284499999996,Belardi Auto Racing,374241921,2020-03-05 18:12:18,"Indianapolis, IN",city,"Speedway, IN",United States
21,-48.9664745,-26.261689500000003,Jsca,374241967,2020-03-11 16:12:59,,city,"Joinville, Brasil",Brasil
40140,-116.237907,33.7446325,brandon,374242363,2020-02-14 16:12:09,,city,"Indio, CA",United States
29820,-115.13516499999999,36.060964500000004,brandon,374242363,2020-02-19 16:56:07,,city,"Paradise, NV",United States
178,28.060495,-26.08285,Somashishini ,37424243,2020-02-23 15:28:10,martin@phratboys.co.za,poi,Paul Morningside Mall,South Africa
88,140.62874599999998,36.005097,,3742424414,2020-02-17 11:44:01,,city,"Kashima-shi, Ibaraki",Japan
21,-43.441578,-22.911421500000003,Bruno Henrique,374242740,2020-02-24 12:00:10,Rio de Janeiro,city,"Rio de Janeiro, Brasil",Brasil
31080,-118.3512175,33.8337145,Heath Francis,374242877,2020-05-20 00:22:00,California,city,"Torrance, CA",United States
21340,-106.32506000000001,32.00007,Emanuel,374242960,2020-02-15 00:26:23,"Texas, USA",poi,The Edge of Texas Steakhouse and Saloon,United States
34820,-78.5164375,33.901311,Donald Meincke,374243017,2020-04-10 02:17:38,"Sunset Beach, NC",city,"Sunset Beach, NC",United States
24,-79.753237,42.789815000000004,Louise Johnson,3742431142,2020-03-05 03:15:02,,city,"Haldimand County, Ontario",Canada
205,-2.1270404999999997,57.16055600000001,Adamu Ibrahim,37424313,2020-03-04 11:12:09,Aberdeen,city,"Aberdeen, Scotland",United Kingdom
36540,-95.73370200000001,40.474318,Ben Helwig,3742431562,2020-02-15 19:15:55,,poi,Peru State College,United States
30700,-96.6965625,40.803235,Ben Helwig,3742431562,2020-03-01 05:03:20,,city,"Lincoln, NE",United States
36540,-96.053431,41.275721,Ben Helwig,3742431562,2020-03-02 04:36:38,,city,"Omaha, NE",United States
8,-62.05573149999999,-38.8726535,juan carlos,37424334,2020-03-22 01:44:30,argentina punta alta,city,"Coronel de Marina Leonardo Rosales, Argentina",Argentina
31080,-118.4119065,34.0207895,Game Master Lane,374243365,2020-05-06 01:03:21,"Boston, Massachusetts",city,"Los Angeles, CA",United States
71,9.1773475,48.7793015,Ivana,37424357,2020-06-06 18:46:39,,city,"Stuttgart, Germany",Germany
151,3.53114158,6.44238183,Chinedu Atumex,374243591,2020-03-18 13:03:20,"Lagos, Nigeria",city,"Victoria Island, Nigeria",Nigeria
21,-47.796623,-15.776254000000002,Elizabete,3742441709,2020-04-14 15:59:18,"Braslia, Distrito Federal",city,"Braslia, Brasil",Brasil
12060,-84.43310600000001,33.7671945,Critt,374244531,2020-02-14 00:38:53,"Detroit, MI",city,"Atlanta, GA",United States
17980,-84.917307,32.4823035,Critt,374244531,2020-03-07 16:22:13,"Detroit, MI",city,"Columbus, GA",United States
12060,-84.43310600000001,33.7671945,Critt,374244531,2020-03-07 20:30:11,"Detroit, MI",city,"Atlanta, GA",United States
34980,-86.791549,36.200008000000004,Critt,374244531,2020-03-09 23:36:41,"Detroit, MI",city,"Nashville, TN",United States
12060,-84.43310600000001,33.7671945,Critt,374244531,2020-03-11 03:12:50,"Detroit, MI",city,"Atlanta, GA",United States
33860,-86.24472850000002,32.364145,Critt,374244531,2020-03-13 23:36:12,"Detroit, MI",city,"Montgomery, AL",United States
18880,-86.4564905,30.398178,Critt,374244531,2020-03-14 06:22:21,"Detroit, MI",city,"Destin, FL",United States
8,-68.0957225,-38.9528875,camila,374244883,2020-05-11 14:52:07,,city,"Neuqun, Argentina",Argentina
40380,-77.690908,43.206303000000005,Artificially Flavored,374245083,2020-03-18 19:23:18,"Rochester,NY",poi,The Mall at Greece Ridge Center,United States
9,152.9931965,-27.382143,Josephine Wise,374245120,2020-04-06 20:45:00,QLD,city,"Brisbane, Queensland",Australia
31080,-117.92085900000001,33.806112,Meg Pitareeze ,374245306,2020-02-14 02:59:19,"California, USA",poi,Disney California Adventure Park,United States
40140,-117.603783,34.0451585,Meg Pitareeze ,374245306,2020-02-21 02:23:43,"California, USA",city,"Ontario, CA",United States
31080,-117.815428,34.000937,Meg Pitareeze ,374245306,2020-02-21 05:03:36,"California, USA",city,"Diamond Bar, CA",United States
40140,-117.603783,34.0451585,Meg believes Magic Happens ,374245306,2020-03-04 19:13:27,"California, USA",city,"Ontario, CA",United States
31080,-117.815428,34.000937,Meg believes Magic Happens ,374245306,2020-03-05 00:02:46,"California, USA",city,"Diamond Bar, CA",United States
8,-58.381631999999996,-34.603736,Gaby,3742453617,2020-02-14 15:11:38,"Pilar, Argentina",poi,Obelisco - Plaza de la Repblica,Argentina
85,12.506934800000002,41.90771629,MANUEL MARULANDA,374245502,2020-05-03 20:47:33,Cucuta  ,city,"Roma, Lacio",Italia
16980,-87.732013,41.8335845,kody james,374245525,2020-05-07 23:47:09,"Chicago, IL",city,"Chicago, IL",United States
21,-43.441578,-22.911421500000003,VALMIR BARRETO ,3742456157,2020-02-25 02:18:37,"Rio de Janeiro, Brasil",city,"Rio de Janeiro, Brasil",Brasil
175,39.8016865,21.389833000000007, ,374245771,2020-02-14 22:03:02,,city," ,   ",  
51,-8.62707,52.66381,S O N D R A,37424583,2020-05-09 12:35:32,,city,"Limerick, Ireland",Ireland
151,7.029838000000001,5.498543,ndike christian,374245873,2020-04-09 10:39:15,Owerri Nigeria,city,"Owerri, Nigeria",Nigeria
200,29.0052225,41.0213205,Baar Kaya,37424650,2020-02-14 06:49:49,stanbul,city,"stanbul, Trkiye",Turkey
58,14.465875500000001,50.05958,Baar Kaya,37424650,2020-02-20 06:42:54,stanbul,city,"Prague, Czech Republic",Czech Republic
8,-58.442643,-34.604315,Moiss Rodrguez,374246524,2020-02-17 18:30:25,/,city,"Ciudad Autnoma de Buenos Aires, Argentina",Argentina
205,-0.1094,51.5141,Sir Arthur,374247078,2020-05-01 19:42:21,"London, England",city,"City of London, London",United Kingdom
21,-49.853523200000005,-21.527331399999998,Roni Chiuffa,374247251,2020-04-11 23:52:33,,city,"Promisso, Brasil",Brasil
16740,-80.52871300000002,35.652669,Liza Schimmelfing,374247664,2020-02-14 23:12:52,919 & 704,city,"Salisbury, NC",United States
36740,-81.3677725,28.5016785,Liza Schimmelfing,374247664,2020-02-29 21:44:00,919 & 704,city,"Orlando, FL",United States
15500,-79.3979,36.0645,Liza Schimmelfing,374247664,2020-03-08 01:03:16,919 & 704,city,"Graham, NC",United States
16740,-80.8467855,35.209059,Liza Schimmelfing,374247664,2020-03-24 01:51:33,919 & 704,city,"Charlotte, NC",United States
20500,-79.0556,35.913000000000004,Liza Schimmelfing,374247664,2020-05-09 22:59:49,919 & 704,city,"Chapel Hill, NC",United States
16740,-80.8467855,35.209059,Liza Schimmelfing,374247664,2020-05-15 19:38:27,919 & 704,city,"Charlotte, NC",United States
222,112.4121,-7.1114,Firman A. Islami,374247751,2020-03-03 08:02:21,"Lamongan, IDN",city,"Lamongan, Indonesia",Indonesia
222,98.50475475,3.20032729,Claudia Adyan Tarigan,374247893,2020-03-08 03:02:07,"Kota Medan , Indonesia!",city,"Tigapanah, Indonesia",Indonesia
119,-99.087817,19.4320755,Frederic,3742479434,2020-04-13 21:20:35,"Distrito Federal, Mxico",city,"Venustiano Carranza, Distrito Federal",Mxico
40900,-121.375689,38.6040335,Dave Nathan,3742480153,2020-03-21 21:05:44,"Sacramento, CA",city,"Arden-Arcade, CA",United States
82,80.88440750000002,26.8251695,Gaurav Mansingh,374248331,2020-05-01 04:04:22,,city,"Lucknow, India",India
31080,-117.5957275,33.629414000000004,Hank Arkin,37424837,2020-03-27 19:00:31,"Rancho Santa Margarita, CA",city,"Rancho Santa Margarita, CA",United States
24,-79.27256949999999,43.629311,Brooke Saunders,3742486222,2020-02-21 18:06:30,"Toronto, Ontario",city,"Toronto, Ontario",Canada
175,49.871159000000006,26.385859000000004,ashwag,3742489333,2020-02-15 08:00:48,Dammam,poi, ,Kingdom of Saudi Arabia
42020,-120.67428999999998,35.6310385,The People's Champ,374249298,2020-02-16 00:05:01,The Bay!!,city,"Paso Robles, CA",United States
41860,-122.0857755,37.64127050000001,The People's Champ,374249298,2020-02-18 01:22:02,The Bay!!,city,"Hayward, CA",United States
41940,-122.08144250000001,37.396853,The People's Champ,374249298,2020-02-18 20:23:27,The Bay!!,city,"Mountain View, CA",United States
41860,-122.0857755,37.64127050000001,The People's Champ,374249298,2020-02-19 04:15:59,The Bay!!,city,"Hayward, CA",United States
19100,-97.4295265,32.8114715,,374249534,2020-04-04 19:21:00,TX,city,"Lake Worth, TX",United States
40220,-80.43787850000002,37.8135565,,374249534,2020-04-15 22:59:24,TX,city,"Lewisburg, WV",United States
19100,-97.2859135,32.7799665,Diana Acosta,374249584,2020-04-30 01:52:44,"Fort Worth, TX",city,"Fort Worth, TX",United States
40980,-83.5807915,43.3523175,Drew,374249712,2020-02-20 04:56:52,Reese/Vassar,city,"Vassar, MI",United States
21,-46.5955455,-23.682803,tipo a Ashley,374249944,2020-02-17 03:01:07,,city,"So Paulo, Brasil",Brasil
15380,-78.88398000000002,43.075570500000005,Chris P,374250757,2020-02-22 22:22:00,,city,"North Tonawanda, NY",United States
21,-53.451769999999996,-24.949379999999998,Jenifer Lima,374250836,2020-02-18 19:49:47,Cascavel-Paran- Brasil,city,"Cascavel, Brasil",Brasil
205,-4.2417515,55.85830249999999,debbbbie ,374251053,2020-04-11 06:20:24,Glasgow,city,"Glasgow, Scotland",United Kingdom
40140,-117.366128,33.8730885,Ed Edd & Eddy,374251262,2020-03-11 04:18:35,,city,"Woodcrest, CA",United States
31080,-117.813058,34.104390499999994,Ed Edd & Eddy,374251262,2020-05-10 00:28:18,,city,"San Dimas, CA",United States
40140,-117.39761599999999,33.935821999999995,Ed Edd & Eddy,374251262,2020-05-10 17:46:09,,city,"Riverside, CA",United States
31080,-117.656773,33.603508000000005,Ed Edd & Eddy,374251262,2020-05-15 07:03:45,,city,"Mission Viejo, CA",United States
40140,-117.39761599999999,33.935821999999995,Ed Edd & Eddy,374251262,2020-05-15 17:50:26,,city,"Riverside, CA",United States
24,-79.27256949999999,43.629311,,374251265,2020-02-14 18:15:37,Canada,city,"Toronto, Ontario",Canada
24,-75.80014150000001,45.248791,Evan David Dalrymple,3742512675,2020-02-14 00:02:48,"Ottawa, Ontario",city,"Ottawa, Ontario",Canada
88,132.56511,34.43456,,374251300,2020-04-03 02:11:12,10166-2,poi,,
175,40.4908105,21.38543, ,374251374,2020-04-16 10:46:02,,city,"Taif, Kingdom of Saudi Arabia",Kingdom of Saudi Arabia
31080,-118.369645,34.0870095,Melissa Pino,374251392,2020-06-04 03:33:21,LA/NYC,city,"West Hollywood, CA",United States
34980,-86.778362,36.15911,Abigail Martin,3742518267,2020-03-02 23:50:23,"Murfreesboro, TN",poi,Bridgestone Arena,United States
119,-99.08028,19.6617,Taimak,374252183,2020-04-29 21:26:26,Mexico,city,"Tultitln, Mxico",Mxico
47260,-76.255686,36.895082,austyn,374252276,2020-02-16 07:02:08,,city,"Norfolk, VA",United States
35300,-72.68194444,41.28277778,Christopher Young,374252297,2020-04-12 13:43:02,"Connecticut, USA",city,"Guilford, CT",United States
44260,-88.82168850000001,33.456503999999995,Tristan Orman,374252434,2020-02-19 15:09:45,"Oxford, MS",city,"Starkville, MS",United States
25060,-88.92911749999998,30.4278175,Tristan Orman,374252434,2020-03-07 18:03:18,"Oxford, MS",city,"Biloxi, MS",United States
35620,-73.9487755,40.655138,Danielle,37425290,2020-05-20 04:17:38,"Brooklyn, NY",city,"Brooklyn, NY",United States
33100,-80.290188,25.821728,Danielle,37425290,2020-05-31 17:36:08,"Brooklyn, NY",city,"Miami Springs, FL",United States
41860,-122.2286855,37.791994,1 of 1 ,374252947,2020-02-16 02:42:57,"Oakland, CA",city,"Oakland, CA",United States
40900,-121.3007305,38.7631605,1 of 1 ,374252947,2020-06-07 21:24:24,"Oakland, CA",city,"Roseville, CA",United States
41860,-122.2286855,37.791994,1 of 1 ,374252947,2020-06-11 09:53:02,"Oakland, CA",city,"Oakland, CA",United States
21,-46.6333,-23.55,Lais Do Rosario C,374252998,2020-02-26 21:53:56,"So Paulo, Brasil",city,"So Paulo, Brasil",Brasil
152,4.32214027,52.069396999999995,Neo de Bono,3742531,2020-02-23 09:05:07,"Den Haag, Nederland",city,"Den Haag, Nederland",Nederland
31080,-118.37731299999999,33.854669,lalo,374253176,2020-02-14 05:15:21,Earth,city,"Redondo Beach, CA",United States
40140,-117.386642,34.0976985,lalo,374253176,2020-02-15 16:48:35,Earth,city,"Rialto, CA",United States
31080,-118.37731299999999,33.854669,lalo,374253176,2020-02-17 15:53:32,Earth,city,"Redondo Beach, CA",United States
40140,-116.3348765,34.127415500000005,lalo,374253176,2020-06-09 23:49:21,Earth,city,"Joshua Tree, CA",United States
31080,-118.400884,33.889486500000004,lalo,374253176,2020-06-10 15:54:29,Earth,city,"Manhattan Beach, CA",United States
33460,-93.04499100000001,44.9638255,endymionkeats,374253238,2020-03-21 23:49:55,United States,city,"Maplewood, MN",United States
95,127.322305,37.337841,MATT,37425338,2020-03-21 05:11:49,,poi,,
35620,-73.9685415,40.780709,Rebecca,374253593,2020-02-17 18:47:26,"Hoboken, NJ",city,"Manhattan, NY",United States
38,-76.984864,2.115655,MariaLauraoficialFC,3742540642,2020-02-20 23:36:54,Popayn,poi,El Bordo - Cauca,Colombia
175,46.685077,24.7219435, ,374254211,2020-03-15 10:38:26,,city,",   ",  
37980,-75.0747,40.0158,Dr. Calderone,374254535,2020-02-19 19:50:51,"Philadelphia, PA",city,"Philadelphia, PA",United States
21,-49.11254200000001,-22.2387405,Eduardo Ribeiro,374254575,2020-02-17 02:02:47,"Bauru, Brasil ",city,"Bauru, Brasil",Brasil
160,-77.02918100000001,-12.119048,Flavio Valli,374254623,2020-03-21 19:17:45,"Lima San isidro, Peru ",poi,valo de Miraflores,Peru
119,-103.335882,20.676652,Sofi,37425505,2020-06-07 04:03:44,"Guadalajara, Jalisco",city,"Guadalajara, Jalisco",Mxico
29200,-86.9299805,40.4590815,Karen Amaizo,3742550600,2020-03-21 01:47:34,,city,"West Lafayette, IN",United States
26900,-86.1453205,39.5830385,Karen Amaizo,3742550600,2020-03-26 13:02:58,,city,"Greenwood, IN",United States
