currentGEOID,lon,lat,name,author_Id,created_at,location,place_type,place_full_name,place_country
205,-1.1094555,53.433531,Chaz,3047683400,2020-05-20 02:50:18,"Leeds, England",city,"Tickhill, England",United Kingdom
95,127.1128125,37.393978499999996,YuiNaCor,304768359,2020-04-16 01:28:33,,city, ,
34980,-86.5851,36.307425,its Kendrea,304768360,2020-03-24 02:43:29,,city,"Hendersonville, TN",United States
19820,-83.01298611,42.80280833,IG: JUICYAZZJEN,30476847,2020-05-07 03:26:27,"DETROIT, MI (DEXTER AVE.)",city,"Romeo, MI",United States
21,-35.092020000000005,-8.457337500000001,Complexo de Suape,3047685623,2020-02-17 19:51:45,,city,"Ipojuca, Brasil",Brasil
35380,-90.03877281,30.00219042,Jonathan,304768620,2020-03-10 19:45:55,Houston,city,"New Orleans, LA",United States
41700,-98.47687997,29.46073035,Jonathan,304768620,2020-05-16 18:05:22,Houston,city,"San Antonio, TX",United States
37980,-75.75609850000002,39.67909349999999,Eugene,304768756,2020-06-05 14:17:57,"Delaware, USA",city,"Newark, DE",United States
205,-4.142930000000001,50.402215000000005,Jonathan king ,3047688264,2020-02-20 20:31:25,work=plymouth live=cornwall,city,"Plymouth, England",United Kingdom
33100,-80.192,25.7752,Nikki B,30476884,2020-04-03 13:00:04,Miami,city,"Miami, FL",United States
14460,-71.112377,42.3781975,Ian Shetron,304768975,2020-03-07 04:19:49,"Flushing, MI",city,"Cambridge, MA",United States
16980,-87.732013,41.8335845,Ian Shetron,304768975,2020-03-09 03:03:33,"Flushing, MI",city,"Chicago, IL",United States
22420,-83.847347,43.0817275,Ian Shetron,304768975,2020-03-10 15:50:57,"Flushing, MI",city,"Flushing, MI",United States
41740,-117.10498899999999,32.810012,Ryder Hill,304769064,2020-04-15 23:25:05,,city,"San Diego, CA",United States
24,-78.91336,44.1182935,Badger,304769237,2020-02-16 01:02:39,Toronto,city,"Scugog, Ontario",Canada
17460,-81.83001750000001,41.2430865,Rachael Crucis,3047693229,2020-03-27 00:37:36,CLE,city,"Brunswick, OH",United States
205,-2.467718,53.695436,kyra,3047693571,2020-05-10 19:04:19,,poi,Darwen,United Kingdom
200,29.0052225,41.0213205,Hrriyek,3047694410,2020-03-05 01:52:24,"stanbul, Trkiye",city,"stanbul, Trkiye",Trkiye
74,-89.589422,15.04001,Andres Oliva,304769494,2020-03-07 23:40:26,,poi,Puente Stain Creek,Guatemala
205,-1.724596,54.988777,Allison Harding,3047695971,2020-03-30 09:14:51,"Newburn, England",city,"Newburn, England",United Kingdom
12060,-84.20740450000001,33.9407305,Keeper of the Simple,30476969,2020-02-16 14:44:44,The Realm of Self ,city,"Norcross, GA",United States
32820,-89.92202900000002,35.1335205,Keeper of the Simple,30476969,2020-02-19 14:26:39,The Realm of Self ,city,"Memphis, TN",United States
34820,-78.976213,33.7661365,Drew Christian,3047698796,2020-03-13 07:17:40,"Kingsport, TN",city,"Red Hill, SC",United States
49340,-71.60043950000001,42.169284999999995,Jennifer Smith,304769892,2020-03-17 12:04:02,,city,"Upton, MA",United States
14460,-71.4272115,42.15551600000001,Jennifer Smith,304769892,2020-03-30 22:21:21,,city,"Medway, MA",United States
160,-75.6976515,-14.0605285,Ulises Garcia,304769923,2020-04-26 22:51:57,"Ica, Peru",city,"Parcona, Peru",Peru
186,-5.57,42.6056,Cora Barbat.,3047700820,2020-04-13 17:47:09, Matapozuelos / Valladolid,city,"Len, Espaa",Espaa
205,-2.23348,53.4569525,Tom,3047701580,2020-03-13 15:42:22,"Manchester, England",city,"Manchester, England",United Kingdom
162,19.362645,51.3542835,Marta wiertniewicz,3047702162,2020-02-16 13:50:10,"Nadarzyn, Polska",city,"Bechatw, Polska",Polska
15380,-78.683779,42.965361,Greg on the Radio,304770300,2020-02-18 03:29:31,"Buffalo, NY",poi,Bar-Bill North,United States
24,-79.069762,43.084416999999995,Greg on the Radio,304770300,2020-05-18 17:31:00,"Buffalo, NY",poi,Niagara Falls (American Side),United States
35620,-73.8311875,40.6708795,natalie ,3047704267,2020-02-15 05:36:11,,city,"Queens, NY",United States
21,-43.296872,-22.644558,diaba ,3047704613,2020-02-20 14:53:30,"Duque de Caxias, Brasil",city,"Duque de Caxias, Brasil",Brasil
33,-70.5674,-33.409,Nicols Montes,3047704983,2020-02-25 01:36:27,,city,"Las Condes, Chile",Chile
200,38.8010215,37.146854499999996,Mehmet Nimetolu,3047709026,2020-03-08 17:20:12,anlurfa,city,"anlurfa, Trkiye",Trkiye
205,-2.7058023999999996,53.501085499999995,Zsa Zsa Florist,3047709085,2020-02-19 12:19:11,"Billinge, England",city,"Billinge, England",United Kingdom
119,-99.182126,19.4857835,Adrin Olguin,304770979,2020-05-01 19:20:40, ,city,"Azcapotzalco, Distrito Federal",Mxico
205,-2.807962,53.0558635,Karen Bates,3047710176,2020-03-13 21:31:23,"Tilston, England",city,"Tilston, England",United Kingdom
12420,-97.7475,30.2677,Feast Portland,304771072,2020-02-25 18:08:33,"Portland, OR",city,"Austin, TX",United States
38900,-122.678249,45.518237,Feast Portland,304771072,2020-03-17 01:29:47,"Portland, OR",city,"Portland, OR",United States
34980,-86.8679,35.9245,Bill Dixon,30477114,2020-06-05 20:57:49,"Baltimore, MD",city,"Franklin, TN",United States
48,-68.97,18.43,Gabriel Roug,304771157,2020-06-03 17:12:59,Dominican Republic,city,"Villa Hermosa, Dominican Republic",Dominican Republic
38300,-79.54093,40.305028,Alexis Walter,3047716134,2020-04-18 02:17:09,"Pittsburgh, PA",city,"Greensburg, PA",United States
40060,-77.49317049999998,37.529883,Tiffany,3047716793,2020-06-03 02:28:17,,city,"Richmond, VA",United States
73,23.9607155,37.7049195,Fosteris Christos,3047717198,2020-02-18 22:25:38,,city," , ",
36740,-81.3677725,28.5016785,Will,3047717211,2020-05-02 14:51:44,Walt Disney World,city,"Orlando, FL",United States
15940,-81.1124265,40.9176595,Will,3047717211,2020-05-04 05:26:26,Walt Disney World,city,"Alliance, OH",United States
16740,-80.894487,35.476402,Kasyl,3047717687,2020-04-17 02:09:38,"Charlotte, NC",city,"Cornelius, NC",United States
30940,-84.05729699999999,36.938499500000006,Kasyl,3047717687,2020-05-20 01:53:18,"Charlotte, NC",city,"Corbin, KY",United States
34980,-86.791549,36.200008000000004,Kasyl,3047717687,2020-05-28 00:14:15,"Charlotte, NC",city,"Nashville, TN",United States
16740,-80.894487,35.476402,Kasyl,3047717687,2020-05-30 04:04:40,"Charlotte, NC",city,"Cornelius, NC",United States
222,110.3380405,-7.0632990000000015,katamu,304771808,2020-02-16 15:33:21,"bekasi , indonesia",city,"Mijen, Indonesia",Indonesia
178,27.968098,-26.2761385,,304772202,2020-02-14 15:34:42,,city,"Johannesburg, South Africa",South Africa
34980,-86.694319,36.211588,Mike Lindell,3047722897,2020-02-27 19:48:38,"Chaska, MN",poi,Gaylord Opryland Resort & Convention Center,United States
36820,-92.9242055,41.4022135,Mike Lindell,3047722897,2020-03-01 00:27:43,"Chaska, MN",city,"Pella, IA",United States
33460,-93.6039505,44.81615,Mike Lindell,3047722897,2020-03-02 15:37:20,"Chaska, MN",city,"Chaska, MN",United States
26780,-94.149633,44.769897,Mike Lindell,3047722897,2020-04-09 00:15:23,"Chaska, MN",city,"Glencoe, MN",United States
33460,-93.6039505,44.81615,Mike Lindell,3047722897,2020-04-09 18:37:02,"Chaska, MN",city,"Chaska, MN",United States
23860,-79.052199,33.54781,Mike Lindell,3047722897,2020-05-24 00:36:18,"Chaska, MN",city,"Murrells Inlet, SC",United States
33460,-93.6039505,44.81615,Mike Lindell,3047722897,2020-05-31 01:04:35,"Chaska, MN",city,"Chaska, MN",United States
19100,-97.134579,33.225041,Adrian Mendoza,304772563,2020-03-05 23:46:28,"United States, Texas",poi,Denton ISD Professional Development Center,United States
12420,-97.93905336,29.87549572,Adrian Mendoza,304772563,2020-03-07 20:39:16,"United States, Texas",city,"San Marcos, TX",United States
19740,-104.9220935,39.713563,LaDarren Taylor,304772599,2020-05-11 01:14:53,"Denver, CO",city,"Denver, CO",United States
222,98.69447149,3.57606259,Ahmad Muhtadi,304772632,2020-06-06 02:32:08,"medan, indonesia",city,"Medan Kota, Indonesia",Indonesia
193,99.007738,18.576503,,304772740,2020-04-13 11:25:13,,city,", ",
200,29.0052225,41.0213205,Yldray zgen,3047729434,2020-02-15 18:47:13,"stanbul, Trkiye",city,"stanbul, Trkiye",Trkiye
31080,-117.76419454,33.56675994,Sean McCoy,30477301,2020-06-07 19:10:43,"California, USA",city,"Laguna Beach, CA",United States
35620,-73.9300355,40.7411315,Emilia Decaudin  ,3047731024,2020-02-20 01:02:17,"Brooklyn, NY",neighborhood,"Sunnyside, Queens",United States
186,2.1412275000000003,41.392657,Miss G.,3047731831,2020-02-16 21:24:14,"Barcelona, Espaa",city,"Barcelona, Espaa",Espaa
14260,-116.154596,43.574659999999994,Brandon,304773230,2020-02-15 21:28:59,"Boise, ID",poi,Bier:Thirty Bottle & Bistro,United States
42660,-122.3306025,47.614816999999995,Brandon,304773230,2020-03-13 15:43:10,"Boise, ID",city,"Seattle, WA",United States
14260,-116.238001,43.598033,Brandon,304773230,2020-03-16 01:49:34,"Boise, ID",city,"Boise, ID",United States
33100,-80.31367449999998,25.7122155,gabsters,3047734579,2020-03-29 19:02:30,at dance,city,"Glenvar Heights, FL",United States
24,-52.724030000000006,47.57456,Brent Morgan,30477349,2020-05-08 17:42:25,"St. John's, Newfoundland and Labrador",city,"St. John's, Newfoundland and Labrador",Canada
40900,-121.4947,38.577,Dominique,304773518,2020-06-04 02:47:18,"Bay Area, CA",city,"Sacramento, CA",United States
38,-73.126182,6.8020165000000015,Dayra Gutierrez Len,3047736203,2020-04-01 19:05:49,"Bucaramanga, Colombia",city,"Los Santos, Colombia",Colombia
20500,-78.8954405,35.9909825,$,3047736644,2020-02-24 00:11:36,Gym,city,"Durham, NC",United States
47900,-76.87085350000002,38.90346,$,3047736644,2020-02-27 18:41:00,Gym,city,"Summerfield, MD",United States
12580,-76.66426899999998,39.20952,$,3047736644,2020-03-10 22:23:55,Gym,city,"Linthicum, MD",United States
47900,-77.00312,38.6187975,$,3047736644,2020-03-16 01:02:57,Gym,city,"Bensville, MD",United States
12580,-76.68914649999998,39.061278,$,3047736644,2020-03-20 12:42:09,Gym,city,"Odenton, MD",United States
47900,-76.74663849999997,38.9637825,$,3047736644,2020-04-14 20:19:34,,city,"Bowie, MD",United States
12580,-76.68914649999998,39.061278,$,3047736644,2020-04-14 23:29:24,,city,"Odenton, MD",United States
205,-2.6168750000000003,51.52168399999999,Iphicrates,3047737673,2020-02-14 21:16:51,,city,"Catbrain, England",United Kingdom
205,0.435237,51.8528235,Loraine Godfrey,3047737723,2020-04-10 18:14:59,"Felsted, East of England",city,"Felsted, East",United Kingdom
38,-74.849933,10.958072999999999,Roberth Mendoza Vill,3047738371,2020-05-03 18:21:27,,city,"Barranquilla, Colombia",Colombia
41180,-90.4540765,38.715947,Nick Lalou,304773880,2020-02-18 00:59:18,"St Louis, MO",city,"Maryland Heights, MO",United States
16980,-87.732013,41.8335845,Nick Lalou,304773880,2020-05-25 15:20:13,"St Louis, MO",city,"Chicago, IL",United States
41180,-90.247824,38.653771,Nick Lalou,304773880,2020-06-05 02:12:22,"St Louis, MO",city,"St Louis, MO",United States
13820,-86.77961099999997,33.2980275,Michael Yonosko,30477418,2020-03-10 01:46:28,"Hoover, Alabama",city,"Pelham, AL",United States
38,-74.24367099999999,4.2622835,Alcalda Local de Teusaquillo,304774188,2020-03-02 22:44:49,Calle 39B # 19-30,city,"Bogot, D.C., Colombia",Colombia
119,-99.6302185,20.800051500000002,Xavi Angeles,304774243,2020-02-22 23:00:05,"Quertaro Arteaga, Mxico",city,"Cadereyta de Montes, Quertaro Arteaga",Mxico
33100,-80.14917249999999,26.150368,Caroline Kwon,3047750722,2020-03-18 01:44:08,"New Brunswick, NJ",city,"Fort Lauderdale, FL",United States
35620,-74.44110450000001,40.48819500000001,Caroline Kwon,3047750722,2020-03-22 02:26:30,"New Brunswick, NJ",city,"New Brunswick, NJ",United States
12700,-70.4389635,41.733222999999995,"Caroline Kwon, MD",3047750722,2020-06-02 20:05:19,"New Brunswick, NJ",city,"East Sandwich, MA",United States
35620,-74.44110450000001,40.48819500000001,"Caroline Kwon, MD",3047750722,2020-06-04 23:24:18,"New Brunswick, NJ",city,"New Brunswick, NJ",United States
9,153.06523169999997,-26.402152899999997,Crossfit4566,3047751019,2020-02-17 03:07:00,"Noosaville, Sunshine Coast",city,"Sunshine Coast, Queensland",Australia
21,-43.441578,-22.911421500000003,WL ,3047751139,2020-02-14 02:46:56,"Ipanema, Rio de Janeiro",city,"Rio de Janeiro, Brasil",Brasil
188,24.887617499999998,12.055921, ,3047751689,2020-05-09 11:40:44,,city,Nyala,
21,-59.9803255,-2.572425,Mendes ,304775171,2020-02-14 01:29:36,Manaus ,city,"Manaus, Brasil",Brasil
51,-6.271737,53.33959599999999,Catherine Dunne,3047754468,2020-03-17 11:09:09,Dublin,poi,St Patrick's Cathedral | Ardeaglais Naomh Pdraig,Ireland
8,-64.29055556,-36.62027778,COLOMBATTO LuisMaria,304775556,2020-05-10 21:49:32,"La Pampa, Argentina",city,"Santa Rosa, Argentina",Argentina
205,-0.24991799999999997,51.59538,Con&Alex@iAbsol,3047758734,2020-02-27 09:29:34,"Hillingdon, London",poi,Colindale London Underground Station,United Kingdom
38060,-111.8808735,33.2824505,Morgan,3047759640,2020-03-08 14:25:57,"Arizona, USA",city,"Chandler, AZ",United States
43320,-110.0544875,34.244389500000004,Morgan,3047759640,2020-04-27 03:44:35,"Arizona, USA",city,"Show Low, AZ",United States
38060,-111.8808735,33.2824505,Morgan,3047759640,2020-05-09 00:45:51,"Arizona, USA",city,"Chandler, AZ",United States
14460,-71.4849735,42.537946000000005,Littleton Police,3047759879,2020-03-24 18:35:57,"Littleton, Massachusetts",city,"Littleton, MA",United States
33,-70.624466,-33.471633000000004,Karla Sotomayor H,304775990,2020-05-12 02:01:25,Santiago de Chile,poi,Condominio Portal La Via 2.0,Chile
21,-52.587906,-24.350747,gio,3047760047,2020-05-16 21:39:09,"Mambor, Brasil",city,"Mambor, Brasil",Brasil
12420,-97.754724,30.3233455,Kanye Weast,304776013,2020-02-14 19:10:34,Las Cruces,city,"Austin, TX",United States
35380,-90.1948905,29.9058255,Kanye Weast,304776013,2020-03-06 22:05:34,Las Cruces,city,"Avondale, LA",United States
12420,-97.754724,30.3233455,Kanye Weast,304776013,2020-03-09 17:10:41,Las Cruces,city,"Austin, TX",United States
191,6.8915380000000015,46.246184,Lilou,3047760331,2020-02-18 12:16:59,,city,"Monthey, Suisse",Suisse
35620,-73.996707,40.705967,angela,304776035,2020-03-13 07:51:47,707  213,poi,Brooklyn Bridge,United States
8,-58.4397,-34.6089,Hernn Alaniz,304776149,2020-02-14 18:37:11,"Belgrano, Capital Federal",city,"Ciudad Autnoma de Buenos Aires, Argentina",Argentina
36420,-97.4451735,35.222301,Stacey Wright,304776169,2020-02-20 14:55:08,"Norman, Oklahoma",city,"Norman, OK",United States
186,-3.66666667,40.5,Camelia Crisan,3047761838,2020-03-23 15:16:07,"Madrid, Espaa",city,"Madrid, Espaa",Espaa
119,-99.087817,19.4320755,edoneo,304776271,2020-02-25 04:38:16,,city,"Venustiano Carranza, Distrito Federal",Mxico
71,8.409535,49.015924,Sanjasa.will.ans.Meer!,3047763715,2020-03-15 10:43:52,"Baden-Wrttemberg, Deutschland",city,"Karlsruhe, Deutschland",Deutschland
24,-79.23357076,43.77915534,Gospel Connection,30477673,2020-02-17 16:53:34,Toronto,city,"Toronto, Ontario",Canada
29820,-115.17832518,36.10267118,Ken Kochman,30477703,2020-02-26 06:07:02,Nevada,city,"Paradise, NV",United States
41980,-66.04785758,18.43526273,Keiz,304777069,2020-03-22 18:39:06,La Presidencial,city,"San Juan, USA",United States
29820,-115.13516499999999,36.060964500000004,Escoe's World,30477710,2020-03-05 21:39:04,"Minnesota, USA",city,"Paradise, NV",United States
18140,-83.00198800000003,40.103977,Tay,3047771750,2020-03-09 13:31:53,"Columbus, OH",city,"Worthington, OH",United States
18880,-86.117361,30.720786500000006,Tay,3047771750,2020-05-04 02:08:58,"Columbus, OH",city,"De Funiak Springs, FL",United States
24,-72.7543515,45.3978635,Royal Vengeance,3047772735,2020-04-06 04:57:39,"Qubec, Canada",city,"Granby, Qubec",Canada
159,-54.6383115,-25.5363025,Javier Bernal,3047773811,2020-02-14 18:20:06,"Ciudad del Este, Alto Paran",city,"Puerto Presidente Stroessner, Paraguay",Paraguay
21,-54.45709599999999,-25.453901,Javier Bernal,3047773811,2020-02-16 18:03:31,"Ciudad del Este, Alto Paran",city,"Foz de Iguaz, Brasil",Brasil
159,-54.6383115,-25.5363025,Javier Bernal,3047773811,2020-02-17 14:36:50,"Ciudad del Este, Alto Paran",city,"Puerto Presidente Stroessner, Paraguay",Paraguay
21,-54.45709599999999,-25.453901,Javier Bernal,3047773811,2020-02-17 19:17:38,"Ciudad del Este, Alto Paran",city,"Foz de Iguaz, Brasil",Brasil
159,-54.6383115,-25.5363025,Javier Bernal,3047773811,2020-02-18 13:46:23,"Ciudad del Este, Alto Paran",city,"Puerto Presidente Stroessner, Paraguay",Paraguay
21,-43.441578,-22.911421500000003,Javier Bernal,3047773811,2020-03-04 15:19:31,"Ciudad del Este, Alto Paran",city,"Ro de Janeiro, Brasil",Brasil
159,-54.6383115,-25.5363025,Javier Bernal,3047773811,2020-03-09 00:36:00,"Ciudad del Este, Alto Paran",city,"Puerto Presidente Stroessner, Paraguay",Paraguay
65,4.835099,45.75782150000001,Raven,3047774560,2020-06-08 09:37:15,,city,"Lyon, France",France
82,76.20806,30.563142,Sandeep Kumar,304777479,2020-05-05 09:12:57,Mandi gobindgarh,city,"Amloh, India",India
119,-98.28009899999999,19.053736999999998,Miguel ,304777803,2020-02-28 23:56:42,Satelite//Puebla,poi,Universidad de las Amricas Puebla,Mxico
47900,-77.27715500000001,38.7936215,Gig,3047779255,2020-05-29 19:00:52,,city,"Burke, VA",United States
26420,-95.4464865,29.838495,Mish Mish,3047779646,2020-02-22 00:34:55,Houston ,city,"Houston, TX",United States
151,4.581701,8.480098,Mujeeb Abdulfatai,3047780573,2020-03-17 09:56:20,"Kwara, Nigeria",poi,Kwara State Govt. House,Nigeria
36500,-122.92351599999999,47.064528,Julie Dunston,30477811,2020-03-31 21:50:52,"Olympia, WA",city,"Olympia, WA",United States
24,-114.4670645,51.18940600000001,Zy Cuarteros,304778137,2020-02-14 00:45:49,,city,"Cochrane, Alberta",Canada
36420,-97.552161,35.4828435,lys,3047782818,2020-02-20 21:43:36,"Tulsa, OK",city,"Oklahoma City, OK",United States
34780,-95.370419,35.732579,lys,3047782818,2020-03-21 03:47:14,"Tulsa, OK",city,"Muskogee, OK",United States
36420,-97.552161,35.4828435,lys,3047782818,2020-03-26 21:26:09,"Oklahoma City, OK",city,"Oklahoma City, OK",United States
27260,-81.3056535,29.898453999999997,Dionisio,304778283,2020-05-24 11:34:41,"San Germn, Puerto Rico",city,"St Augustine, FL",United States
18140,-82.985772,39.9946835,PCSAO,3047783369,2020-04-06 17:56:05,"Columbus, OH",city,"Columbus, OH",United States
200,29.313296,40.908383,Hakan,3047783575,2020-02-15 09:06:12,,poi,stanbul Sabiha Gken Uluslararas Havaliman (SAW),Trkiye
21,-49.2884605,-25.4952495,battlestar frenetica,3047783894,2020-02-14 16:24:25,,city,"Curitiba, Brsil",Brsil
151,7.4833,9.0667,Omaskitchen,3047784946,2020-04-30 11:41:36,"Federal Capital Territory, Nig",city,"Abuja, Nigeria",Nigeria
28940,-83.9638415,35.982470500000005,Randy Campbell,304778674,2020-02-16 15:13:19,"Knoxville, Tennessee",city,"Knoxville, TN",United States
27140,-90.1580165,32.230987,Randy Campbell,304778674,2020-02-22 00:22:09,"Knoxville, Tennessee",city,"Jackson, MS",United States
28940,-83.9638415,35.982470500000005,Randy Campbell,304778674,2020-02-24 18:43:24,"Knoxville, Tennessee",city,"Knoxville, TN",United States
45300,-82.67290299999998,27.7957195,Randy Campbell,304778674,2020-03-05 22:51:29,"Knoxville, Tennessee",city,"St Petersburg, FL",United States
28940,-83.9638415,35.982470500000005,Randy Campbell,304778674,2020-03-09 22:18:47,"Knoxville, Tennessee",city,"Knoxville, TN",United States
18880,-86.4564905,30.398178,Randy Campbell,304778674,2020-03-15 20:16:52,"Knoxville, Tennessee",city,"Destin, FL",United States
28940,-83.9638415,35.982470500000005,Randy Campbell,304778674,2020-03-30 00:41:37,"Knoxville, Tennessee",city,"Knoxville, TN",United States
18880,-86.4564905,30.398178,Randy Campbell,304778674,2020-04-28 01:54:23,"Knoxville, Tennessee",city,"Destin, FL",United States
28940,-83.9638415,35.982470500000005,Randy Campbell,304778674,2020-05-06 13:47:45,"Knoxville, Tennessee",city,"Knoxville, TN",United States
18880,-86.4564905,30.398178,Randy Campbell,304778674,2020-05-27 14:17:45,"Knoxville, Tennessee",city,"Destin, FL",United States
88,140.1350115,35.393048,,304778716,2020-02-27 03:18:20,,city, ,
47900,-77.6125,38.7958,Ryan Van Sickel,304778725,2020-05-22 22:12:53,,city,"Gainesville, VA",United States
23540,-82.3302695,29.6731715,Jarelle D. Laquan,3047787846,2020-02-14 05:28:19,The Sauce,city,"Gainesville, FL",United States
15980,-81.986834,26.63648,Jarelle D. Laquan,3047787846,2020-02-16 06:21:10,The Sauce,city,"Cape Coral, FL",United States
23540,-82.3302695,29.6731715,Jarelle D. Laquan,3047787846,2020-02-20 05:45:00,The Sauce,city,"Gainesville, FL",United States
15980,-81.986834,26.63648,Jarelle D. Laquan,3047787846,2020-03-02 05:34:12,The Sauce,city,"Cape Coral, FL",United States
23540,-82.3302695,29.6731715,Jarelle D. Laquan,3047787846,2020-03-09 05:50:28,The Sauce,city,"Gainesville, FL",United States
15980,-81.986834,26.63648,Jarelle D. Laquan,3047787846,2020-03-19 23:54:34,The Sauce,city,"Cape Coral, FL",United States
12580,-76.5511625,39.3868225,Christopher pretty simple,30477880,2020-03-01 03:26:05,somewhere between 667-876 ,city,"Parkville, MD",United States
171,120.89743,14.963258999999999,Jmpl .,304778915,2020-02-16 13:18:05,"baliuag, bulacan",poi,Banahaw Heals Spa,Republic of the Philippines
31140,-85.4315785,38.254822499999996,Jerry Henderson,304779313,2020-03-31 08:40:05,"Louisville, KY",city,"Boston, KY",United States
32820,-89.92202900000002,35.1335205,Meghan Carr,3047793740,2020-05-01 01:14:38,"Memphis, TN",city,"Memphis, TN",United States
71,13.4246065,52.506701,Konstantin T,3047794056,2020-02-27 13:28:09,"Berlin, Deutschland",city,"Berlin, Deutschland",Deutschland
18140,-82.985772,39.9946835,RACEL,3047796624,2020-03-06 19:50:16,"Columbus, OH",city,"Columbus, OH",United States
17140,-84.53981250000002,39.137038,RACEL,3047796624,2020-03-10 17:53:45,"Columbus, OH",city,"Cincinnati, OH",United States
33100,-80.32799849999999,26.0278895,julian,3047798341,2020-03-21 17:31:07,Barcelona,city,"Pembroke Pines, FL",United States
211,-66.930644,10.483539,Nestor Bravo,304779862,2020-04-29 19:25:16,Venezuela,city,"Caracas, Venezuela",Venezuela
38900,-122.71677741,45.43047101,Siri Anderson,3047798954,2020-03-19 22:19:49,,city,"Lake Oswego, OR",United States
38060,-111.8583985,33.639340000000004,Bonnie Rich Jessen,304780072,2020-06-01 13:50:46,,city,"Scottsdale, AZ",United States
38900,-122.630908,45.536402,Lauren Mittelman,3047800958,2020-03-02 19:32:13,"Portland, OR",city,"Portland, OR",United States
222,107.11378799999999,-6.242402500000002,Ihma  Septiani,304780139,2020-03-06 23:43:27,"Jakarta, Indonesia",city,"Cibitung, Indonesia",Indonesia
71,9.3726795,53.6798865,Guerro,3047801695,2020-03-16 16:00:40,Hamburg,city,"Hamburg, Deutschland",Deutschland
12060,-84.06399,33.840149,BLM,3047802511,2020-06-07 02:13:27,AsapTrap,poi,In The Woods,United States
8,-58.442643,-34.604315,Diego Micucci,304780326,2020-03-23 08:38:07,Buenos Aires - Capital Federal,city,"Ciudad Autnoma de Buenos Aires, Argentina",Argentina
191,7.631553,47.5512515,Ajei,3047803323,2020-03-30 18:17:25,,city,"Birsfelden, Schweiz",Schweiz
35620,-74.15394699999997,40.57237600000001,Dento Teki Na Dojo,3047803671,2020-04-14 01:15:41,1669 Richmond Road SI NY 10304,city,"Staten Island, NY",United States
38,-75.56939419,6.20951897,Henry Borrero,304780452,2020-02-14 01:21:57,Medelln,city,"Medelln, Colombia",Colombia
173,49.0696345,55.794778,Flax Dmitriy,30478047,2020-02-19 05:14:20,,city,", ",
9,145.0531355,-37.9725665,Nerissa F,3047806214,2020-02-15 12:16:11,"Melbourne, Victoria",city,"Melbourne, Victoria",Australia
41740,-117.2879235,33.121483999999995,wholseome wes,304780676,2020-02-21 04:45:07,Southern CA,city,"Carlsbad, CA",United States
31080,-118.4119065,34.0207895,steph,3047808445,2020-05-22 05:03:28,"Los Angeles, CA",city,"Los Angeles, CA",United States
173,48.79314100000001,52.013346500000004,  ,3047808563,2020-02-16 07:55:52,", ",city,", ",
33340,-87.9672925,43.0567225,Andrew Fischer,3047809579,2020-02-28 02:35:59,United States,city,"Milwaukee, WI",United States
205,-2.7016375000000004,53.774091000000006,hoppy66,3047809637,2020-02-15 10:27:50,"Preston, England",city,"Preston, England",United Kingdom
119,-100.955511,22.3111195,Jhoseline,3047811222,2020-03-13 05:48:43,En algn lugar,city,"San Luis Potos, Mxico",Mxico
21,-49.109626500000005,-26.872810499999996,malu,3047811449,2020-02-14 01:02:00,"Blumenau, $C",city,"Blumenau, Brasil",Brasil
215,17.088310999999997,-22.572429999999997,Nampaasita,3047812272,2020-03-06 17:34:01,Ongwediva ,poi,Bank Windhoek Theatre School,Namibia
186,-15.459848999999998,28.103013,Jose Espino lvarez,304781324,2020-03-16 16:40:47,,city,"Las Palmas de Gran Canaria, Espaa",Espaa
38900,-122.9888,45.5224,Melonie Lovell,304781414,2020-02-14 01:44:30,"Hillsboro, OR",city,"Hillsboro, OR",United States
21,-42.1347125,-22.9346425,Vini,304781496,2020-02-15 22:48:06,Arraial do Cabo - RJ,city,"Arraial do Cabo, Brasil",Brasil
8,-58.442643,-34.604315,Solanita,304781527,2020-02-14 17:18:43,,city,"Ciudad Autnoma de Buenos Aires, Argentina",Argentina
47900,-77.349057,38.9558015,Resist,3047816154,2020-03-09 07:01:27,"Ashburn, VA",city,"Reston, VA",United States
18140,-82.985772,39.9946835,Kate Lindsey,304781749,2020-02-20 04:19:22,buckeyes.,city,"Columbus, OH",United States
38060,-112.1246765,33.5528625,Kate Lindsey,304781749,2020-05-31 05:43:27,buckeyes.,city,"Phoenix, AZ",United States
8,-60.69740600000001,-32.9516155,Surea ,304781835,2020-03-12 01:12:38,Sarmiento Chubut Argentina,city,"Rosario, Argentina",Argentina
45300,-82.62731787,27.72479119,Kelly Bernish CSP,304782003,2020-05-31 02:41:45,"St Petersburg, FL",city,"St Petersburg, FL",United States
205,-3.2030084999999997,55.943195499999995,Artisan Stitch,3047822335,2020-02-26 15:44:01,"St Margarets House, Edinburgh",city,"Edinburgh, Scotland",United Kingdom
22540,-88.487213,43.787919,Holiday Automotive,30478228,2020-03-10 21:42:01,"Fond du Lac, WI",poi,Holiday Ford,United States
171,120.99236200000001,14.599374,   ,3047823528,2020-02-14 23:30:12,intra,poi,"Intramuros, Manila",Republic of the Philippines
65,1.0963,49.4412,,3047823615,2020-02-23 13:04:28,,city,"Rouen, France",France
36420,-97.552161,35.4828435,Austin Cooper,304782503,2020-02-23 07:17:17,OK,city,"Oklahoma City, OK",United States
31080,-118.3512175,33.8337145,,3047826002,2020-02-14 05:50:11,"Lafayette, LA",city,"Torrance, CA",United States
34060,-79.9438375,39.6293145,Damien Clement,3047826776,2020-03-09 22:09:53,,city,"Morgantown, WV",United States
85,12.5451455,41.8984165,,304782734,2020-03-13 11:44:28,,city,"Roma, Lazio",Italia
21,-59.9803255,-2.572425,Renato Jnior,3047827711,2020-04-20 19:32:37,Manaus,city,"Manaus, Brasil",Brasil
39900,-119.82718200000001,39.512436,Kevin Mac,30478279,2020-02-24 01:45:31,"Reno, NV",city,"Reno, NV",United States
38300,-80.062179,40.270996000000004,Selena,304782850,2020-04-13 00:30:24,"Pittsburgh, PA",city,"McMurray, PA",United States
186,-3.01228726,43.34399708,Arkaaitz,3047829693,2020-02-27 23:04:50,,city,"Getxo, Espaa",Espaa
31080,-117.92468400000001,33.80899,ShortFused,3047830635,2020-02-16 09:17:27,Karst River Quarry ,poi,Starbucks,United States
24,-104.64089399999999,50.455135999999996,Rhonda Haus,304783255,2020-03-04 17:54:54,"Emerald Park, SK, Canada",city,"Regina, Saskatchewan",Canada
82,80.1621765,12.9394605,saravana prabu,304783293,2020-02-14 00:45:12,,city,"Sholinganallur, India",India
200,35.28488,37.002826500000005,Sleyman zlem nal,3047833623,2020-03-15 09:34:57,Trkiye,city,"Adana, Trkiye",Trkiye
8,-58.41885600000001,-34.752795500000005,Estela Castello,3047834581,2020-02-14 23:05:09,,city,"Lomas de Zamora, Argentina",Argentina
36420,-97.50337222,35.49228056,Derrick Stark,304783535,2020-03-03 14:49:48,"Oklahoma City, OK",city,"Oklahoma City, OK",United States
186,-1.571998,42.775503,Socorro,3047837105,2020-02-15 18:12:46,,city,"Aranguren, Espaa",Espaa
24,-79.453038,43.694789,xvx Alex,30478375,2020-03-09 00:12:45,"Toronto, Ontario",poi,No Frills,Canada
16980,-87.263447,41.5321345,Adrian Balboa,3047838599,2020-03-20 00:23:04,Chicagoland/NW Indiana,city,"Hobart, IN",United States
40380,-77.6949055,42.82596700000001,Robert J,3047838608,2020-04-15 02:04:45,"Conesus Lake, NY",city,"Conesus Lake, NY",United States
51,-7.293810499999999,52.5684865,Maggith Mooth Moo,3047839374,2020-05-14 16:28:33,Ireland,city,"Kilkenny, Ireland",Ireland
21,-43.0596095,-22.904549000000006,Gbzh ,3047839566,2020-05-09 00:56:50,"Niteri, Rio de Janeiro",city,"Niteri, Brasil",Brasil
42660,-122.3306025,47.614816999999995,Patrick Utz,304784277,2020-02-23 18:15:01,"Los Angeles, CA",city,"Seattle, WA",United States
31080,-118.4119065,34.0207895,Patrick Utz,304784277,2020-03-04 20:41:49,"Los Angeles, CA",city,"Los Angeles, CA",United States
42200,-120.19399299999999,34.6180495,Patrick Utz,304784277,2020-05-31 03:25:54,"Los Angeles, CA",city,"Buellton, CA",United States
31080,-117.860378,34.033142,Patrick Utz,304784277,2020-06-01 14:23:10,"Los Angeles, CA",city,"Walnut, CA",United States
82,78.5982595,17.365102999999998,Dr.Ramakanth Reddy,30478447,2020-03-02 01:13:16,hyderabad,city,"Hayathnagar, India",India
31080,-117.9152615,34.138088499999995,Yami-Nasty ,304784558,2020-06-05 21:32:30,"Azusa, CA",city,"Azusa, CA",United States
8,-58.446241,-34.659632,LuzVichi,3047846111,2020-02-14 00:56:39,,city,"Villa Soldati, Argentina",Argentina
200,29.0052225,41.0213205,Mehmet Emin Akar,3047846505,2020-04-17 18:37:29,,city,"stanbul, Trkiye",Trkiye
205,0.27453700000000003,51.86847,Chris Smith,3047847109,2020-02-14 20:09:52,,city,"Takeley, East",United Kingdom
200,38.791940000000004,37.138115,Reit Drtkarde ,3047847405,2020-05-22 08:43:01,anlurfa / TRKYE,poi,Fenerbahe kr Saraolu Stad,Trkiye
38,-73.92732149999999,11.0734625,Ronald Riatiga,304784748,2020-03-21 10:10:54,Santa Marta,city,"Santa Marta, Colombia",Colombia
19100,-96.7617535,32.819858499999995,Kimberly Meixner,304784753,2020-03-27 16:46:18,"Texas, USA",city,"Dallas, TX",United States
178,31.006542,-29.701609,Mzwa,304784758,2020-02-21 19:20:18,"South Africa, Durban",city,"Phoenix, South Africa",South Africa
175,46.685077,24.7219435,Abosaleem,304784924,2020-02-15 04:16:05,RIYADH ,city,",   ",  
65,-0.50631166,42.81004843,scar-ngel JV,3047850309,2020-02-15 14:59:58,,city,"Jaca, Espaa",Espaa
186,-0.283333,42.5667,scar-ngel JV,3047850309,2020-02-16 13:32:32,,city,"Biescas, Espaa",Espaa
65,-0.50631166,42.81004843,scar-ngel JV,3047850309,2020-02-19 15:54:19,,city,"Jaca, Espaa",Espaa
186,-0.283333,42.5667,scar-ngel JV,3047850309,2020-02-22 12:23:16,,city,"Biescas, Espaa",Espaa
65,-0.50631166,42.81004843,scar-ngel JV,3047850309,2020-02-24 11:34:00,,city,"Jaca, Espaa",Espaa
186,-0.41299300000000005,42.779106,scar-ngel JV,3047850309,2020-02-28 18:24:36,,city,"Sallent de Gllego, Espaa",Espaa
65,-0.50631166,42.81004843,scar-ngel JV,3047850309,2020-03-08 10:35:47,,city,"Jaca, Espaa",Espaa
186,-0.36843000000000004,42.51871,scar-ngel JV,3047850309,2020-03-15 09:14:49,,city,"Sabinigo, Espaa",Espaa
65,-0.48549847,42.79124887,scar-ngel JV,3047850309,2020-03-24 12:42:38,,city,"Canfranc, Espaa",Espaa
186,-0.283333,42.5667,scar-ngel JV,3047850309,2020-03-29 16:21:31,,city,"Biescas, Espaa",Espaa
18140,-82.985772,39.9946835,Anthony Wilson,3047850531,2020-03-09 11:52:49,"Pickerington, OH",city,"Columbus, OH",United States
31080,-118.16783000000001,34.161848,Tamlyn,304785095,2020-03-27 00:55:57,"Pasadena, CA",poi,Rose Bowl Stadium,United States
175,50.115660999999996,26.401518,K H A L E D .,3047851218,2020-02-19 08:13:16,AL KHOBAR,poi,Starbucks New,  
19100,-97.11477049999999,33.202495500000005,Michelle Epperson,304785139,2020-02-27 19:23:01,"Denton, TX",city,"Denton, TX",United States
21,-43.018208,-22.821465,VELOZO ,3047851562,2020-02-15 00:46:59,"Salgueiro, So Gonalo",city,"So Gonalo, Brasil",Brasil
25940,-80.6718,32.4309,*SHAKIA*,304785198,2020-05-30 18:16:42,In the 843,city,"Beaufort, SC",United States
41860,-122.0772753,37.9828063,*SHAKIA*,304785198,2020-06-10 13:23:51,In the 843,city,"Pacheco, CA",United States
21,-46.97291065,-23.15113346,Massayoshi Idehama,304785422,2020-04-18 17:41:56,Brazil,city,"Jundia, Brasil",Brasil
21,-43.441578,-22.911421500000003,Daniel fabregas,3047854274,2020-04-22 09:48:02,"Ro de Janeiro, Brasil",city,"Ro de Janeiro, Brasil",Brasil
200,30.680889,36.89007,marim,3047854662,2020-04-04 16:47:29,,city,"Antalya, Trkiye",Trkiye
41860,-122.10191100000002,37.651720000000005,ya boi Jion Penalosa,3047855089,2020-03-01 02:03:14,sjsu,poi,Southland Mall,United States
16100,-104.258061,32.44216,Geryon's Passage,3047855130,2020-02-22 04:12:02,"Austin, TX",poi,Starbucks Booth,United States
12420,-97.754724,30.3233455,Geryon's Passage,3047855130,2020-02-24 20:09:07,"Austin, TX",city,"Austin, TX",United States
17780,-96.2916485,30.5854715,Geryon's Passage,3047855130,2020-04-10 00:50:04,"Austin, TX",city,"College Station, TX",United States
12420,-97.672732,30.519340500000002,Geryon's Passage,3047855130,2020-04-20 06:51:56,Big blue ball in space.,city,"Round Rock, TX",United States
193,100.732075,13.631757,Mihoko Chida,30478555,2020-02-20 04:22:05,"Bangkok, Thailand",poi,Verso Construction Site,Thailand
47260,-76.45965274,37.03165184,~LaLa~,304785556,2020-02-29 21:25:08,"Hampton Roads, VA",city,"Newport News, VA",United States
222,106.774506,-6.185601999999999,Sondang Elysabeth Manurung,304785572,2020-02-25 13:52:18,@jakarta ,city,"Kebon Jeruk, Indonesia",Indonesia
193,100.48931315,13.961847800000001, .,304785579,2020-02-16 11:21:59,thailand,city,", ",
38060,-111.7375655,33.4057545,Bri,3047856131,2020-02-17 22:47:20,AZ  NC,city,"Mesa, AZ",United States
38940,-80.2918455,27.165487,Bri,3047856131,2020-02-27 15:50:58,AZ  NC,city,"Palm City, FL",United States
38060,-112.1246765,33.5528625,Bri,3047856131,2020-03-03 03:57:35,AZ  NC,city,"Phoenix, AZ",United States
16740,-80.8467855,35.209059,Bri,3047856131,2020-03-10 14:39:15,AZ  NC,city,"Charlotte, NC",United States
26420,-95.4464865,29.838495,Bri,3047856131,2020-03-19 15:20:08,AZ  NC,city,"Houston, TX",United States
38060,-112.1246765,33.5528625,Bri,3047856131,2020-03-19 19:40:38,AZ  NC,city,"Phoenix, AZ",United States
16740,-80.86455649999998,35.56843449999999,bri,3047856131,2020-05-30 03:02:46,AZ  NC,city,"Mooresville, NC",United States
14380,-81.678363,36.13316,bri,3047856131,2020-06-02 00:06:06,AZ  NC,poi,Blowing Rock Memorial Park,United States
119,-96.0989905,19.1431005,Mariana,304785644,2020-04-15 21:21:21,,city,"Boca del Ro, Veracruz de Ignacio de la Llave",Mxico
21,-51.50559991,-27.17196986,Crix,3047857236,2020-03-05 23:21:59,"Joaaba, Brasil",city,"Joaaba, Brasil",Brasil
40060,-77.35736499999999,37.6233055,Andrew,3047857422,2020-02-14 03:05:24,"Mechanicsville, VA",city,"Mechanicsville, VA",United States
38,-74.89925699999999,10.9981905,EL NEGRO ANTONIO P,304785911,2020-03-03 21:10:13,,city,"Puerto Colombia, Colombia",Colombia
32580,-98.18964799999999,26.167904500000002,the cooler wesley,3047859254,2020-02-14 06:39:45,Astral plane,city,"Pharr, TX",United States
35620,-73.6630765,41.3931495,kathleen risse ,3047861210,2020-03-27 15:56:13,"New York, USA",city,"Carmel Hills, NY",United States
38900,-123.191617,45.212448,Claudia Little,3047861216,2020-05-27 20:19:05,,city,"McMinnville, OR",United States
38900,-122.791854,45.424871,Royce Markley,304786229,2020-02-15 19:16:05,"Eugene, OR",city,"Tigard, OR",United States
18700,-123.359279,44.5430225,Royce Markley,304786229,2020-02-22 21:55:45,"Eugene, OR",city,"Philomath, OR",United States
38900,-122.791854,45.424871,Royce Markley,304786229,2020-03-01 17:19:38,"Eugene, OR",city,"Tigard, OR",United States
18700,-123.359279,44.5430225,Royce Markley,304786229,2020-03-30 05:18:16,"Eugene, OR",city,"Philomath, OR",United States
38900,-122.791854,45.424871,Royce Markley,304786229,2020-04-15 16:21:43,"Eugene, OR",city,"Tigard, OR",United States
18700,-123.359279,44.5430225,Royce Markley,304786229,2020-04-19 15:03:05,"Eugene, OR",city,"Philomath, OR",United States
38900,-122.791854,45.424871,Royce Markley,304786229,2020-04-20 15:32:54,"Eugene, OR",city,"Tigard, OR",United States
10540,-123.095999,44.6311335,Royce Markley,304786229,2020-05-03 00:20:32,"Eugene, OR",city,"Albany, OR",United States
38900,-122.791854,45.424871,Royce Markley,304786229,2020-05-04 23:23:10,"Eugene, OR",city,"Tigard, OR",United States
18700,-123.359279,44.5430225,Royce Markley,304786229,2020-05-08 22:29:27,"Eugene, OR",city,"Philomath, OR",United States
38900,-122.791854,45.424871,Royce Markley,304786229,2020-05-12 21:39:15,"Eugene, OR",city,"Tigard, OR",United States
18700,-123.359279,44.5430225,Royce Markley,304786229,2020-05-16 22:20:42,"Eugene, OR",city,"Philomath, OR",United States
38900,-122.791854,45.424871,Royce Markley,304786229,2020-05-19 17:26:07,"Eugene, OR",city,"Tigard, OR",United States
18700,-123.359279,44.5430225,Royce Markley,304786229,2020-05-26 04:32:55,"Eugene, OR",city,"Philomath, OR",United States
38900,-122.791854,45.424871,Royce Markley,304786229,2020-06-11 04:38:50,"Eugene, OR",city,"Tigard, OR",United States
222,112.10261399999999,-7.127165,Nailun Nadhifah,3047863598,2020-04-29 07:35:56,"Bojonegoro, Indonesia",city,"Baureno, Indonesia",Indonesia
35380,-90.01100799999999,29.982601000000003,"Ciara, M.Ed.",30478651,2020-02-14 03:41:41,The410,city,"New Orleans, LA",United States
20500,-78.8954405,35.9909825,GOLDY BASS,304786543,2020-02-23 02:08:14,"Mechanicsville, VA",city,"Durham, NC",United States
16820,-78.506863,38.046078,GOLDY BASS,304786543,2020-03-01 00:57:30,"Mechanicsville, VA",poi,John Paul Jones Arena,United States
40060,-77.4677235,37.6370075,GOLDY BASS,304786543,2020-03-02 20:43:08,"Mechanicsville, VA",city,"Glen Allen, VA",United States
171,120.488238,16.044073,Franzel,304786551,2020-03-01 04:47:46,"Baguio, City",poi,Minor Basilica of Our Lady of the Most Holy Rosary of Manaoag,Republic of the Philippines
35620,-73.97789955,40.75837531,Emilio,304786558,2020-02-25 22:50:23,"Nashville, TN",city,"Manhattan, NY",United States
34980,-86.7837,36.1651,Emilio,304786558,2020-03-21 04:01:41,"Nashville, TN",city,"Nashville, TN",United States
88,139.6735625,35.76839800000001,,304786570,2020-03-02 10:16:51,,city, ,
200,29.2659245,40.648469,Ersoy Koak,3047866163,2020-02-16 21:47:20,,city,"Yalova, Trkiye",Trkiye
2,2.902029,35.448926,Ahmed Nazergui,3047866459,2020-05-19 23:03:53,Ain Oussera,city,"Ain Oussera                                                                                         , Algeria",
91,36.863620000000004,-1.2748635,Abdikadir Suleiman,3047866833,2020-02-27 10:17:20,"Nairobi, Kenya",city,"Nairobi, Kenya",Kenya
171,120.9839865,14.5914565,Amrit ,304786689,2020-02-29 10:54:24,LGN  Taguig,city,"Manila City, National Capital Region",Republic of the Philippines
38,-76.215424,3.8503355000000004,Gisela Zapateiro,304786869,2020-05-03 01:20:14,"Guadalajara de Buga, Colombia",city,"Guadalajara de Buga, Colombia",Colombia
31080,-118.48042,34.022688,Mr Suave,30478697,2020-02-18 23:19:28,** Nyc to Towson to LA**,city,"Santa Monica, CA",United States
178,28.0153,-25.6121,Marubini David,3047870892,2020-05-23 22:25:19,,poi,Sefako Makgatho Health Sciences University,South Africa
16980,-87.732013,41.8335845,emily hanes,3047870941,2020-03-16 14:16:33,,city,"Chicago, IL",United States
21,-43.441578,-22.911421500000003,Anna Beatriz,3047871157,2020-02-14 00:44:27,Beverly rios,city,"Rio de Janeiro, Brasil",Brasil
24,-79.27256949999999,43.629311,BJ Barone,3047871563,2020-02-19 00:24:07,"Toronto, Ontario",city,"Toronto, Ontario",Canada
57,11.3790075,47.285018,Palolila,304787172,2020-04-09 22:30:17,,city,"Innsbruck, Austria",Austria
19780,-93.79814,41.537073,West Grand Golf,30478719,2020-03-04 22:07:30,"West Des Moines, Iowa",poi,West Grand Golf,United States
71,12.148154,52.339057000000004,Justin :D,3047872048,2020-04-29 12:54:16,"Genthin, Deutschland",city,"Genthin, Deutschland",Deutschland
119,-99.398748,19.148777,Lillian  MH,3047872435,2020-02-14 01:35:20,Mexico,city,"Tianguistenco, Mxico",Mxico
35380,-90.01100799999999,29.982601000000003,Byrone Cole,3047874146,2020-02-26 02:00:10,,city,"New Orleans, LA",United States
39300,-71.4218325,41.817084,Norman J. Gomez,304787484,2020-02-14 02:35:05,"Providence, RI",city,"Providence, RI",United States
186,-3.7035075,40.4777945,NinaDod,304787533,2020-02-20 16:44:40,,city,"Madrid, Espaa",Espaa
164,-9.159995,38.743614,NinaDod,304787533,2020-04-27 19:21:43,,city,"Lisboa, Portugal",Portugal
186,-3.7035075,40.4777945,NinaDod,304787533,2020-05-05 11:27:39,,city,"Madrid, Espaa",Espaa
13820,-86.74377799999998,33.3603145,Jacob Garrett,3047876079,2020-03-26 22:20:40,"Birmingham, AL",city,"Indian Springs Village, AL",United States
18260,-85.51020700000002,36.1395275,Jose Antonio Magaa,3047878735,2020-06-07 14:56:19,,city,"Cookeville, TN",United States
21,-54.065668,-31.245439500000003,,30478802,2020-02-14 02:56:16,Bag/Rs,city,"Bag, Brasil",Brasil
21,-42.879706,-22.2970745,Ludmylla,3047881468,2020-02-29 02:32:04,"Terespolis, Brasil",city,"Terespolis, Brasil",Brasil
31080,-118.4119065,34.0207895,FAED,3047882622,2020-02-19 21:59:22,LV/LA,city,"Los Angeles, CA",United States
29820,-115.223125,36.232915000000006,FAED,3047882622,2020-02-27 21:22:46,LV/LA,city,"Las Vegas, NV",United States
31080,-118.4119065,34.0207895,FAED,3047882622,2020-03-04 23:17:33,LV/LA,city,"Los Angeles, CA",United States
65,2.347003,48.8588335,FAED,3047882622,2020-05-20 21:17:36,LV/LA,city,"Paris, France",France
31080,-118.4119065,34.0207895,FAED,3047882622,2020-05-27 19:52:07,LV/LA,city,"Los Angeles, CA",United States
29820,-115.223125,36.232915000000006,FAED,3047882622,2020-06-10 22:21:49,LV/LA,city,"Las Vegas, NV",United States
41740,-117.16193700000001,32.706747,"Steve Johnson, Ph.D.",3047884188,2020-02-14 00:13:32,"Lisbon, ND",poi,San Diego Convention Center,United States
22020,-97.951724,46.398606,"Steve Johnson, Ph.D.",3047884188,2020-02-16 22:06:40,"Lisbon, ND",poi,Englevale Slough,United States
205,-1.2334334999999998,51.75428599999999,Tim,3047885042,2020-04-22 10:27:05,,city,"Oxford, England",United Kingdom
38,-74.056297,4.8365725,Yolima Rojas,304788517,2020-03-19 04:06:48,Bogot,city,"Cha, Colombia",Colombia
33460,-93.2759195,44.7726875,Josh M,304788570,2020-04-02 20:32:52,,city,"Burnsville, MN",United States
16,17.377558999999998,44.490123,Optimus Prime,3047885853,2020-05-04 14:25:28,Republika Srpska,poi,Knezevo,Bosna i Hercegovina
29100,-91.209121,43.8056435,Jack McHugh-sake,3047886168,2020-04-03 01:02:40,"La Crosse, WI",city,"La Crosse, WI",United States
164,-8.609668,40.885956500000006,Danilo Boss,3047886386,2020-02-25 11:32:16,"Ovar, Portugal",city,"Ovar, Portugal",Portugal
100,22.37295701,56.60031202,Danilo Boss,3047886386,2020-05-17 12:31:13,"Ovar, Portugal",city,"Novadnieki, Latvija",Letnia
164,-8.609668,40.885956500000006,Danilo Boss,3047886386,2020-05-18 12:33:06,"Ovar, Portugal",city,"Ovar, Portugal",Portugal
186,-2.634086,39.440559500000006,Roooooodri,3047886596,2020-02-18 10:44:00,Detras de un sueo ,city,"Las Pedroeras, Espaa",Espaa
85,10.1538295,43.5077595,Gino Demi,3047887129,2020-03-26 09:43:19,Livorno,city,"Livorno, Tuscany",Italy
178,28.060613,-26.058708,Coffee Conversations Host ,30478877,2020-02-23 09:59:33,GOD's thoughts!,city,"Sandton, South Africa",South Africa
173,127.507548,50.258352, ,3047887765,2020-05-09 07:46:20,,poi,,
171,121.1242275,14.606717499999998,Hannah Francesca,304788819,2020-02-18 13:56:04,Philippines,city,"Cainta, Calabarzon",Republic of the Philippines
205,-1.449612,53.3831645,Aaron,3047888366,2020-05-28 18:13:26,,city,"Sheffield, England",United Kingdom
163,-79.51986,9.083943,Marcos Gutierrez,304788903,2020-03-12 04:23:34,Praderas Del Rocio! ,poi,Praderas del Rocio,Panam
205,-0.159403,51.5424365,Lee Blowers,3047889564,2020-02-14 07:16:42,"London, England",city,"Camden Town, London",United Kingdom
51,-6.2357200000000015,53.494598,Lee Blowers,3047889564,2020-02-27 16:48:18,"London, England",city,"Fingal, Ireland",Ireland
205,-0.159403,51.5424365,Lee Blowers,3047889564,2020-03-01 18:12:28,"London, England",city,"Camden Town, London",United Kingdom
42200,-119.83096,34.43862,Bona Fide Brewing,3047889618,2020-03-02 17:38:18,"Goleta, CA",city,"Goleta, CA",United States
36380,-80.732775,27.359371999999997,lin z,3047890831,2020-03-09 23:33:28,,poi,Sunshine Grove,United States
35840,-82.3504015,26.963128499999996,lin z,3047890831,2020-03-23 17:30:21,,city,"Englewood, FL",United States
15980,-81.79754199999998,26.423084000000003,lin z,3047890831,2020-04-01 16:38:33,,city,"Estero, FL",United States
119,-111.498181,28.9698625,Fernanda Villarreal,3047890862,2020-02-14 03:10:00,,city,"Hermosillo, Sonora",Mxico
205,-0.33394250000000003,53.765817000000006,Nik Kerins,3047891400,2020-02-15 19:07:51,,city,"Hull, England",United Kingdom
35620,-74.007329,40.746635,tori  | HOSEOK EVENT PINNED!,3047893071,2020-02-14 22:30:22,NYC bts x8; txt x1 ; k ,poi,David Zwirner Gallery,United States
200,36.731052000000005,40.870583,Erdal etinkaya,3047894978,2020-05-27 08:09:35,,poi,Grgenliyatak Ky,Trkiye
119,-99.655676,19.2843215,MIREY .COM,3047895187,2020-04-25 15:54:18,"Metepec, Mxico",city,"Toluca, Mxico",Mxico
38300,-80.092364,40.388596,Chas Hoffmann,304789522,2020-02-14 02:55:34,,city,"Scott Township, PA",United States
24,-73.723025,45.5578305,Mohamadi Tapsoba,3047895872,2020-03-03 17:02:19,"Montral, Qubec",city,"Montral, Qubec",Canada
19100,-96.7977,32.7774,George,304789606,2020-03-19 23:14:32,"Manhattan, NY",city,"Dallas, TX",United States
186,-3.791864,40.2887025,Justo Montero Diaz,3047897079,2020-04-19 11:14:13,"Fuenlabrada, Comunidad de Madr",city,"Fuenlabrada, Espaa",Espaa
40140,-114.299444,34.146477000000004,Hannah,3047898674,2020-04-23 20:47:39,,city,"Parker, AZ",United States
128,3.2249,51.2085,Nastassja Bolivar,304789870,2020-02-25 17:44:39,,city,"Bruges, Belgium",Belgium
119,-99.19482531,19.42466465,Nastassja Bolivar,304789870,2020-03-06 05:06:16,,city,"Miguel Hidalgo, Distrito Federal",Mexico
31080,-118.4026,33.8873,Remedy,3047898739,2020-06-07 02:39:59,chicago ,city,"Manhattan Beach, CA",United States
151,3.3386055,6.4931125000000005,Dauda Quadri Sneh,3047898923,2020-02-15 21:28:05,Lagos nigeria,city,"Lagos, Nigeria",Nigeria
31080,-118.48042,34.022688,Josh Anolik,304789944,2020-02-16 08:54:57,,city,"Santa Monica, CA",United States
47900,-77.02409499999999,38.878686,Josh Anolik,304789944,2020-02-20 20:29:38,,poi,Union Stage,United States
41740,-117.10498899999999,32.810012,Josh Anolik,304789944,2020-02-26 19:47:15,,city,"San Diego, CA",United States
47900,-77.0143985,38.898603,Josh Anolik,304789944,2020-05-31 05:02:39,,city,"Washington, DC",United States
82,75.89291300000001,30.794095000000002,brown_blogger,304790026,2020-02-26 08:45:49,"Chandigarh, India",city,"Ludhiana, India",India
158,176.86886399999997,-39.479329,koruenterprises,3047900942,2020-02-14 00:54:41,Ahuriri/Aotearoa/NZ,city,"Napier City, New Zealand",New Zealand
119,-99.59088967,19.25919431,Mane,304790112,2020-04-18 00:56:25,"Toluca, Mexico",city,"Metepec, Mxico",Mxico
205,-2.5933005000000002,53.38260800000001,Richard Chinn,3047901350,2020-02-15 08:26:07,warrington,city,"Warrington, England",United Kingdom
186,-3.7241699999999995,40.428329999999995,Reme,304790205,2020-02-16 09:13:27,Madrid,city,"Madrid, Espaa",Espaa
37420,-100.386349,35.908944,JenniferPMills,3047902328,2020-04-01 23:26:11,Texas,city,"Canadian, TX",United States
9,147.37352149999995,-42.8347495,,3047905182,2020-04-03 21:42:28,,city,"Hobart, Tasmania",Australia
193,100.723061,13.806602499999999,Czar Geronimo ,304790640,2020-02-25 02:42:29,"Min Buri, Bangkok",city,"Min Buri, Thailand",Thailand
33100,-80.075358,26.788677500000002,Ronniedoe,3047906539,2020-05-26 17:31:29,"West Palm Beach, FL",city,"Riviera Beach, FL",United States
21,-43.441578,-22.911421500000003,,3047906700,2020-06-08 00:06:49,zn,city,"Rio de Janeiro, Brasil",Brasil
17820,-104.789327,38.888518499999996,Craig Eric,304790996,2020-02-23 02:30:07,"Fort Carson, CO",city,"Colorado Springs, CO",United States
189,12.934894,55.579857499999996,Tammam Hunidy,3047910006,2020-05-14 15:29:42,Sweden,city,"Malmo, Sweden",Sweden
21,-43.0596095,-22.904549000000006,@joleanletto,3047913858,2020-03-02 06:17:47,Niteri ,city,"Niteri, Brasil",Brasil
50,31.730576,31.402001000000002,,3047913927,2020-06-04 00:34:52,"Domiat, Egypt",poi,New Damietta Beach,Egypt
10420,-81.3511495,41.311988,MorelandConnect,304791601,2020-02-26 01:38:00,Hudson,city,"Aurora, OH",United States
88,139.03981000000002,37.90201,@2/12,3047917146,2020-02-15 06:18:27,,city,  ,
12700,-70.0364,41.702956,Liz Kenny,30479176,2020-02-19 12:52:59,USA,city,"East Harwich, MA",United States
200,29.0052225,41.0213205,Erv Betl,3047918097,2020-02-17 19:46:13,,city,"stanbul, Trkiye",Trkiye
151,4.566669999999999,7.7666699999999995,Henry Olamilekan Ojo,304791830,2020-03-26 06:35:21,Nigeria,city,"Oshogbo, Nigeria",Nigeria
33460,-93.224306,45.261902,Chris Wallin,3047919282,2020-02-25 22:13:20,,city,"Ham Lake, MN",United States
14660,-94.52885699999999,46.979516,Chris Wallin,3047919282,2020-05-23 03:50:03,,poi,Ten Mile Lake,United States
9,150.931975,-33.848244,aim high,304792012,2020-02-16 16:55:25,"Sydney, New South Wales",city,"Sydney, New South Wales",Australia
26900,-86.34023450000002,39.601138,Tyler Anderson,3047920932,2020-02-17 16:14:02,,city,"Mooresville, IN",United States
240,-2.0968365,49.187012,jersey_forex,3047921604,2020-03-10 15:48:04,jersey uk,city,"Saint Helier, Bailiwick of Jersey",United Kingdom
45300,-82.79335999999999,27.797871,Joseph Sileo,3047921916,2020-03-12 17:25:57,"Dacula, GA",city,"Madeira Beach, FL",United States
163,-79.511566,9.014641000000001,Felix A.,304792221,2020-03-29 20:35:19,,poi,Lavanderia Torres del Sol,Panam
205,-1.13936,53.517648,AR,3047922438,2020-06-03 22:44:17,,city,"Doncaster, England",United Kingdom
20500,-79.02601999999997,35.91944150000001,Mike Gilchrist,3047923098,2020-02-14 13:04:22,"Chapel Hill, NC USA",city,"Chapel Hill, NC",United States
41540,-75.60057599999998,38.3604215,Mike Gilchrist,3047923098,2020-03-08 11:48:09,USA,city,"Salisbury, MD",United States
20500,-79.02601999999997,35.91944150000001,Mike G,3047923098,2020-03-26 20:27:23,USA,city,"Chapel Hill, NC",United States
200,29.0052225,41.0213205,serbay patanolu,3047923509,2020-03-13 13:23:07,,city,"stanbul, Trkiye",Trkiye
28140,-94.5592815,39.1000485,Rocketman,304792369,2020-03-17 21:59:47,,city,"Kansas City, MO",United States
38,-74.849933,10.958072999999999,P  O  N  C  H  O.,3047924336,2020-02-16 06:00:08,killa,city,"Barranquilla, Colombia",Colombia
26420,-95.4464865,29.838495, ,3047924360,2020-02-14 02:49:03,"Houston, TX",city,"Houston, TX",United States
171,121.0627355,14.683012,Tan,3047924564,2020-03-28 23:22:09,"Toronto, Ontario",city,"Quezon City, National Capital Region",Republic of the Philippines
24,-79.27256949999999,43.629311,Tan,3047924564,2020-03-29 12:43:29,"Toronto, Ontario",city,"Toronto, Ontario",Canada
8,-60.778806,-31.6753875,K1000a ,304792540,2020-03-26 16:41:27,"Santa Fe, Argentina",city,"Santo Tom, Argentina",Argentina
31080,-117.7063095,33.529449,Mike Brockington,304792779,2020-02-23 23:19:00,"Laguna Niguel, CA",city,"Laguna Niguel, CA",United States
31080,-118.131964,34.17731,charles,3047927948,2020-02-24 02:45:05,Sprouts Farmers Market,city,"Pasadena, CA",United States
40140,-117.39761599999999,33.935821999999995,charles,3047927948,2020-03-21 23:56:40,Sprouts Farmers Market,city,"Riverside, CA",United States
19100,-96.72315,32.91588,Misty Wilson,3047928289,2020-03-14 02:40:25,,poi,Aikin Elementary School,United States
152,4.904053500000001,52.354728,flik,3047928524,2020-02-27 10:20:09,manc,city,"Amsterdam, The Netherlands",The Netherlands
11,-59.624248,13.123775,Young.Simba ,304792896,2020-04-03 11:53:16,DreamVille,poi,Carlton Supermarket,Barbados
29820,-115.174107,36.11736,Emma Mikulecky,30479298,2020-02-29 07:19:27,"Fort Worth, TX",poi,OMNIA Nightclub,United States
32300,-79.8973385,36.695883,Rev. Dr. Adam Woods,3047930108,2020-02-14 23:08:25,"Danville, VA",city,"Villa Heights, VA",United States
19260,-79.418222,36.607196,Rev. Dr. Adam Woods,3047930108,2020-02-17 04:09:26,"Danville, VA",city,"Danville, VA",United States
34820,-78.878866,33.703390500000005,Rev. Dr. Adam Woods,3047930108,2020-03-01 09:04:31,"Danville, VA",city,"Myrtle Beach, SC",United States
32300,-79.9020855,36.727375,Rev. Dr. Adam Woods,3047930108,2020-03-02 20:46:29,"Danville, VA",city,"Collinsville, VA",United States
19260,-79.418222,36.607196,Rev. Dr. Adam Woods,3047930108,2020-03-02 23:08:59,"Danville, VA",city,"Danville, VA",United States
32300,-79.8563,36.6622065,Rev. Dr. Adam Woods,3047930108,2020-03-13 19:40:16,"Danville, VA",city,"Martinsville, VA",United States
19260,-79.418222,36.607196,Rev. Dr. Adam Woods,3047930108,2020-03-17 04:01:08,"Danville, VA",city,"Danville, VA",United States
35620,-73.9487755,40.655138,winteriscoming,304793033,2020-02-21 06:12:42,,city,"Brooklyn, NY",United States
21,-60.0253,-3.11333,Suzana Compton,3047931167,2020-04-30 14:32:55,Manaus,city,"Manaus, Brasil",Brasil
119,-92.3094495,14.920495,Noe Garcia Mnoz MESAS,3047931294,2020-02-22 04:40:37,"Tapachula, Chiapas",city,"Tapachula, Chiapas",Mxico
200,28.587059999999997,41.025028000000006,Aysegul SAGLAM ,3047931494,2020-04-16 09:59:37,,poi,beevler,Trkiye
205,0.11288699999999999,50.764767,Sean Lamb,3047931974,2020-02-18 16:56:58,"Brighton, England",poi,Seaford Head Golf Club,United Kingdom
38,-72.143764,5.221706,Villamil Torres,304793215,2020-04-21 22:40:18,Colombia,city,"Yopal, Colombia",Colombia
21,-48.3585835,-19.0043915,Gabriela,3047932481,2020-04-16 02:36:41,,city,"Uberlndia, Brasil",Brasil
38860,-70.29254499999999,43.696187,Goo,304793271,2020-06-02 00:45:17,"Portland, Maine",city,"Portland, ME",United States
47900,-77.48328799999999,38.298065,taylaaa,3047932944,2020-02-14 06:30:00,California dreamin,city,"Fredericksburg, VA",United States
33,-72.3062755,-35.359774,crypno,3047932951,2020-02-19 12:34:27,"Santiago, Chile",city,"Constitucin, Chile",Chile
40140,-117.34812350000001,34.4964265,bree,3047935622,2020-02-15 05:22:54,"California, USA",city,"Mountain View Acres, CA",United States
31080,-117.9248925,33.8893475,bree,3047935622,2020-02-17 16:16:30,"California, USA",city,"Fullerton, CA",United States
40140,-117.294096,34.134925,bree,3047935622,2020-02-24 21:27:32,"California, USA",city,"San Bernardino, CA",United States
186,-3.703471,40.420417,sani,3047936017,2020-03-11 18:19:02,,poi,Primark,Spain
14260,-116.206696,43.613274,*!!+kort*++!,3047937074,2020-02-21 18:50:53,,poi,9th St Parallel,United States
39140,-111.78712,34.8582795,  ,304793710,2020-05-16 18:53:13,"Flagstaff, Arizona",city,"Sedona, AZ",United States
31080,-118.131964,34.17731,  ,304793710,2020-05-16 20:39:37,"Flagstaff, Arizona",city,"Pasadena, CA",United States
71,9.3726795,53.6798865,Matthias,3047937743,2020-02-16 12:25:03,Around the world,city,"Hamburg, Deutschland",Deutschland
8,-58.41987192,-34.58615041,Nicols Luna,304793903,2020-02-29 12:55:00,,city,"Ciudad Autnoma de Buenos Aires, Argentina",Argentina
88,139.467769,35.8999355,Gabrielle,304793952,2020-05-30 13:23:35,"Saitama-ken, Japan",city,"Kawagoe-shi, Saitama",Japan
47260,-76.2958955,36.7632155,Mr. August10th,304794068,2020-02-14 13:45:11,United States,city,"Chesapeake, VA",United States
27180,-89.00075,35.261306,Stacey,304794142,2020-05-16 18:47:02,Tennessee,city,"Bolivar, TN",United States
205,-1.4938255,51.7875995,Abby Jones,3047941536,2020-03-07 02:22:54,"Witney, England",city,"Witney, England",United Kingdom
82,80.88440750000002,26.8251695,Yogendra pratap sing,3047942508,2020-03-06 17:04:56,lucknow,city,", ",
171,120.9839865,14.5914565,Ja Aquino,304794458,2020-02-20 04:45:34,"Lanham, MD",city,"Manila City, National Capital Region",Republic of the Philippines
40140,-116.3348765,34.127415500000005,Stephen Smigielski,304794477,2020-02-15 02:08:33,"Los Angeles, CA",city,"Joshua Tree, CA",United States
19820,-83.494088,42.48158,Stephen Smigielski,304794477,2020-03-01 20:25:37,"Los Angeles, CA",city,"Novi, MI",United States
34940,-81.791977,26.152407500000002,Stephen Smigielski,304794477,2020-05-03 21:33:28,"Michigan, USA",city,"Naples, FL",United States
19820,-83.494088,42.48158,Stephen Smigielski,304794477,2020-06-08 16:43:11,"Michigan, USA",city,"Novi, MI",United States
26420,-95.4322145,29.022915500000003, ,304794623,2020-03-19 00:09:09,,city,"Lake Jackson, TX",Estados Unidos
21,-49.134442,-15.297379000000001,Flavia Raniele,3047946281,2020-02-15 14:55:59,,city,"Goiansia, Brasil",Brasil
18140,-82.98994,39.96117,Victoria Holt,3047946528,2020-03-07 18:39:30,,city,"Columbus, OH",United States
47900,-77.017442,38.657871500000006,ChrissyPooh,304794663,2020-04-21 19:51:59,,city,"Accokeek, MD",United States
71,7.213800999999999,51.273283,Maarten Kors,3047947619,2020-02-22 13:14:19,Frysln,poi,H Wupperfeld (Schwebebahn),Duitsland
152,5.5007470000000005,52.855978,Maarten Kors,3047947619,2020-02-26 20:17:06,Frysln,city,"Gaasterln-Sleat, Nederland",Nederland
16980,-87.732013,41.8335845,RICHARD,304794790,2020-02-14 18:41:41,"Chicago, IL",city,"Chicago, IL",United States
21,-34.939349,-8.043603,Luquet,3047948916,2020-03-10 13:07:15,,city,"Recife, Brasil",Brasil
31080,-118.1632765,34.685827,StEpH,3047949522,2020-02-21 21:47:52,,city,"Lancaster, CA",United States
41740,-117.320879,33.226316,StEpH,3047949522,2020-06-02 05:38:56,,city,"Oceanside, CA",United States
200,35.387892,37.002315,16k...,3047949709,2020-03-03 13:50:58,omw,city,"Saram, Trkiye",Turkey
31080,-118.4119065,34.0207895,frank,3047950171,2020-02-14 00:29:08,,city,"Los Angeles, CA",United States
222,115.26009850000001,-8.3947865,BabaWiradharma,304795036,2020-03-19 09:36:57,Ubud - Bali,city,"Payangan, Indonesia",Indonesia
88,139.6196645,35.936224,Daisuke_Matsuzawa,304795105,2020-05-02 11:19:48,,city,  ,
222,104.1061725,1.0902715,Tarmizi Hamid,3047951558,2020-06-09 08:22:07,Singapore,city,"Nongsa, Indonesia",Indonesia
33,-72.166774,-36.625475,Carlos Quiroga,304795198,2020-04-11 21:00:48,El Mundo ,city,"Chilln, Chile",Chile
21,-43.959822499999994,-19.918692,priscila,3047952997,2020-02-14 01:48:44,,city,"Belo Horizonte, Brasil",Brasil
119,-100.270474,25.736715,Angelo Arriaga,30479530,2020-02-15 08:19:43,"Monterrey, Mxico",city,"San Nicols de los Garza, Nuevo Len",Mxico
200,30.550739,37.769336,SD Gen Yeilay,3047954086,2020-02-27 17:54:10,Isparta,city,"Isparta, Trkiye",Trkiye
21,-49.2884605,-25.4952495,Le,3047954225,2020-02-15 06:40:03,,city,"Curitiba, Brasil",Brasil
205,-0.452984,51.9935055,Suzanne white,3047954396,2020-04-04 09:03:57,,city,"Pulloxhill, England",United Kingdom
38,-73.4704055,4.0882915,Felipe Corts,304795471,2020-04-13 15:57:38,Villavicencio,city,"Villavicencio, Colombia",Colombia
175,39.809784,21.440206,Tona..,3047955721,2020-02-27 04:46:46," ,   ",poi,Umm Al-Qura  ,  
222,110.7366,-7.5505,Remaja Blumbangrejo,304795595,2020-03-14 04:33:53,"Surakarta, Jawa Tengah",city,"Kartosuro, Indonesia",Indonesia
119,-99.0170165,19.432722000000002,ngel,3047956026,2020-03-20 04:02:35,"Nezahualcyotl, Mxico",city,"Nezahualcyotl, Mxico",Mxico
200,32.567358,39.9647495,mihriban iman,3047956041,2020-02-28 15:42:42,"Kahramanmara, Trkiye",city,"Sincan, Trkiye",Trkiye
171,122.5497035,10.7294185,Taong Grasa,304795652,2020-03-22 00:29:56,"Tagaytay, City-Iloilo, City ",city,"Iloilo City, Western Visayas",Republic of the Philippines
205,-4.2417515,55.85830249999999,M E G A N  ,3047956565,2020-05-29 02:35:02,"Glasgow, Scotland",city,"Glasgow, Scotland",United Kingdom
40060,-77.39182650000002,37.208034000000005,DomiWomi,3047956659,2020-02-22 16:27:17,"Richmond, Va",city,"Petersburg, VA",United States
88,133.4426825,35.3199135,,3047957144,2020-02-18 10:56:42,,city, ,
46060,-110.91557350000001,32.1893905,Esther,304795742,2020-04-07 20:56:59,,city,"Tucson, AZ",United States
88,139.69159283,35.69118863,,304795839,2020-02-24 10:24:18,,city, ,
42700,-81.45633149999999,27.491996500000003,Terri Perry,30479589,2020-02-14 00:31:42,Florida,city,"Sebring, FL",United States
21,-48.5022799,-1.4663075,Xikamaru Nara,3047959442,2020-03-27 01:55:10,"Cidade Velha, Belm",city,"Belm, Brasil",Brasil
29940,-95.252709,38.954153000000005,Anna,3047959616,2020-02-18 02:00:15,Support @4ocean,poi,Allen Fieldhouse,United States
48620,-97.23298,37.485315500000006,Anna,3047959616,2020-03-13 20:22:53,Support @4ocean,city,"Mulvane, KS",United States
24,-75.57470500000001,46.5735025, ,3047960163,2020-02-14 14:41:57,"Mont-Laurier, Qubec",city,"Mont-Laurier, Qubec",Canada
15380,-78.6568965,43.011435999999996,Jake Daniel Johnson ,3047960697,2020-02-16 05:10:31,,city,"Clarence Center, NY",United States
41740,-117.10498899999999,32.810012,Ashley Robinson,3047961006,2020-02-22 15:12:42,,city,"San Diego, CA",United States
49740,-114.5847525,32.668217999999996,Ashley Robinson,3047961006,2020-02-23 22:42:27,,city,"Yuma, AZ",United States
38060,-111.928142,33.392883999999995,Ashley Robinson,3047961006,2020-02-26 01:53:02,,city,"Tempe, AZ",United States
12540,-119.025163,35.3469015,Ashley Robinson,3047961006,2020-03-10 04:31:55,,city,"Bakersfield, CA",United States
38060,-111.928142,33.392883999999995,Detective Blueberry,3047961006,2020-03-13 01:26:57,,city,"Tempe, AZ",United States
46100,-85.917671,35.204765,Audrey,3047961095,2020-04-03 00:50:41,Florida,poi,The Domain of Sewanee: The University of the South,United States
34980,-86.7966342,36.1506695,Adam McCready,304796158,2020-03-04 13:56:38,"Boston, MA",city,"Nashville, TN",United States
14460,-71.242464,42.40547,Adam McCready,304796158,2020-05-21 19:28:29,"Boston, MA",poi,Hardy Pond,United States
40380,-77.5298295,43.0755745,Adam McCready,304796158,2020-06-10 01:20:30,"Boston, MA",city,"Pittsford, NY",United States
200,36.0974815,37.369296500000004,Burak Grnmez,3047962421,2020-03-21 21:39:43,,city,"Kadirli, Trkiye",Trkiye
205,0.127886,51.554019,Luceneia,3047962952,2020-03-29 20:35:37,,city,"Barking, London",United Kingdom
186,-3.6997800000000005,40.4269,J U A N J O   ,304796359,2020-05-23 00:30:44,El Salvador,city,"Madrid, Espaa",Espaa
171,121.033212,14.5464995,Jelo de Leon,304796458,2020-02-15 10:11:17,Makati,city,"Makati City, National Capital Region",Republic of the Philippines
44060,-117.418298,47.658556,Lisa Sheehan,3047965812,2020-03-02 03:55:37,,poi,Wileys Downtown Bistro,United States
29820,-115.17321299999999,36.115685,Meg,3047966665,2020-02-16 20:12:48,"California, USA",poi,Gordon Ramsay Hell's Kitchen,United States
31080,-117.7823605,33.689732,Meg,3047966665,2020-02-18 19:35:22,"California, USA",city,"Irvine, CA",United States
222,106.00855727,-5.97546616,Doni Haryo Ajjah,304796820,2020-02-21 22:53:35,cilegon,city,"Pulo Merak, Indonesia",Indonesia
171,121.03924757,14.42023086,Drea,3047969816,2020-02-15 11:48:17,,city,"Muntinlupa City, National Capital Region",Republic of the Philippines
88,139.71509400000002,35.7291085,YUU...CD60,304797009,2020-02-14 00:39:39,,city, ,
8,-62.2551,-38.72172000000001,Martina Trujillo,3047970163,2020-04-25 17:40:16,"Baha Blanca, Argentina",city,"Baha Blanca, Argentina",Argentina
211,-67.995457,10.1763255,Leiry Melendez,3047971706,2020-02-27 14:48:11,"Valencia, Carabobo, Venezuela",city,"Valencia, Venezuela",Venezuela
38060,-112.1246765,33.5528625,Maria,3047972978,2020-02-14 23:49:53,"Arizona, USA",city,"Phoenix, AZ",United States
31080,-117.874032,33.617638,Maria,3047972978,2020-02-22 23:00:35,"Arizona, USA",city,"Newport Beach, CA",United States
9,150.742514,-33.7962755,Maria,3047972978,2020-03-01 12:10:14,"Arizona, USA",city,"Orchard Hills, New South Wales",Australia
38060,-112.1246765,33.5528625,Maria,3047972978,2020-03-09 06:13:06,"Arizona, USA",city,"Phoenix, AZ",United States
12020,-83.39977950000001,33.9563835,hannah,3047973608,2020-04-23 23:06:21,"Atlanta, GA",city,"Athens, GA",United States
21,-38.465955,-6.210254,sarah ,3047973913,2020-02-22 19:34:26,,city,"So Miguel, Brasil",Brasil
200,29.341576,40.610883,Kbra Yldz,3047974111,2020-04-21 22:30:38,,poi,Gack Ky,Trkiye
26660,-95.5472695,30.7060885,shayo,3047974394,2020-02-14 00:47:28,,city,"Huntsville, TX",United States
26420,-95.53985250000001,30.1812515,shayo,3047974394,2020-02-16 06:20:25,,city,"The Woodlands, TX",United States
26660,-95.5472695,30.7060885,shayo,3047974394,2020-02-16 17:37:39,,city,"Huntsville, TX",United States
26420,-95.4464865,29.838495,shayo,3047974394,2020-02-22 23:41:47,"Grand Prairie, TX",city,"Houston, TX",United States
19100,-96.7617535,32.819858499999995,shayo,3047974394,2020-03-20 02:09:37,,city,"Dallas, TX",United States
26420,-95.538134,30.337514000000002,shayo,3047974394,2020-03-20 21:31:40,,city,"Conroe, TX",United States
8,-57.54402214,-38.00482322,alexandra lee,3047976733,2020-02-25 21:25:58,I still didn't find my place,city,"Mar del Plata, Argentina",Argentina
24,-75.80014150000001,45.248791,sleepydad,304797784,2020-04-09 04:49:28,,city,"Ottawa, Ontario",Canada
21,-46.8823285,-23.5110285,YOHAN LOCKDOWN.,3047977856,2020-02-20 14:27:54,       . ,city,"Barueri, Brasil",Brasil
151,7.932831,5.0213815,xumenz solution,304797904,2020-04-05 06:06:01,"Uyo, Nigeria",city,"Uyo, Nigeria",Nigeria
186,-3.7035075,40.4777945,,304797947,2020-02-22 07:20:46,"Schleswig-Holstein, Alemania",city,"Madrid, Espaa",Espaa
71,10.7613635,53.8811155,,304797947,2020-03-08 16:27:35,"Schleswig-Holstein, Alemania",city,"Lbeck, Alemania",Alemania
205,-2.1168695,53.54286550000001,Suzanne Benbow,30479797,2020-02-14 06:38:02,"Manchester, England",city,"Oldham, England",United Kingdom
42680,-80.40473399999998,27.6309955,David Wilcoxson,3047980422,2020-03-01 02:19:31,"Lexington, KY",city,"Vero Beach, FL",United States
119,-99.0350527,19.413119000000002,Hancock,304798051,2020-03-23 00:04:06,"Mxico, D.F.",city,"Nezahualcyotl, Mxico",Mxico
24,-106.664325,52.1500775,Megan Luddington,304798093,2020-03-05 20:47:18,Saskatoon,city,"Saskatoon, Saskatchewan",Canada
12060,-84.53213249999999,33.9481235,Ashton,3047982488,2020-03-05 15:45:07,"Carson, CA",city,"Marietta, GA",United States
38,-74.24367099999999,4.2622835, Alejo ,3047982508,2020-04-07 16:36:29,"Bogot, D.C., Colombia",city,"Bogot, D.C., Colombia",Colombia
11100,-101.816092,35.211115500000005,Devin,3047983114,2020-03-28 19:42:31,"Amarillo, TX",city,"Amarillo, TX",United States
160,-76.9814185,-12.1265765,Delicia salon & estilistas -PERU,3047983586,2020-03-09 22:49:35,av.Velasco Astete 2203 Surco,city,"Santiago de Surco, Peru",Peru
21,-46.6333,-23.55,Al Rodrigues,30479842,2020-04-19 23:03:55,So Paulo,city,"Sao Paulo, Brasil",Brasil
164,-9.158211,38.857859499999996,beatrizzzz ,3047984661,2020-02-15 19:19:45,Estdio da Luz,city,"Loures, Portugal",Portugal
19100,-97.683644,32.968517999999996,Tammy Reynolds,3047985150,2020-03-03 16:28:54,"Perrin, Tx",city,"Springtown, TX",United States
160,-76.89075,-12.040600999999999,Dante,3047985631,2020-03-29 01:25:01,Lima peru,city,"Ate, Peru",Peru
200,29.0052225,41.0213205,b,3047985778,2020-04-02 20:23:38,,city,"stanbul, Trkiye",Trkiye
14460,-71.2016739,42.386903000000004,PHD VOLLEYBALL,3047986229,2020-02-26 15:43:13,"WALTHAM, MASS",city,"Waltham, MA",United States
33100,-80.307064,25.976124,Chanl,3047986694,2020-03-22 22:51:23,786,city,"Miramar, FL",United States
21,-47.796623,-15.776254000000002,Rutielle,3047986837,2020-02-26 13:03:26,"So Sebastio, Braslia",city,"Braslia, Brasil",Brasil
82,78.091208,9.916888,vinothkumar,304798841,2020-04-09 04:49:43,"Chennai, Tamil Nadu",poi,Madurai ndia,India
19100,-97.2859135,32.7799665,Lando,304798969,2020-03-01 22:21:21,"Texas, USA",city,"Fort Worth, TX",United States
21,-43.959822499999994,-19.918692,Giovanna,3047990287,2020-03-06 02:31:40,"Belo Horizonte, Brazil",city,"Belo Horizonte, Brasil",Brasil
88,136.3428085,34.482347999999995,wako,3047990352,2020-02-16 01:53:40,,city, ,
23060,-85.179005,41.085981,Jack,3047990550,2020-05-20 22:05:38,,poi,Bishop John M. D'Arcy Stadium (St. Francis),United States
38060,-112.1246765,33.5528625,Rosemary de Len,3047990640,2020-02-14 22:53:23,"Phoenix, AZ",city,"Phoenix, AZ",United States
21,-46.739266,-23.377064999999998,STLL,3047991305,2020-02-17 04:59:40,"Caieiras, Brasil",city,"Caieiras, Brasil",Brasil
33,-70.663,-33.406994,SinDestino,304799216,2020-05-27 02:03:35,santiago,poi,Hipdromo Chile 1640,Chile
211,-67.5537,10.163,Francinoria Miranda,3047992890,2020-02-19 19:33:03,"San Fernando De Apure, Venezue",city,"Palo Negro, Venezuela",Venezuela
205,-3.7142625,56.011277,ian harkins,3047993279,2020-03-09 22:37:24,scotland,city,"Grangemouth, Scotland",United Kingdom
38,-72.92210990000001,5.7210269,Suadance Dance Company,304799347,2020-02-22 13:24:17,Sogamoso/Boyac/Colombia,city,"Sogamoso, Colombia",Colombia
10740,-106.632718,35.117002500000005,Michael Ray,30479949,2020-02-20 21:33:43,albuquerque nm ,city,"Albuquerque, NM",United States
23420,-119.7824645,36.786042,Nathan Mendoza5,3047994974,2020-04-04 08:37:50,"Clovis, CA",city,"Fresno, CA",United States
31460,-120.063829,36.9637405,Nathan Mendoza,3047994974,2020-06-02 06:08:05,"Clovis, CA",city,"Madera, CA",United States
205,-3.3978945,50.63131300000001,salli byrne,3047995683,2020-05-11 11:35:19,,city,"Exmouth, England",United Kingdom
200,35.458448499999996,38.7292675,KAVASOLU,3047996303,2020-06-06 07:51:15,,city,"Kayseri, Trkiye",Trkiye
15380,-78.8830438,42.93384381,Jaydan Janes,3047996593,2020-02-19 18:28:34,"Auburn,NY",city,"Buffalo, NY",United States
120,102.2615245,5.9815025,Umi Yati Abdul Shani,304799872,2020-05-18 12:42:53,Kota Bharu Kelantan,city,"But, Kelantan",Malaysia
21,-43.296872,-22.644558,Malandro ,3048000322,2020-02-14 01:44:33,Duque de Caxias,city,"Duque de Caxias, Brasil",Brasil
222,106.743997,-6.150752,Andre Sihombing,304800084,2020-02-19 22:14:43,Indonesia,city,"Cengkareng, Indonesia",Indonesia
49620,-76.731008,39.967009000000004,k,3048001322,2020-03-06 20:37:00,,city,"York, PA",United States
119,-99.657902,19.255646,Jalil Mancilla,304800173,2020-05-03 17:38:51,,poi,Panaderia La Esperanza (Coln),Mxico
38,-73.915986,4.552939,Ingrid ,3048001903,2020-03-13 17:55:10,"Bogot, D.C., Colombia",city,"Choach, Colombia",Colombia
21,-46.88022150000001,-23.354848,gata da fiorino,304800199,2020-05-09 01:34:22,So Paulo,city,"Cajamar, Brasil",Brasil
171,121.0311415,14.7108935,Juzelle Baylosis,3048003386,2020-03-19 15:38:10,,city,"Caloocan City, National Capital Region",Republic of the Philippines
32780,-122.71588,42.196528,Julie Hodge  #teamnoflinch,304800395,2020-02-29 21:30:38,"Portland, Oregon",poi,Lithia Park,United States
13460,-121.44775800000001,43.898866,Julie Hodge  #teamnoflinch,304800395,2020-03-15 00:34:08,"Portland, Oregon",poi,Deschutes River Lookout Bridge,United States
205,-1.550917,51.3655465,Chelsea Pearce,3048004299,2020-04-12 09:35:08,Marlborough,city,"Shalbourne, England",United Kingdom
35620,-73.9685415,40.780709,Jake Daniel,3048005630,2020-03-08 17:58:06,United States,city,"Manhattan, NY",United States
31080,-118.400264,33.9166485,Jake Daniel,3048005630,2020-03-14 18:27:14,United States,city,"El Segundo, CA",United States
205,-1.56549,53.801956,Ayah Alfawaris,3048006542,2020-02-14 18:46:39,"Leeds, England",city,"Leeds, England",United Kingdom
193,98.32992588,7.9068296,Nurse Becky,304800657,2020-03-25 03:12:09,"Raleigh, NC",city,"Kathu, Thailand",Thailand
16740,-80.8467855,35.209059,Ms Marlowe,304800657,2020-04-11 12:49:53,"North Myrtle Beach, SC",city,"Charlotte, NC",United States
34820,-78.3843455,33.9565125,Ms Marlowe,304800657,2020-04-24 21:52:08,"North Myrtle Beach, SC",city,"Shallotte, NC",United States
31080,-118.4119065,34.0207895,j,3048006823,2020-03-25 17:38:23,hurting,city,"Los Angeles, CA",United States
175,46.822315,23.51839,Halola,3048006824,2020-03-04 16:07:26,,city,"  ,   ",  
12060,-84.345385,33.848029,Logan Fowler,304800701,2020-04-18 19:17:21,"Atlanta, GA",poi,Lenox Park,United States
38,-75.3155775,4.4486729999999985,laureano pea,304800802,2020-04-16 01:17:11,payande tolima,city,"Ibagu, Colombia",Colombia
222,112.7171085,-7.325964,OG.,3048008246,2020-05-04 10:20:18,,city,"Jambangan, Indonesia",Indonesia
26420,-95.4464865,29.838495, skriiiirt,3048008383,2020-02-19 13:19:38,"Houston ,TX ",city,"Houston, TX",United States
205,-2.85627,52.890694999999994,Ellie Larkham,3048010978,2020-02-25 10:12:36,"Shrewsbury, Shropshire",poi,Wood Lane Nature Reserve,United Kingdom
21,-53.126415,-26.0693,manda aga,3048011146,2020-05-05 01:40:27,"Francisco Beltro, Brasil",city,"Francisco Beltro, Brasil",Brasil
222,109.6880825,-6.8923515,puput,304801341,2020-03-08 09:45:57,,city,"Pekalongan Timur, Indonesia",Indonesia
38,-74.849933,10.958072999999999,Nassin Cure,304801419,2020-02-17 02:14:30,,city,"Barranquilla, Colombia",Colombia
205,-5.24,50.2311995,Cornish Philosopher ,3048014661,2020-03-10 02:07:31,Luciinos,city,"Redruth, England",United Kingdom
174,30.117577,-1.9847119999999998,Niyomugabo Benjamin,3048018723,2020-05-09 08:49:05,Rwanda,poi,"Kicukiro, Rwanda",Rwanda
82,73.03588549999999,19.0967305,Punit Dharamsi,30480209,2020-03-15 11:23:57,Navi Mumbai,city,"Navi Mumbai, India",India
38,-73.46328600000002,10.324450500000001,yenny paola alfaro,304802114,2020-03-26 03:56:01,bogota colombia,city,"Valledupar, Colombia",Colombia
119,-99.2115105,19.4299345, sxm ,304802232,2020-02-14 13:41:02,"Azcapotzalco, Distrito Federal",city,"Miguel Hidalgo, Distrito Federal",Mxico
18140,-82.9996,39.9624,sean marshall,304802245,2020-04-04 13:28:35,"Columbus, OH via NJ",city,"Columbus, OH",United States
8,-58.48873326,-34.55298508,Gio,304802470,2020-05-08 21:25:58,Ciudad Autnoma de Buenos Aire,city,"Ciudad Autnoma de Buenos Aires, Argentina",Argentina
186,2.1683,41.3894,Heber,304802567,2020-02-19 22:39:08,LIS,city,"Barcelona, Spain",Spain
164,-9.09395005,38.75625832,Heber,304802567,2020-05-05 21:08:24,LIS,city,"Lisbon, Portugal",Portugal
12420,-97.7475,30.2677,Mani H. Zonoozi :   ,30480260,2020-03-07 01:22:20,Austin,city,"Austin, TX",United States
17780,-96.2916485,30.5854715,Mani H. Zonoozi :   ,30480260,2020-04-23 00:48:30,Austin,city,"College Station, TX",United States
12420,-97.754724,30.3233455,Mani H. Zonoozi :   ,30480260,2020-05-01 06:59:00,Austin,city,"Austin, TX",United States
26980,-91.537062,41.647353499999994,Abby Lien,3048027744,2020-02-17 21:16:12,,city,"Iowa City, IA",United States
33460,-93.2024385,44.746673,Abby Lien,3048027744,2020-05-12 15:25:46,,city,"Apple Valley, MN",United States
16980,-87.732013,41.8335845,Cara Morphew,3048028173,2020-03-16 18:38:27,,city,"Chicago, IL",United States
49,-78.5566815,-0.16657049999999998,ngel Sinmaleza,3048030215,2020-02-17 13:24:22,"Bolivar, Ecuador",city,"Quito, Ecuador",Ecuador
26900,-86.50428400000001,39.763665,Gage,304803158,2020-02-16 23:27:53,Porter Ridge,city,"Danville, IN",United States
119,-99.310428,19.473794,AnnaMurguia,3048031584,2020-02-16 01:24:28,Naucalpan,city,"Naucalpan de Jurez, Mxico",Mxico
16700,-80.603771,33.19458,El,3048031866,2020-03-08 18:27:36,"Chicago, IL",poi,Waffle House,United States
162,19.9532,49.29529,Nikolskiy,3048033105,2020-03-14 11:18:24,,city,"Zakopane, Polska",Polska
38,-74.24367099999999,4.2622835,Alfredo Nova,30480337,2020-03-13 20:16:45,"Bogot, Colombia",city,"Bogot, D.C., Colombia",Colombia
47900,-77.12025249999998,39.043469,Brandei + Camera,3048034612,2020-06-04 15:46:23,Rockville MD,city,"North Bethesda, MD",United States
88,139.20925819,35.41026652,,304803474,2020-05-18 11:09:43,,city, ,
47900,-77.0143985,38.898603,Regina Ham,304803510,2020-03-27 23:46:25,"Washington, DC",city,"Washington, DC",United States
8,-64.1980255,-31.4154565,Juli,304803621,2020-02-14 11:56:16,"Crdoba, Argentina",city,"Crdoba, Argentina",Argentina
21,-54.45709599999999,-25.453901,Lari Gomes,3048036508,2020-02-16 05:20:59,slz,city,"Foz do Iguau, Brasil",Brasil
8,-54.54939065,-25.57614215,Lari Gomes,3048036508,2020-04-13 19:37:40,slz,city,"Foz do Iguau, Brasil",Brasil
21,-54.5581,-25.5183,Lari Gomes,3048036508,2020-04-22 20:08:33,slz,city,"Foz do Iguau, Brasil",Brasil
186,-3.7035075,40.4777945,Israel amb psols,3048036652,2020-02-14 05:53:35,,city,"Madrid, Espaa",Espanya
26620,-86.9703,34.8033,Kevin Fielder,3048037599,2020-05-26 04:39:01,,city,"Athens, AL",United States
175,41.687540000000006,27.508333500000003,Bader,3048037819,2020-05-30 01:37:42,",   ",city,",   ",  
152,5.485128,51.5170505,Gerard Xhofleer,3048037927,2020-02-18 22:04:44,,city,"Son en Breugel, Nederland",Nederland
205,1.0901355,51.2767555,Vboss,3048038805,2020-02-22 18:50:36,,city,"Canterbury, England",United Kingdom
96,47.694488,29.3416835, ,3048039067,2020-03-06 19:54:15,  ,city,",  ", 
222,106.809173,-6.2445845,Cacamaricaaa,3048039271,2020-02-14 10:49:41,"Jakarta, Indonesia.",city,"Kebayoran Baru, Indonesia",Indonesia
222,106.738844,-6.187715,rw,3048039516,2020-02-27 13:42:11,Jakarta,poi,Gyu-Kaku,Indonesia
82,78.3553655,22.751461,Anand pratap singh,304803963,2020-03-20 12:36:53,pipariya,city,"Pipariya, India",India
8,-61.16556800000001,-33.044493,FLOR,304804000,2020-02-29 02:37:17,Casilda - Rosario ,poi,Casilda Santa Fe,Argentina
16980,-87.732013,41.8335845,Jason Gross,304804041,2020-02-14 02:17:31,"Chicago, IL",city,"Chicago, IL",United States
8,-58.79613199999999,-27.487033,Andy,3048041205,2020-02-23 23:10:58,Argentina,city,"Corrientes, Argentina",Argentina
178,26.21311,-29.1065885,Thabang Sesele,3048042994,2020-02-20 19:34:45,Bloemfontein ,city,"Bloemfontein, South Africa",South Africa
171,121.01080300000001,14.483414000000002,Aelardo,30480448,2020-05-27 12:07:56,"Paraaque, Philippines",city,"Paranaque City, National Capital Region",Republic of the Philippines
21340,-106.37041200000002,31.767108,Veronica Espinoza,304804485,2020-02-25 22:38:17,"El Paso, TX",poi,Adventures in Learning - Educational Toy Store & Summer Camps,United States
8,-57.02271579999999,-37.32667182,Lucho,304804614,2020-02-16 23:47:25,,city,"Mar de las Pampas, Argentina",Argentina
21660,-123.06576499999998,44.044998,Melanie Jackson,30480473,2020-02-29 03:32:25,"Seattle, WA",poi,Matthew Knight Arena,United States
45300,-82.5873885,28.004172500000006,Emily Teal,3048047354,2020-03-12 22:31:41,,city,"Town 'n' Country, FL",United States
37340,-80.60840400000001,28.360062,Luis Peuela,304804810,2020-05-31 12:05:27,"West Palm Beach, Fl USA",poi,"Cape Canaveral Beach, Washington Access",United States
33100,-80.11290349999999,26.533486,Luis Peuela,304804810,2020-05-31 13:37:32,"West Palm Beach, Fl USA",city,"Boynton Beach, FL",United States
47900,-77.00703621,38.88973011,Alex Karabatsos,3048048369,2020-06-03 01:00:37,"Lowell, MA",city,"Washington, DC",United States
12420,-97.754724,30.3233455,Christina K. Burgess,3048049166,2020-02-18 04:40:32,"Austin, TX",city,"Austin, TX",United States
26420,-95.407151,29.72725,Christina K. Burgess,3048049166,2020-05-07 02:13:02,"Austin, TX",poi,Poe Elementary,United States
12420,-97.754724,30.3233455,Christina K. Burgess,3048049166,2020-05-22 04:27:38,"Austin, TX",city,"Austin, TX",United States
26420,-95.4464865,29.838495,Christina K. Burgess,3048049166,2020-06-01 22:52:57,"Austin, TX",city,"Houston, TX",United States
21,-43.441578,-22.911421500000003,VILA ISABEL ,3048049888,2020-02-25 11:47:49,Dona maria ,city,"Rio de Janeiro, Brasil",Brasil
38,-75.95329,9.3545,,304805007,2020-02-20 12:38:01,,city,"San Bernardo del Viento, Colombia",Colombia
128,3.2249,51.2085,,304805007,2020-03-12 12:23:53,,city,"Bruges, Belgium",Belgium
38,-71.31690778,6.73526906,,304805007,2020-03-19 02:20:08,,city,"Arauquita, Colombia",Colombia
211,-70.7617,7.09028,,304805007,2020-03-29 21:49:34,,city,"Arauca, Colombia",Colombia
38,-70.75641769,7.08148141,,304805007,2020-03-31 14:46:53,,city,"Arauca, Colombia",Colombia
119,-99.1333,19.4333,,304805007,2020-03-31 18:22:46,,city,"Cuauhtmoc, Distrito Federal",Mexico
38,-70.75641769,7.08148141,,304805007,2020-04-11 22:06:22,,city,"Arauca, Colombia",Colombia
119,-99.1333,19.4333,,304805007,2020-05-06 16:51:25,,city,"Cuauhtmoc, Distrito Federal",Mexico
38,-70.9682,6.5715,,304805007,2020-05-07 20:21:46,,city,"Arauquita, Colombia",Colombia
180,27.532847999999998,-21.206664,  ,3048050444,2020-04-21 00:24:42,"Francistown, Botswana ",poi,Francistown(Botswana),Botswana
8,-58.442643,-34.604315,Daniel Lopenza,304805098,2020-03-02 02:20:48,Ciudad Autnoma de Buenos Aire,city,"Ciudad Autnoma de Buenos Aires, Argentina",Argentina
33460,-93.2645,44.9774,"Marnie Marmet, IHP",3048051112,2020-03-16 03:29:46,"Minneapolis, MN",city,"Minneapolis, MN",United States
200,29.0052225,41.0213205,Bio. Melisa Gmrk,3048051675,2020-06-03 10:40:43,"stanbul, Trkiye",city,"stanbul, Trkiye",Trkiye
51,-6.50100413,53.29989629,kellyer,304805236,2020-02-20 18:47:17,Kingdom of Ardclough,city,"South Dublin, Ireland",Ireland
82,85.82481800000001,20.480487,Abhisar,304805269,2020-04-07 14:57:45,China,poi,"CDA, Sector 9",India
186,-1.6496005,42.815737,Xabier,3048052758,2020-03-18 20:22:14,,city,"Pamplona, Espaa",Espaa
21,-38.51989,-3.789768,Arthur Martins,3048053437,2020-02-14 22:38:01,"Rio de Janeiro, Brasil",city,"Fortaleza, Brasil",Brasil
39580,-78.657837,35.8439815,Vila,3048053949,2020-03-10 13:38:17,919,city,"Raleigh, NC",United States
33100,-80.14917249999999,26.150368,Jeff Maltman,304805452,2020-03-12 17:34:31,Niagara Region,city,"Fort Lauderdale, FL",United States
24,-79.19831500000002,42.8302535,Jeff Maltman,304805452,2020-03-30 13:58:34,Niagara Region,city,"Port Colborne, Ontario",Canada
222,107.57967856,-6.89163991,RIVAL AL-FATH,304805476,2020-02-16 11:04:10,"Bandung, West Java",city,"Sukajadi, Indonesia",Indonesia
151,7.0312755000000005,4.82463,cool bukson,304805590,2020-05-10 10:17:00,Around you,city,"Port Harcourt, Nigeria",Nigeria
205,-0.142242,51.538467,LondonHungBoy ,3048056369,2020-05-21 14:47:53,"London, England",poi,Camden Town Station Bus Stop X,Reino Unido
14460,-70.8031235,42.0566945,J E S,3048056675,2020-06-04 00:12:17,,city,"Pembroke, MA",United States
17420,-84.432803,34.928521,Beth Thompson,3048056913,2020-03-20 01:40:57,,poi,Blue Ridge Mountain Cabin,United States
26420,-95.3694,29.7602,MXMO STATION,304805848,2020-04-20 18:43:33,"Houston, TX",city,"Houston, TX",United States
41940,-121.581229,37.00484400000001,Mirella Lopez,3048058921,2020-04-20 22:41:32,"California, USA",city,"Gilroy, CA",United States
29820,-115.17320500000001,36.112958,Mirella Lopez,3048058921,2020-06-05 16:41:14,"California, USA",poi,Fountains of Bellagio,United States
12420,-97.754724,30.3233455,Mirella Lopez,3048058921,2020-06-08 00:39:13,"California, USA",city,"Austin, TX",United States
19100,-96.7617535,32.819858499999995,Skyline Raiders Boys Soccer,3048059191,2020-05-14 18:30:05,,city,"Dallas, TX",United States
38,-76.52771,3.486969,Jhonatan,3048061065,2020-02-28 21:57:45,"Cali, Colombia",poi,en algun lugar de cali,Colombia
49,-78.73737750000002,-1.2907645,Paul Arcos Hand Taylor,3048061785,2020-02-19 15:45:54,"Ambato, Ecuador",city,"Ambato, Ecuador",Ecuador
26420,-95.4464865,29.838495,Silver Fox 72 Gaming,30480627,2020-02-16 04:08:05,"Houston,Tx",city,"Houston, TX",United States
152,6.534838499999998,52.569872,Folke Meijer,30480629,2020-04-10 18:32:45,"Hardenberg, The Netherlands",city,"Hardenberg, Nederland",The Netherlands
29820,-115.2344355,36.0188045,CB,3048064138,2020-04-15 04:45:20,,city,"Enterprise, NV",United States
171,121.0627355,14.683012,yohar,304806449,2020-02-14 02:40:55,National Capital Region,city,"Quezon City, National Capital Region",Republic of the Philippines
29820,-115.223125,36.232915000000006,LARA,304806627,2020-02-17 05:51:18,eating good w michael ,city,"Las Vegas, NV",United States
31080,-118.30856599999998,33.891034999999995,LARA,304806627,2020-02-26 04:39:26,eating good w michael ,city,"Gardena, CA",United States
38300,-79.9975,40.4411,mir,3048066793,2020-03-01 18:27:36,"Pittsburgh, PA",city,"Pittsburgh, PA",United States
27260,-81.3132,29.8924,mir,3048066793,2020-03-12 16:18:11,"Pittsburgh, PA",city,"St Augustine, FL",United States
33,-70.63852399999998,-33.3663795,Cristin Cspedes,304806686,2020-02-14 22:46:05,Wackyland,city,"Huechuraba, Chile",Chile
88,135.784206,34.987759000000004,,304806782,2020-02-14 08:05:07,  ,city,  ,
21,-35.5992355,-9.4426385,Karlla Lira,304806893,2020-05-11 19:15:57,,city,"Paripueira, Brasil",Brazil
119,-87.0316645,21.048719000000002,Eri ,304807044,2020-02-15 00:43:39,"Cancn Centro, Benito Jurez",city,"Benito Jurez, Quintana Roo",Mxico
31080,-118.4119065,34.0207895,LPE360,30480708,2020-03-20 05:42:23,Los Angeles ,city,"Los Angeles, CA",United States
19100,-97.079654,32.931834,David B.Heffel,3048072309,2020-03-16 00:59:12,The greatest country on earth!,city,"Grapevine, TX",United States
119,-87.0316645,21.048719000000002,David B.Heffel,3048072309,2020-03-18 22:32:43,The greatest country on earth!,city,"Benito Jurez, Quintana Roo",Mexico
14460,-70.83381299999998,42.000455,David B.Heffel,3048072309,2020-04-02 13:46:24,The greatest country on earth!,city,"Halifax, MA",United States
191,8.8566765,47.302703,TheOperator,3048073798,2020-02-17 16:15:25,Switzerland,city,"Hinwil, Schweiz",Switzerland
152,4.904053500000001,52.354728,TheOperator,3048073798,2020-03-06 13:16:13,Switzerland,city,"Amsterdam, The Netherlands",The Netherlands
191,8.8566765,47.302703,TheOperator,3048073798,2020-03-08 21:32:46,Switzerland,city,"Hinwil, Schweiz",Switzerland
38,-74.24367099999999,4.2622835,Duban Calderon,3048075504,2020-03-11 03:22:15,,city,"Bogot, D.C., Colombia",Colombia
31700,-71.4440805,42.971199,Lisa Adam,30480757,2020-05-13 12:09:40,"Manchester, NH",city,"Manchester, NH",United States
186,-3.7035075,40.4777945,Jonathan Ysaye,3048075744,2020-02-15 13:44:02,"Madrid, Comunidad de Madrid",city,"Madrid, Espaa",Espaa
82,77.550599,28.499759,Akash Tiwari,3048077701,2020-03-30 08:51:40,New delhi ,city,"Greater Noida, India",India
87,44.431015,32.477985,Ali Hamed,3048078365,2020-02-14 05:41:01,Iraq,poi,  ,Iraq
85,17.117846,40.6005625,L'INVISIBILE TRA I VISIBILI,3048081032,2020-03-03 10:09:17,,city,"Massafra, Puglia",Italia
21,-52.333895500000004,-31.561389000000002,Rafael Rocha,3048081838,2020-02-14 01:11:56,,city,"Pelotas, Brasil",Brasil
45300,-82.30672249999999,27.827367,Jackie&ValBookReview,3048083033,2020-03-26 13:52:51,,city,"Riverview, FL",United States
205,-1.7153605,51.633205,Franky,30480835,2020-06-06 17:30:41,,city,"Highworth, England",United Kingdom
21,-41.41056453,-2.91068846,vitoria,3048083826,2020-04-11 19:47:50,boo,city,"Cajueiro da Praia, Brasil",Brazil
159,-57.60601750000001,-25.300264000000002,,304808452,2020-02-14 15:51:28,"San Antonio, Paraguay",city,"Asuncion, Paraguay",Paraguay
35620,-73.983645,40.764668,INVISIBLE,3048084589,2020-02-24 01:46:08,,poi,Feinstein's/54 Below,United States
17460,-81.705467,41.49593950000001,Naestud19,3048084611,2020-04-08 06:33:47,"Cleveland, OH",city,"Cleveland, OH",United States
17460,-81.80305150000002,41.4804175,Emily,30480853,2020-02-16 19:14:55,,city,"Lakewood, OH",United States
30780,-92.457008,35.079783,Hunter Colin Roberts,304808598,2020-03-05 17:27:10,Missouri,poi,University of Central Arkansas,United States
28140,-94.3783325,39.0880045,Hunter Colin Roberts,304808598,2020-03-23 01:48:26,Missouri,city,"Independence, MO",United States
30780,-92.430839,35.073111499999996,Hunter Colin Roberts,304808598,2020-03-24 02:41:06,Missouri,city,"Conway, AR",United States
34500,-88.3720635,38.380463,Hunter Colin Roberts,304808598,2020-04-10 04:16:27,Missouri,city,"Fairfield, IL",United States
30780,-92.430839,35.073111499999996,Hunter Colin Roberts,304808598,2020-04-22 05:17:33,Missouri,city,"Conway, AR",United States
82,78.6637835,23.7715545,Divyam jain,304808626,2020-04-04 13:47:08,Sagar ,city,"Sagar, India",India
51,-6.399521,53.2735025,Nina,3048086353,2020-02-14 20:35:01,,city,"South Dublin, Ireland",Ireland
33460,-93.2620465,44.9706105,staph*,3048087283,2020-02-26 02:53:20,"Minneapolis, MN",city,"Minneapolis, MN",United States
222,106.743997,-6.150752,likien,304808750,2020-05-24 11:27:15,Indonesia,city,"Cengkareng, Indonesia",Indonesia
38060,-111.5605185,33.1982355,bamaaa,3048088926,2020-02-19 06:49:28,,city,"San Tan Valley, AZ",United States
119,-98.27194216,19.318131100000002,Javier Palacios,3048089609,2020-04-29 19:32:30,,city,"Totolac, Tlaxcala",Mxico
24,-123.06009783,49.02932433,Claire Hatcher,304809043,2020-02-16 05:32:50,"Vancouver, B.C., Canada",city,"Delta, British Columbia",Canada
120,116.1405425,5.9882775000000015,fatin,30480905,2020-02-14 14:57:37,"BKI, MY",city,"Kota Kinabalu, Sabah",Malaysia
47900,-77.0143985,38.898603,Jenny Cavallero,3048091066,2020-04-10 20:12:03,"Washington, DC",city,"Washington, DC",United States
35380,-90.1786295,30.001244,lahnut!!,3048091165,2020-02-15 04:29:04,,city,"Metairie, LA",United States
24,-123.123581,49.257639000000005,Tatiana Kapos,3048093024,2020-03-12 04:36:59,"Chandler, AZ",city,"Vancouver, British Columbia",Canada
31080,-118.1567105,33.809171500000005,Malina,3048094063,2020-02-14 19:05:39,Long Beach ,city,"Long Beach, CA",United States
173,37.42764250000001,55.7547875, ,3048096362,2020-03-16 20:41:07,", ",city,", ",
222,106.75003999999998,-6.1340639999999995,Dimas Kelvin,304809657,2020-03-21 17:07:31,,poi,Warung makan sunda,Indonesia
38,-75.5751,6.2359,Sebastian     Parada,304809779,2020-04-07 13:17:50,Ipiales,city,"Medelln, Colombia",Colombia
119,-101.27577,19.652724,Manuss_tapatio,3048098259,2020-02-14 19:10:49,"Guadalajara, Jalisco",city,"Morelia, Michoacn de Ocampo",Mxico
19100,-97.35739000000001,32.74946,Alonzo Santiago,304810051,2020-02-29 22:48:30,"Dallas, TX",city,"Fort Worth, TX",United States
16700,-80.64866500000001,33.082737,Trey Murray,3048101251,2020-06-01 14:15:53,"Savannah, GA",poi,Circle C Truck Plaza,United States
117,58.15478450000001,23.650904999999998,Muna Adam,304810161,2020-03-09 02:59:51,"Muscat, Oman",city,"Al Seeb, Oman",Oman
38300,-79.9806895,40.431389,$am@!,3048101878,2020-02-14 15:33:56,MDFLPA,city,"Pittsburgh, PA",United States
33100,-80.2333285,25.7823535,David Hobbs,304810232,2020-02-16 16:56:55,,city,"Miami, FL",United States
42680,-80.40473399999998,27.6309955,David Hobbs,304810232,2020-02-17 23:01:18,,city,"Vero Beach, FL",United States
222,124.82325622,1.27178051,Sheren Kindangen,304810238,2020-02-15 13:16:33,Manado,city,"Tomohon, Indonesia",Indonesia
36740,-81.3677725,28.5016785,Andrew Dale,30481025,2020-03-18 16:21:44,,city,"Orlando, FL",United States
119,-101.3403935,20.673542,LuceSs Padilla,304810459,2020-04-21 19:27:44,Irapuato Gto.,city,"Irapuato, Guanajuato",Mxico
31080,-117.824049,33.810159000000006,Jack O,3048104839,2020-04-23 21:24:27,"Orange, CA",city,"Orange, CA",United States
41940,-121.8737305,37.331159,Mooks | Commission Info  | TheOiHinaGod,3048105522,2020-04-26 06:19:25,California,city,"San Jose, CA",United States
222,110.344451,-7.696096499999999,arisanudin,304810620,2020-02-15 10:41:22,"Sleman, Indonesia",city,"Sleman, Indonesia",Indonesia
17380,-90.730366,33.742208000000005,cody,304810788,2020-02-14 11:43:59,"Cleveland, MS",city,"Cleveland, MS",United States
24740,-91.044925,33.3935995,cody,304810788,2020-02-14 22:05:28,"Cleveland, MS",city,"Greenville, MS",United States
17380,-90.730366,33.742208000000005,cody,304810788,2020-02-15 20:56:30,"Cleveland, MS",city,"Cleveland, MS",United States
24740,-91.044925,33.3935995,cody,304810788,2020-02-17 22:10:31,"Cleveland, MS",city,"Greenville, MS",United States
17380,-90.730366,33.742208000000005,cody,304810788,2020-02-19 05:17:08,"Cleveland, MS",city,"Cleveland, MS",United States
24740,-91.044925,33.3935995,cody,304810788,2020-02-20 18:37:44,"Cleveland, MS",city,"Greenville, MS",United States
17380,-90.730366,33.742208000000005,cody,304810788,2020-02-20 22:47:15,"Cleveland, MS",city,"Cleveland, MS",United States
24740,-91.044925,33.3935995,cody,304810788,2020-02-21 15:37:20,"Cleveland, MS",city,"Greenville, MS",United States
17380,-90.730366,33.742208000000005,cody,304810788,2020-02-22 11:22:50,"Cleveland, MS",city,"Cleveland, MS",United States
24740,-91.044925,33.3935995,cody,304810788,2020-02-28 20:29:23,"Cleveland, MS",city,"Greenville, MS",United States
17380,-90.730366,33.742208000000005,cody,304810788,2020-02-29 06:28:50,"Cleveland, MS",city,"Cleveland, MS",United States
32820,-89.92202900000002,35.1335205,cody,304810788,2020-03-04 04:06:54,"Cleveland, MS",city,"Memphis, TN",United States
17380,-90.730366,33.742208000000005,cody,304810788,2020-03-05 16:11:12,"Cleveland, MS",city,"Cleveland, MS",United States
24740,-91.044925,33.3935995,cody,304810788,2020-03-13 14:21:24,"Cleveland, MS",city,"Greenville, MS",United States
17380,-90.730366,33.742208000000005,cody,304810788,2020-03-13 18:07:30,"Cleveland, MS",city,"Cleveland, MS",United States
26940,-90.645531,33.445233,cody,304810788,2020-03-26 19:39:57,"Cleveland, MS",city,"Indianola, MS",United States
17380,-90.730366,33.742208000000005,cody,304810788,2020-03-27 03:38:12,"Cleveland, MS",city,"Cleveland, MS",United States
24740,-91.044925,33.3935995,cody,304810788,2020-03-27 17:20:50,"Cleveland, MS",city,"Greenville, MS",United States
17380,-90.730366,33.742208000000005,cody,304810788,2020-03-29 03:02:16,"Cleveland, MS",city,"Cleveland, MS",United States
24740,-91.044925,33.3935995,cody,304810788,2020-03-30 16:20:58,"Cleveland, MS",city,"Greenville, MS",United States
17380,-90.730366,33.742208000000005,cody,304810788,2020-03-30 17:44:43,"Cleveland, MS",city,"Cleveland, MS",United States
24740,-91.044925,33.3935995,cody,304810788,2020-04-15 15:42:53,"Cleveland, MS",city,"Greenville, MS",United States
8,-58.256091000000005,-34.824998,Candelita,3048107921,2020-03-03 23:27:40,,city,"Florencio Varela, Argentina",Argentina
35620,-74.007347,40.734429999999996,J.N. Manuel,3048108795,2020-02-20 17:57:46,Royston Vasey,neighborhood,"West Village, Manhattan",United States
205,-0.115406,51.4603395,J.N. Manuel,3048108795,2020-03-02 22:06:34,Royston Vasey,city,"Lambeth, London",United Kingdom
200,40.735214500000005,37.3188315," UUR ,, ",3048109218,2020-03-19 18:31:35,"Mardin, Trkiye",city,"Mardin, Trkiye",Trkiye
25940,-80.91805,32.2568125,H A N,304811178,2020-03-03 12:59:33,"Hilton Head Island, SC",city,"Bluffton, SC",United States
200,27.006511,38.4079305,Eme Bin9yirmi5,3048112306,2020-02-14 19:31:00,"zmir, Trkiye",city,"zmir, Trkiye",Trkiye
31080,-118.34615249999999,33.953633499999995,N Irizarry,3048112484,2020-02-15 04:37:41,,city,"Inglewood, CA",United States
41740,-117.10498899999999,32.810012,Danny Gonzalez,304811307,2020-05-26 05:19:36,"Concord, CA",city,"San Diego, CA",United States
119,-105.27958514,20.68358217,Jose Carlos,3048113480,2020-02-16 20:20:32,"Puerto Vallarta, Jalisco",city,"Baha de Banderas, Nayarit",Mxico
58,14.465875500000001,50.05958,Tom Brach,3048113722,2020-05-03 19:27:53,"Prague, Czech Republic",city,"Praha, esk republika",esk republika
205,-3.2030084999999997,55.943195499999995,Sarah E. MacPherson,3048113762,2020-02-17 09:31:37,,city,"Edinburgh, Scotland",United Kingdom
191,6.847241,46.4384345,Maddalena Di Meo,3048113901,2020-04-08 08:07:36,"Lausanne, Vaud",city,"Vevey, Suisse",Suisse
171,123.24782649999999,13.640892,Laaaaaaaaab,3048114422,2020-02-16 13:57:02,Sa lugar ng Poreber,city,"Naga City, Bicol Region",Republic of the Philippines
57,16.379845500000002,48.22012,Hesam,3048118046,2020-05-05 09:41:47,VIE,city,"Vienna, Austria",Austria
88,139.75636450000002,35.68688450000001,,3048118358,2020-02-19 11:56:04,,city, ,
119,-100.2935915,25.6417185,catalina trujillo,304811840,2020-02-20 14:47:19,Mxico,city,"Monterrey, Nuevo Len",Mexico
222,107.669173,-6.939787,IS AM,304811890,2020-03-05 04:14:06,,poi,RS Al Islam,Indonesia
40620,-91.7608235,37.9478235, Courtney ,30481202,2020-02-21 01:31:35,Missouri,city,"Rolla, MO",United States
22220,-94.1480225,36.3356125, Courtney ,30481202,2020-05-30 16:12:40,Missouri,city,"Rogers, AR",United States
40620,-91.7608235,37.9478235, Courtney ,30481202,2020-05-31 22:08:56,Missouri,city,"Rolla, MO",United States
35620,-74.28035799999999,40.6098335,Queen_Jenn,30481206,2020-02-28 00:53:21,Liberate Your Mind ,city,"Rahway, NJ",United States
45940,-74.7733365,40.2161325,Queen_Jenn,30481206,2020-02-28 06:01:21,Liberate Your Mind ,city,"Trenton, NJ",United States
200,33.044261,37.717223,demekki smetri,3048121145,2020-03-06 09:27:03,,poi,smil Kltr Merkezi,Trkiye
40140,-116.30274226,33.67999842,Mark Miller ,3048121290,2020-05-13 20:43:47,"La Quinta, California",city,"La Quinta, CA",United States
222,106.95513678,-6.72669024,alannuri fahmi,304812162,2020-05-19 20:16:45,Tegal - Depok,city,"Cisarua, Indonesia",Indonesia
85,9.827945,44.107648,Double bang ,3048121873,2020-02-14 15:11:13,"Paris, Ile-de-France",city,"La Spezia, Ligurie",Italie
65,5.4052739999999995,43.2943095,Double bang ,3048121873,2020-02-16 10:47:12,"Paris, Ile-de-France",city,"Marseille, France",France
21,-48.550371000000005,-27.596721999999996,mah,3048122620,2020-03-07 02:12:47,,poi,Palcio Cruz e Sousa,Brasil
120,102.65148640000001,2.21062153,mukhzani amir,3048123282,2020-05-24 09:11:02,johor,city,"Gerisek, Johor",Malaysia
35620,-73.9487755,40.655138,bill meehan,30481252,2020-04-12 18:34:33,jackson heights ny,city,"Brooklyn, NY",United States
38,-75.619213,6.270883,Alejandro torres,304812576,2020-03-18 19:36:13,medellin,city,"Medelln, Colombia",Colombia
38,-72.47709300000001,8.075582,maxijacs,304812646,2020-05-29 04:34:56,,city,"Ccuta, Colombia",Colombia
24,-79.267953,43.327593,Caroline Klimek,304812730,2020-04-08 19:21:21,"Toronto, Ontario",city,"St. Catharines, Ontario",Canada
82,77.4233395,28.773568,CHANDRA MOHAN KALA,304812734,2020-03-18 18:23:20,Ghaziabad,city,"Ghaziabad, India",India
16980,-88.04426099999999,41.7351455,Taylor Coughlin,304812848,2020-03-06 12:08:50,"Chicago, IL",city,"Woodridge, IL",United States
33340,-88.0255425,43.0675375,Taylor Coughlin,304812848,2020-06-06 14:42:47,"Chicago, IL",city,"Wauwatosa, WI",United States
41700,-98.5406515,29.417501,Douglas Walsh,3048128601,2020-02-19 04:23:11,San Antonio TX,city,"San Antonio, TX",United States
85,7.6777,45.0702,Alchemica by rosilenebogiatto,3048130074,2020-02-14 17:24:44,"Torino, Piemonte",city,"Torino, Piemonte",Italia
9,151.209803,-33.856794,EST10,304813030,2020-02-14 03:51:59,"Sydney, Australia",poi,Campbells Cove,Australia
222,107.580414,-6.9012885,EgoIsMe,304813147,2020-02-29 06:13:31,In your mind (?),city,"Cicendo, Indonesia",Indonesia
222,106.83129950000001,-6.332802,aprindapramesti,304813149,2020-03-13 09:16:12,Indonesia,city,"Jagakarsa, Indonesia",Indonesia
21,-49.2884605,-25.4952495,Armando Mendes,3048131805,2020-02-14 05:09:51,"Curitiba, Brasil",city,"Curitiba, Brasil",Brasil
38060,-112.36421499999999,33.486936,p,3048134718,2020-03-19 22:31:42,Trench Town,poi,Walmart Neighborhood Market,United States
22220,-94.153889,36.186652,Justin Eggers,304813568,2020-02-24 13:28:17,"Bentonville, AR",city,"Springdale, AR",United States
186,-3.8913849999999996,40.524749,Spooky falta de sueo,3048135873,2020-02-14 08:32:33,En la mierda,city,"Las Rozas de Madrid, Spain",Spain
88,132.419552,34.394147499999995,,3048136406,2020-03-07 10:47:27,,city,  ,
88,132.598122,35.013566,,3048136460,2020-04-03 20:02:54,,city, ,
37060,-89.53376999999999,34.35467,Wes Boock,304813658,2020-03-12 20:48:32,"Oxford, MS",city,"Oxford, MS",United States
164,-6.735344500000001,41.7636865,Yoshiaki Kikuchi,3048136705,2020-02-16 09:35:47,"Matosinhos, Portugal",city,"Bragana, Portugal",Portugal
8,-58.24496,-35.166089899999996,Leonardo Ventosa,304813765,2020-03-04 23:47:15,San Justo,city,"Brandsen, Argentina",Argentina
16300,-91.6828545,41.976528,David Cosgrove III ,304813783,2020-02-17 00:11:56,"Iowa, USA",city,"Cedar Rapids, IA",United States
205,-0.390041,50.8313395,maria allen,30481379,2020-05-23 06:21:36,,city,"Worthing, England",United Kingdom
27260,-81.830331,30.5621545,Brianna,3048138511,2020-03-29 02:25:58,,city,"Callahan, FL",United States
16980,-87.632496,41.883221999999996,Emlyn D. Thomas,304813996,2020-02-14 05:52:40,Chicago,city,"Chicago, IL",United States
33100,-80.1418,26.1358,Emlyn D. Thomas,304813996,2020-02-14 23:15:41,Chicago,city,"Fort Lauderdale, FL",United States
16980,-87.47180176,41.52218246,Emlyn D. Thomas,304813996,2020-02-15 04:09:12,Chicago,city,"Schererville, IN",United States
43100,-87.71249407,43.75370295,Emlyn D. Thomas,304813996,2020-04-16 22:26:35,Chicago,city,"Sheboygan, WI",United States
16980,-87.632496,41.883221999999996,Emlyn D. Thomas,304813996,2020-04-17 06:14:24,Chicago,city,"Chicago, IL",United States
33100,-80.10930544,26.37233913,Emlyn D. Thomas,304813996,2020-04-21 22:18:22,Chicago,city,"Boca Raton, FL",United States
16980,-87.61890382,41.87599197,Emlyn D. Thomas,304813996,2020-04-23 22:41:08,Chicago,city,"Chicago, IL",United States
