currentGEOID,lon,lat,name,author_Id,created_at,location,place_type,place_full_name,place_country
205,-4.211837,53.182357999999994,P. D. H..,1160530003873996807,2020-02-28 12:22:59,United Kingdom,city,"Y Felinheli, Wales",United Kingdom
186,-0.49246,38.344062,JustABitOfStyle,116053038,2020-03-09 10:14:07,Alicante,city,"Alicante, Espaa",Espaa
33,-72.832836,-37.4505045,libertad,1160530416052449281,2020-02-16 14:03:44,,city,"Nacimiento, Chile",Chile
161,71.541931,33.980791499999995,ali,1160530502,2020-02-14 17:50:30,Peshawar & Islamabad,city,"Peshawar, Pakistan",Pakistan
171,121.27182250000001,14.540410500000002,Harlequin,1160530651533078528,2020-03-18 07:27:49,"Baras, Calabarzon",city,"Baras, Calabarzon",Republic of the Philippines
24,-112.84635800000001,49.6883795,CALIFORNIA DREAMLIMO,116053074,2020-02-19 00:21:33,LETHBRIDGE ALBERTA CANADA,city,"Lethbridge, Alberta",Canada
119,-99.0563131,19.2846073,Grupo Dasein,1160530781158236160,2020-05-21 19:02:27,,city,"Tlhuac, Distrito Federal",Mxico
82,77.35997950000002,19.183329500000003,Kailas Patil Jadhav,1160530788183449601,2020-02-19 17:43:16,,city,"Nanded, India",India
32460,-88.86875699999999,36.767582,BeulahBaptistChurch,1160530806,2020-02-21 15:52:20,"Fancy Farm, KY",poi,Beulah Baptist Church,United States
88,140.06790800000002,35.62453,,1160530827702259713,2020-03-13 00:20:48,,city,"Chiba-shi Mihama, Chiba",Japan
48620,-97.343915,37.6838965,Andrew Stephens,116053093,2020-02-15 17:21:31,"Wichita, KS",city,"Wichita, KS",United States
26740,-97.907807,38.066142,Andrew Stephens,116053093,2020-02-22 17:35:08,"Wichita, KS",city,"Hutchinson, KS",United States
48620,-97.343915,37.6838965,Andrew Stephens,116053093,2020-02-28 16:21:57,"Wichita, KS",city,"Wichita, KS",United States
88,130.407229,33.539868,,1160530941669855232,2020-05-17 06:25:29,,city,"Fukuoka-shi Minami, Fukuoka",Japan
88,138.991309,37.867325,,1160531132900732930,2020-02-14 13:52:21, ,poi,DAMZ ,
35620,-74.3702985,40.8186315,DrinkingDirtyNJ,1160531425,2020-02-20 15:56:34,Camp Crystal Lake Studios,city,"East Hanover, NJ",United States
10900,-74.883346,40.930203000000006,DrinkingDirtyNJ,1160531425,2020-03-07 00:49:13,Camp Crystal Lake Studios,poi,Jenny Jump Ghost Lake,United States
35620,-74.657639,40.9430575,DrinkingDirtyNJ,1160531425,2020-03-08 01:48:18,Camp Crystal Lake Studios,city,"Hopatcong, NJ",United States
10900,-74.8275215,40.858644500000004,DrinkingDirtyNJ,1160531425,2020-05-08 17:09:37,Camp Crystal Lake Studios,city,"Hackettstown, NJ",United States
35620,-74.3702985,40.8186315,DrinkingDirtyNJ,1160531425,2020-05-14 20:51:44,Camp Crystal Lake Studios,city,"East Hanover, NJ",United States
10900,-74.8275215,40.858644500000004,DrinkingDirtyNJ,1160531425,2020-05-15 17:41:00,Camp Crystal Lake Studios,city,"Hackettstown, NJ",United States
35620,-74.3702985,40.8186315,DrinkingDirtyNJ,1160531425,2020-05-21 16:03:14,Camp Crystal Lake Studios,city,"East Hanover, NJ",United States
100,24.117792,56.952766000000004,elvita ir ,1160531481262985217,2020-03-10 14:53:49,"Riga, Latvia",poi,Saktas puu tirdzi,Latvia
200,35.28488,37.002826500000005,fatih_manga,1160531482118692864,2020-02-22 19:14:15,"Adana, Trkiye",city,"Adana, Trkiye",Trkiye
171,121.0627355,14.683012,Jom,1160531526494253056,2020-03-12 00:58:47,Perlas ng Silangan,city,"Quezon City, National Capital Region",Republic of the Philippines
120,101.793685,3.4240980000000003,,1160531790253027329,2020-02-17 21:15:55,,poi,Genting Highlands,Malaysia
16980,-87.87890250000002,41.778376,William,1160531820,2020-02-14 21:04:08,,city,"Countryside, IL",United States
222,107.615252,-6.948622,G,1160532108395204608,2020-04-03 05:37:57,,poi,Saudi arabia,Indonesia
222,112.06896,-8.272619500000001,Anis Fitria,1160532154096340995,2020-03-27 01:27:19,"Blitar, Jawa Timur",city,"Bakung, Indonesia",Indonesia
205,-0.306996,51.4405145,Ashley Postans,1160532261684568065,2020-04-22 19:14:14,,city,"Richmond, London",United Kingdom
65,4.8127075,45.5779065,YaNn DChasse,1160532315757535233,2020-02-20 06:31:30,France,city,"Chasse-sur-Rhne, France",France
82,84.4102715,26.422562,Vivek Rai,1160532442798686208,2020-06-07 06:04:06,,city,"Gopalganj, India",India
21,-34.939349,-8.043603,leo arruda,1160532479540899841,2020-03-20 10:20:43,"Recife, Brasil",city,"Recife, Brasil",Brasil
36260,-111.967516,41.0825395,Sweetlove13,1160532611082661888,2020-02-14 07:13:07,"Layton, UT",city,"Layton, UT",United States
222,106.8510905,-6.256264,Rasyid Ridha,1160532676295589888,2020-03-16 04:25:27, Indonesia,city,"Pancoran, Indonesia",Indonesia
88,137.41331399999999,35.675093,tk,1160533093939154944,2020-03-28 06:03:38,,poi, ,Japan
8,-58.41885600000001,-34.752795500000005,Agus Lopez,1160533126327803910,2020-02-16 03:11:52,"Lomas de Zamora, Argentina",city,"Lomas de Zamora, Argentina",Argentina
87,44.408388,33.328109999999995, ,1160533132812193793,2020-05-09 07:44:43, ,poi,Tahrir Square ( ),Iraq
85,9.0886083,45.50944748,STELEMA VIAGGI,1160533219793625088,2020-06-07 10:23:33,"Pero, Lombardia",city,"Pero, Lombardia",Italia
26900,-85.9500505,39.96376100000001,Kevin M Custis,1160533231,2020-02-25 13:00:11,"Noblesville, IN",city,"Fishers, IN",United States
171,121.18178200000001,13.939445000000001,Meng,1160533456054390784,2020-05-04 02:58:45,"Lipa City, Calabarzon",city,"Lipa City, Calabarzon",Republic of the Philippines
82,77.295148,28.517951,Himanshu Prasad,1160533689773596672,2020-04-05 17:32:49,,poi,Mohan Estate Metro Station,India
200,30.5598525,38.75832850000001,Cerenimo,1160533720438312960,2020-05-28 05:26:00,,city,"Afyonkarahisar, Trkiye",Trkiye
82,79.590126,27.386371999999998,Aakash Dixit,1160533958095826944,2020-03-25 12:05:33,"Jhansi, India",poi,HDFC Bank ATM,India
222,116.0976805,-8.5875655,MamiqReza,1160534269799698433,2020-02-18 18:14:10,"Kota Mataram, Nusa Tenggara Ba",city,"Ampenan, Indonesia",Indonesia
82,78.6637835,23.7715545,  ( ),1160534361382346753,2020-02-16 09:51:54,"Madhya Pradesh, India",city,"Sagar, India",India
21,-34.8726385,-8.001542500000001,Alzira,1160534364557643776,2020-02-23 21:50:04,,city,"Olinda, Brasil",Brasil
151,4.550274,8.479929499999999,Ahme_d,1160534418752249856,2020-05-29 20:19:54,"Lagos, Nigeria",city,"Ilorin, Nigeria",Nigeria
205,-1.56549,53.801956,Wilberforce Lodge 2134,1160534545931866113,2020-04-15 20:30:06,"Trinity Lane, Beverley",city,"Leeds, England",United Kingdom
82,76.974691,28.368525,jaipal singh,1160534577313529857,2020-02-14 13:23:23,,city,"Gurgaon, India",India
82,76.95842950000001,30.0793515,Milan Nandal,1160534714509230082,2020-03-31 04:22:11,,city,"Thanesar, India",India
205,0.181741,51.575393,Ti,1160534815243997184,2020-03-02 09:14:02,,poi,PureGym,United Kingdom
85,8.885136,45.3077445,Cristina,1160534876237512707,2020-02-17 11:42:26,,city,"Vigevano, Lombardia",Italia
48,-71.4872625,18.943735,adolfosantana50,1160534989655683072,2020-03-09 22:41:25,,city,"Las Matas de Farfn, Dominican Republic",Dominican Republic
85,11.40564425,45.97287609,alex favaro,116053501,2020-04-09 19:41:32,"Padova,italia",city,"Asiago, Veneto",Italia
151,7.422322500000001,10.511245,Jason,1160535144664637440,2020-04-09 13:02:45,,city,"Kaduna, Nigeria",Nigeria
82,86.008985,20.369460500000002,Sr Barik,1160535221952925702,2020-03-25 11:57:01,,city,"Cuttack, India",India
161,74.3584865,31.5318195,yousuf siraj,1160535289,2020-05-15 21:13:47,"Lahore, Pakistan ",city,"Lahore, Pakistan",Pakistan
222,107.744,-7.03667,yusep wendy budiman,116053543,2020-03-02 18:02:55,Bandung,city,"Majalaya, Indonesia",Indonesia
12420,-97.813645,30.505958500000002,Spiderback,1160535672479985666,2020-02-18 04:26:39,"Cedar Park, TX",city,"Cedar Park, TX",United States
171,124.3925945,8.1557575,C L O E not C H L O E,1160535802461351936,2020-02-16 15:42:28,,city,"Iligan City, Northern Mindanao",Republic of the Philippines
186,2.251446,41.454869,Mar Mediny,1160535817179336704,2020-03-04 22:31:11,"Barcelona, Espanya",poi,L'Auditori de Barcelona,Espanya
41860,-122.435093,37.784533,Zach Ryan,1160536301734514694,2020-02-23 00:56:27,"San Francisco, CA",poi,Hamilton Recreation Center,United States
82,81.673532,16.902345,Ksn Murthy,1160536361092304902,2020-02-15 08:28:31,"Kovvur, India",city,"Nidadavole, India",India
161,73.027928,31.387533,Zarnish khan,1160536442688458753,2020-02-20 02:55:57,faisalabad,poi,G C university. New Campus,Pakistan
21,-43.441578,-22.911421500000003,G@B!,1160536449881710592,2020-02-14 04:00:35,"Jardim Botnico, Rio de Janeir",city,"Rio de Janeiro, Brasil",Brasil
222,107.1972395,-6.2096,si sayang,1160536470454591488,2020-02-27 12:28:49,"Garut, Indonesia",city,"Cikarang, Indonesia",Indonesia
211,-67.03814700000001,10.3423505,Juana Jarro,1160536666651734016,2020-02-27 17:59:36,. ,city,"Los Teques, Venezuela",Venezuela
171,120.34024699999999,14.85885,,1160536801246711808,2020-02-29 06:07:48,SKZ,city,"Olongapo City, Central Luzon",Republic of the Philippines
200,34.816203,39.818801,Zahide66,1160537014070054913,2020-02-21 14:38:46,"Yozgat, Trkiye",city,"Yozgat, Trkiye",Trkiye
205,-1.120205,54.57707600000001,Mark Howes,1160537028,2020-05-14 22:42:36,,city,"Redcar, England",United Kingdom
33460,-93.2645,44.9774,Joe Whisney,116053705,2020-03-24 23:38:47,"Minneapolis, MN, USA",city,"Minneapolis, MN",United States
87,43.995816999999995,36.239155,Rayan Alqaesar,1160537065609711616,2020-02-18 22:57:50,Iraq ,poi,"Ainkawa Palace - Erbil, Iraq",Iraq
88,132.8714625,34.804913,Hitoshi Kameyama,116053710,2020-02-17 13:35:55,,city, ,
161,73.0768205,33.712430999999995,hi,1160537621174607873,2020-05-25 19:24:57,,city," , ",Pakistan
171,123.846722,10.3748325,Czarina,1160537749520179200,2020-03-19 00:38:39,,city,"Cebu City, Central Visayas",Republic of the Philippines
82,78.1786095,18.6915215,Shaik Mateen,1160537995188944897,2020-02-17 11:37:37,,city,"Nizamabad, India",India
222,115.17538799999998,-8.685605,reziartha,116053801,2020-03-06 00:55:06,,poi,Astana Kunti Suite Apartment & Villa - Seminyak Bali,Indonesia
120,101.398355,3.1133740000000003,Mhaziq,1160538131898126337,2020-03-27 06:39:00,,city,"Kapar, Selangor",Malaysia
21,-42.784822999999996,-5.1863185000000005,Cyber Anonymous,1160538147954077696,2020-02-14 10:29:17,,city,"Teresina, Brasil",Brasil
21,-42.784822999999996,-5.1863185000000005,Coffeine,1160538245568061440,2020-04-19 19:04:52,,city,"Teresina, Brasil",Brasil
205,-2.081737,57.1073965,Andy,116053826,2020-02-14 07:46:46,Aberdeen.,city,"Cove Bay, Scotland",United Kingdom
21,-41.45940488,-15.745581099999999,,1160538344427859973,2020-03-25 04:47:00,"Minas Gerais, Brasil",city,"guas Vermelhas, Brasil",Brasil
21,-50.9007225,-29.391982000000002,ALINE BAGETTI,1160538492,2020-03-15 02:03:02,"Rio Grande do Sul, Brasil",city,"Gramado, Brasil",Brasil
21,-49.3051955,-26.040682999999998,,1160538606852878339,2020-04-30 23:45:18,"Agudos do Sul, Brasil",city,"Agudos do Sul, Brasil",Brasil
88,139.680004,35.71718,,1160538738075660288,2020-02-23 06:23:13,,poi,  ,
38,-72.073353,2.427762,DIANA,1160538791175757825,2020-03-07 04:00:26,"San Jos del Guaviare, Colombi",city,"San Jos del Guaviare, Colombia",Colombia
171,121.0627355,14.683012,jayson uy,1160538792761024512,2020-02-19 13:52:45,Somewhere in neverland,city,"Quezon City, National Capital Region",Republic of the Philippines
193,98.381466,7.877708,opelpus,1160538860,2020-02-22 07:17:48,,city,", ",
222,110.350594,-7.8023095,SUSU STROBERI,1160538951196692480,2020-04-24 03:03:18,,city,"Wirobrajan, Indonesia",Indonesia
33100,-80.08421200000002,26.617028499999996,Randell Martinez,1160538972965232644,2020-03-15 01:09:06,,city,"Lake Worth, FL",United States
88,136.3650685,34.6458025,,1160538976052076545,2020-04-04 07:51:36,,city,"Tsu-shi, Mie",Japan
71,8.9767405,49.1532185,Brigitte Kowatsch,1160539151080574978,2020-03-24 11:04:02,"Gemmingen, Deutschland",city,"Gemmingen, Deutschland",Deutschland
222,110.35186850000001,-7.8559135,Haerunisah,1160539370069192711,2020-02-24 15:30:40,,city,"Sewon, Indonesia",Indonesia
88,136.661349,35.002738,,1160539418903506944,2020-05-22 02:39:04,,poi,,
82,74.5717205,30.8326305,Ujjwal,1160539696893550593,2020-05-07 17:59:06,,city,"Firozpur, India",India
89,-76.97877199999999,18.025726000000002,Paris,1160539791164940289,2020-03-07 22:31:05,,poi,GC Foster College,Jamaica
193,100.6883155,13.6807275, ,1160539867815632897,2020-04-14 21:30:22,,city,", ",
19740,-105.080274,39.463471500000004,wendy franklin,1160540097474809858,2020-04-11 20:52:24,,city,"Roxborough Park, CO",United States
88,131.57818799999998,34.047992,hide lennon,1160540265708314626,2020-02-17 08:58:57,,city,"Hofu-shi, Yamaguchi",Japan
82,77.095086,28.638489500000002,Minhaj shaikh,1160540282997395456,2020-05-02 17:48:20,,city,"New Delhi, India",India
82,72.849408,19.061311,,1160540492909596672,2020-04-04 12:06:50,"Mumbai, India",poi,Domino's Pizza,India
222,112.8894085,-7.645350499999998,BINGUNG CARI NAMA,1160540537104896002,2020-04-02 13:25:30,"Pasuruan, Jawa Timur",city,"Gadingrejo, Indonesia",Indonesia
222,109.16513799999998,-6.993288499999999,Rifky_rezarachmawan,1160540637860524035,2020-03-16 14:53:26,"Tegal, Jawa Tengah",city,"Pangkah, Indonesia",Indonesia
95,126.836923,37.65083350000001,TD593,1160540674615177216,2020-03-16 16:21:10,,city, ,
88,137.78265349999998,34.83188,,1160540802734444546,2020-02-14 02:43:19,,city,  ,
120,101.738386,3.140981,...... SoheL............@,1160540932627820544,2020-02-14 00:47:14,       ,city,"Ampang, Wilayah Persekutuan Kuala Lumpur",Malaysia
21,-40.5401335,-20.597323000000006,Fabi Terra,1160540996419108866,2020-02-14 17:26:09,"Laje do Muria, Brasil",city,"Guarapari, Brasil",Brasil
120,110.333028,1.4292295,,1160541011052904450,2020-02-15 01:45:22,"Kuching, Sarawak",city,"Kuching, Sarawak",Malaysia
222,112.608575,-7.989708500000001,Sugi Hw,1160541077117399041,2020-03-13 22:54:18,,city,"Sukun, Indonesia",Indonesia
37980,-75.7504765,39.999165999999995,Bob McDonald,1160541170,2020-04-16 15:52:50,,city,"Thorndale, PA",United States
21,-42.8294125,-22.932913,Grmio Frida Kahlo,1160541324434706432,2020-03-24 14:21:51,C.E.M Joana Benedicta Rangel ,city,"Maric, Brasil",Brasil
88,131.687724,33.175290000000004,tmk3345,1160541468525600769,2020-02-15 13:14:47,,city, ,
33,-71.6037715,-35.42246950000001,Minvu Maule,1160541529,2020-03-26 15:24:07,Regin del Maule,city,"Talca, Chile",Chile
88,135.59755049999998,34.7302965,,1160541666609991681,2020-02-15 05:28:27,,city,"Kadoma-shi, Osaka",Japan
171,122.5625885,7.7751715,Kenneth Lloyd,116054201,2020-04-23 05:42:07,"Zamboanga Peninsula, Republic ",city,"Ipil, Zamboanga Peninsula",Republic of the Philippines
21,-46.644859000000004,-23.540826000000003,Diego aldonatto,1160542101429526529,2020-04-09 14:28:57,So Paulo,poi,Largo do Arouche,Brasil
21,-52.4479015,-28.6169935,Rassa ,1160542149261348864,2020-06-01 16:43:08,"Soledade, Brasil",city,"Ibirapuit, Brasil",Brasil
85,9.318122,45.3553325,Giovanni,1160542179095470081,2020-02-15 07:44:32,,city,"Melegnano, Lombardia",Italia
151,7.424094,9.073663999999999,leahshairbeauty,1160542308372287488,2020-03-07 06:12:20,,city,"Abuja, Nigeria",Nigeria
21,-48.642748,-27.037564,Tiago Baldo,1160542607644270592,2020-06-04 15:24:33,,poi,Balneario Camboriu,Brasil
21,-43.441578,-22.911421500000003,@{`malvado`},1160542668868468736,2020-02-18 13:28:09,"Rio de Janeiro, Brasil",city,"Rio de Janeiro, Brasil",Brasil
37980,-75.039681,39.82085,albert m guarini,1160542674,2020-03-25 02:15:49,"Blackwood, NJ",poi,Lt. Col. Samuel M. Siler Veterans' Memorial Park,United States
88,130.551452,33.525774,@kAzumi,1160542721599164417,2020-05-30 10:35:36, ,poi, ,
15940,-81.435128,40.855362,Layla Adkins,1160543047685431298,2020-03-15 22:59:06,"Ravenna, OH",poi,Your Moms House,United States
8,-54.545497999999995,-25.596601999999997,Natanael Cabral,1160543103293542400,2020-02-21 22:31:33,"Puerto Iguaz, Argentina",poi,Loi Suites Puerto Iguazu,Argentina
21,-54.45709599999999,-25.453901,Natanael Cabral,1160543103293542400,2020-02-21 23:42:39,"Puerto Iguaz, Argentina",city,"Foz de Iguaz, Brasil",Brasil
8,-54.545497999999995,-25.596601999999997,Natanael Cabral,1160543103293542400,2020-02-23 13:45:17,"Puerto Iguaz, Argentina",poi,Loi Suites Puerto Iguazu,Argentina
21,-54.45709599999999,-25.453901,Natanael Cabral,1160543103293542400,2020-02-23 13:54:39,"Puerto Iguaz, Argentina",city,"Foz de Iguaz, Brasil",Brasil
8,-54.545497999999995,-25.596601999999997,Natanael Cabral,1160543103293542400,2020-02-26 15:18:56,"Puerto Iguaz, Argentina",poi,Loi Suites Puerto Iguazu,Argentina
21,-54.45709599999999,-25.453901,Natanael Cabral,1160543103293542400,2020-02-26 15:55:40,"Puerto Iguaz, Argentina",city,"Foz de Iguaz, Brasil",Brasil
8,-54.571168500000006,-25.612017,Natanael Cabral,1160543103293542400,2020-02-28 13:45:02,"Puerto Iguaz, Argentina",city,"Puerto Iguaz, Argentina",Argentina
21,-54.45709599999999,-25.453901,Natanael Cabral,1160543103293542400,2020-03-02 00:38:11,"Puerto Iguaz, Argentina",city,"Foz de Iguaz, Brasil",Brasil
8,-54.571168500000006,-25.612017,Natanael Cabral,1160543103293542400,2020-03-12 22:34:24,"Puerto Iguaz, Argentina",city,"Puerto Iguaz, Argentina",Argentina
178,27.942027000000003,-32.965348,Germini_n,1160543138341097475,2020-02-18 13:09:12,"Butterworth, South Africa",city,"Beacon Bay, South Africa",South Africa
186,-4.833475,36.50152593,ps,1160543244,2020-06-08 10:03:03,Marbella / Mlaga,city,"Marbella, Espaa",Espaa
21,-46.4539065,-23.39208,Patricia Gomes,1160543380054650880,2020-03-18 19:23:04,,city,"Guarulhos, Brasil",Brasil
186,-6.2053794999999985,36.448851,Atenea ,1160543421586690048,2020-02-24 14:24:38,"San Fernando, Cdiz",city,"San Fernando, Spain",Spain
171,125.1519155,10.3977845,rachelayIV,1160543736297746432,2020-03-22 02:28:29,,city,"Hinunangan, Eastern Visayas",Republic of the Philippines
71,7.8828575,49.837109999999996,Gkdeniz Adelmayer-zcetin,1160543918041305092,2020-03-22 12:02:51,"Bad Kreuznach, Rheinland-Pfalz",city,"Bad Kreuznach, Germany",Germany
222,110.38428,-7.782972999999999,,1160544247050719232,2020-02-28 18:32:09,ykc,poi,Platinum Kitchen & Bar,Indonesia
48,-70.03684899999999,18.531519,juan de la Rosa,1160544409743699968,2020-02-15 01:09:57,,city,"Los Alcarrizos, Dominican Republic",Dominican Republic
26420,-95.4464865,29.838495,Ms.Janell Galloway,1160544552937299968,2020-03-01 00:12:00,"Houston, Texas",city,"Houston, TX",United States
88,141.36396200000001,39.827695,GDider@,1160544659975766020,2020-04-08 04:02:49,,poi,,
193,100.35367149999999,13.714364000000002,Blank.,1160544682234875905,2020-05-16 22:30:07,,city,", ",
82,77.095086,28.638489500000002,Rajeev Sharma,1160545150910681091,2020-02-26 13:11:34,"Jahangirpuri, New Delhi",city,"New Delhi, India",India
82,73.76346,18.598192,Shyamsunder Birajdar,1160545266350432256,2020-03-22 12:18:13,,poi,Green Ways,India
222,100.375912,-0.344146,Daemon,1160545267768156160,2020-02-27 11:37:38,"Kota Bukittinggi, Sumatera Bar",city,"Sungai Puar, Indonesia",Indonesia
21,-43.790572999999995,-19.846323,Elisangela,1160546024248750080,2020-03-21 02:21:17,,city,"Sabar, Brasil",Brasil
222,107.78631299999999,-6.7390275000000015,Yusup Imam Nasrudin,1160546183728619520,2020-04-04 09:30:13,,city,"Tanjungsiang, Indonesia",Indonesia
71,13.3686745,48.733792,Carlos Jalloh,1160546248509788160,2020-02-19 11:31:49,,city,"Tittling, Deutschland",Germany
151,7.0778205000000005,6.222540499999999,Santus Ijeomah,1160546291799252992,2020-05-22 19:44:36,"Awka, Nigeria",city,"Awka, Nigeria",Nigeria
82,78.919554,21.980553,Hyogi lokhande,1160546385021698048,2020-03-02 16:06:45,"Chhindwara, India",city,"Chhindwara, India",India
95,127.01648,37.51502,Ayxan Rassulsson Mamedoff,1160546518169899008,2020-02-15 03:47:32,"Seoul, Republic of Korea",city,"Gangnam-gu, Republic of Korea",Republic of Korea
21,-34.939349,-8.043603,julia nunes,1160547068739559429,2020-04-12 21:20:26,"Recife, Brasil",city,"Recife, Brazil",Brazil
71,8.525095,50.120645,Fackelmann,1160547155721019392,2020-02-19 18:47:50,"Nordrhein-Westfalen, Deutschla",poi,Koogi,Deutschland
152,5.896664,52.0054305,Fackelmann,1160547155721019392,2020-02-22 09:03:33,"Nordrhein-Westfalen, Deutschla",city,"Arnheim, Niederlande",Niederlande
71,6.8538725000000005,51.5143055,Fackelmann,1160547155721019392,2020-02-27 12:47:21,"Nordrhein-Westfalen, Deutschla",city,"Oberhausen, Deutschland",Deutschland
82,77.34060099999998,8.3373205,Sahaya Claston,1160547267641630720,2020-03-14 19:59:33,,city,"Kalkulam, India",India
26420,-95.4464865,29.838495,kris,1160547271378898950,2020-02-27 10:14:38,,city,"Houston, TX",United States
88,130.68752,33.892284000000004,,1160547421794869249,2020-03-18 11:38:28,,poi, ,
222,112.64746880000001,-7.381481,mochamadsayidil,1160547466938212353,2020-03-10 00:28:14,"Kota Surabaya, Jawa Timur",city,"Taman, Indonesia",Indonesia
88,139.5769495,35.584871, ,1160547480552894466,2020-02-14 03:03:08,,city,"Kawasaki-shi Miyamae, Kanagawa",Japan
205,-0.08317000000000001,50.861715000000004,Mark,1160547619506216960,2020-05-12 19:03:45,"Brighton, England",poi,American Express Community Stadium,United Kingdom
109,106.928473,47.890622,Maral Od ,1160547687927668736,2020-04-04 00:57:31,"Shanghai, People's Republic of China",poi,River Street,Mongolia
82,79.0327905,20.9882585,Sunny_jr,1160548044238049282,2020-04-15 11:21:16,"Nagpur, India",city,"Nagpur, India",India
173,84.91046700000003,55.723657499999995,7th peace And Fox for hugs,1160548087896690688,2020-02-14 01:14:41,Best Of Me,city,", ",
193,100.358672,13.677577,Nannii,1160548132708474882,2020-03-25 12:20:22,,city,", ",
9,150.931975,-33.848244,Andrs Felipe Correa,116054814,2020-02-26 21:35:37,"Sydney, New South Wales",city,"Sydney, New South Wales",Australia
24,-83.00208549999998,42.295065,Debbie Shepley,1160548151884951552,2020-02-14 02:08:21,"Ontario, Canada",city,"Windsor, Ontario",Canada
21,-43.959822499999994,-19.918692,antonio,1160548167051620352,2020-02-25 22:08:17,,city,"Belo Horizonte, Brasil",Brasil
171,121.08234499999999,14.5833065,RON,1160548252623577088,2020-02-19 11:02:51,"Pasig City, National Capital R",city,"Pasig City, National Capital Region",Republic of the Philippines
151,3.4465239999999997,6.8021720000000006,David oluwaseyi ibikunle,1160548392696766465,2020-03-31 23:39:20,Lagos Nigeria,poi,Haggai Estate,Nigeria
31080,-118.4119065,34.0207895,ChubbyFilmNerd,1160548474342928385,2020-02-22 00:41:23,,city,"Los Angeles, CA",United States
204,32.637059,0.36585700000000004,Mirembe Ritah,1160548613065457664,2020-02-16 17:01:25,Kampala ,poi,Naalya,Uganda
88,139.748047,36.10868000000001,.O,1160548635022516224,2020-05-02 01:38:54,,city,"Goka-machi, Ibaraki",Japan
120,116.1405425,5.9882775000000015,,1160548655721410560,2020-03-18 08:57:43,"Lahad Datu, Sabah",city,"Kota Kinabalu, Sabah",Malaysia
200,30.8341665,36.9442685,space,1160548670414233602,2020-03-08 11:26:15,Trkiye,city,"Aksu, Trkiye",Trkiye
65,1.9113474999999998,48.9877015,Ville des Mureaux,116054885,2020-02-28 19:48:53,Les Mureaux (Yvelines),city,"Les Mureaux, France",France
88,134.51514650000001,34.04320850000001,,1160548914782588929,2020-06-06 10:31:48,,city, ,
21,-54.635672,-20.421736,Ryanzinho Molina,1160548949742247941,2020-02-29 02:40:01,"Campo Grande, Brasil",poi,Bifo do Coophasul,Brasil
88,135.717308,35.094490500000006, ,1160548953022033920,2020-05-30 23:24:10, ,city,"Kyoto-shi Kita-ku, Kyoto",Japan
35620,-74.0064,40.7142,K I N K Y F U C K A R Y,1160549309223333893,2020-05-23 19:20:12,,city,"Manhattan, NY",United States
88,139.68824949999998,36.34783450000001,,1160549447375310848,2020-04-18 05:48:53, ,city, ,
82,88.6404335,22.83959,ayan kundu,1160549495098109953,2020-03-19 08:04:02,,city,"Habra, India",India
205,-2.0080795,52.69965799999999,MJBennett,1160549575,2020-02-28 22:20:07,wolves ay we,city,"Cannock, England",United Kingdom
21,-42.522482000000004,-22.23735,Damasceno,1160549722245009410,2020-06-01 21:47:19,,poi,Jardinlndia,Brasil
49,-78.5566815,-0.16657049999999998,Jacqueline Mera,1160549766,2020-02-25 03:51:34,"Manta, Ecuador",city,"Quito, Ecuador",Ecuador
200,39.326882,37.75155700000001,BerfiN,1160549994371473409,2020-05-31 16:35:00,"Siverek, Trkiye",city,"Siverek, Trkiye",Trkiye
200,30.50071,39.754203499999996,Ali Baran,1160550003183689728,2020-02-24 15:36:13,,city,"Odunpazar, Trkiye",Trkiye
200,27.2590495,37.8146925,murat,1160550051556614144,2020-03-29 11:46:27,,city,"Kuadas, Trkiye",Turkey
119,-99.25227,19.48205,Mariel Baltre,116055023,2020-04-26 02:18:28,Mxico,poi,NaucalpanVille,Mxico
82,80.1621765,12.9394605,CorporateCriminalMc,1160550243458404352,2020-02-15 07:03:11,India,city,"Sholinganallur, India",India
222,98.62735699999999,3.626826,JADI BATU,1160550283249770501,2020-04-08 16:56:56,,city,"Medan Helvetia, Indonesia",Indonesia
171,121.580497,13.962679999999999,Lala,1160550314505834496,2020-05-29 14:45:39,Lucena City,poi,Welmanville Subdivision,Republic of the Philippines
151,7.422322500000001,10.511245,@kaniyam,1160550523831037957,2020-02-15 10:35:38,"Kaduna, Nigeria",city,"Kaduna, Nigeria",Nigeria
65,1.4329005,43.600757,mahmoud el hady,116055076,2020-02-16 12:09:02,"Alexandria, Egypt",city,"Toulouse, France",France
21,-47.379698700000006,-22.3321228,Fernandinho Silva,116055084,2020-04-25 19:24:17,Araras,city,"Araras, Brasil",Brasil
82,73.910077,18.5081615,Malaram Lodha,1160550844921602048,2020-04-13 11:53:15,,city,"Haveli, India",India
65,-1.5568725,47.174899,Bote de Nuit Zeitgeist Y2K Nantes,1160550885887488000,2020-02-17 09:49:21,"Nantes, France",city,"Rez, France",France
200,29.02587593,41.04840446,Sude,1160550900886396928,2020-04-28 18:39:48,"stanbul, Trkiye",city,"stanbul, Trkiye",Trkiye
82,73.8704585,15.369245999999999,Pawan Gorantla,1160550925221675008,2020-03-08 05:07:15,Goa ,city,"Marmagao, India",India
33100,-80.14917249999999,26.150368,Juggernaut,1160550967,2020-03-10 16:25:20,"Miami, FL",city,"Fort Lauderdale, FL",United States
200,27.88319203,39.64627981,vs,1160551005718798337,2020-02-14 13:36:39,,city,"Balkesir, Trkiye",Trkiye
21,-47.796623,-15.776254000000002,Michelle Ray,1160551100556226561,2020-03-19 16:43:32,"Braslia, Brazil",city,"Braslia, Brazil",Brazil
88,139.65925049999998,35.7060655,,1160551101256491014,2020-04-21 14:48:23,,city,"Nakano-ku, Tokyo",Japan
14460,-70.77878299999999,43.0561145,mily,1160551108651229184,2020-02-15 00:42:07,,city,"Portsmouth, NH",United States
200,31.6118565,40.736535499999995,timucinerem,1160551362,2020-03-15 17:37:42,"Bolu, Trkiye",city,"Bolu, Trkiye",Trkiye
30,104.084838,30.654333,,1160551456497209344,2020-04-19 15:06:20,chengdu  luoyang,poi,Apple Taikoo Li Chengdu (Apple ),
85,11.107802000000001,46.064046000000005,Manuela,1160551475153690626,2020-02-14 02:34:33,Italia,city,"Trento, Trentino-South Tyrol",Italy
193,100.41209,13.878511999999999,", ",1160551527431360514,2020-05-31 05:42:42,,poi,IKEA Bang Yai ( ),Thailand
189,11.73402,57.68110600000001,Effina,1160551666162315264,2020-04-20 14:15:43,Kuwait,city,"Gothenburg, Sweden",Sweden
65,2.491269,48.945853,MasterMP4,1160551708151468037,2020-04-02 12:38:03,"Aulnay-sous-Bois, France",city,"Aulnay-sous-Bois, France",France
222,112.8028965,-7.288131,tikatikatika,1160551716724416513,2020-04-19 19:57:39,"Kota Surabaya, Jawa Timur",city,"Sukolilo, Indonesia",Indonesia
222,107.5660825,-7.180553999999999,Resa Sifa,1160551750559944704,2020-02-14 01:14:55,"Pangalengan, Indonesia",city,"Pangalengan, Indonesia",Indonesia
21,-46.5955455,-23.682803,Tas,1160551903870238721,2020-02-14 01:15:47,,city,"Sao Paulo, Brazil",Brazil
205,-0.5473899999999999,53.220721,Lory ,1160551953946091527,2020-02-14 11:51:48,"Lincoln, England",city,"Lincoln, England",United Kingdom
82,77.4873795,28.756651,Rajat Tyagi,1160551971515879424,2020-02-14 11:22:09," , ",city,"Muradnagar, India",India
119,-89.646286,21.0316,singleboy,116055213,2020-05-27 05:09:59,"Francisco de Montejo, Mrida",poi,Fracc. Francisco de Montejo,Mxico
82,77.095086,28.638489500000002,Professor (Dr) K K Pandey,1160552278236880898,2020-03-10 05:40:31,Delhi,city,"New Delhi, India",India
33460,-93.16833445,45.02603601,Ryan McGrath,1160552725,2020-02-16 05:25:12,,city,"Roseville, MN",United States
35620,-73.99302624,40.75873946,Ryan McGrath,1160552725,2020-03-08 03:12:30,,city,"Manhattan, NY",United States
33460,-93.35106611,44.96420962,Ryan McGrath,1160552725,2020-03-27 05:02:30,,city,"St Louis Park, MN",United States
186,-16.231479,28.499581,Maria Camacho,116055304,2020-02-18 00:21:05,,city,"Santa Cruz de Tenerife, Espaa",Espaa
88,139.87015050000002,35.82460349999999, ,1160553232147480576,2020-05-15 04:08:26,,city,"Misato-shi, Saitama",Japan
82,77.095086,28.638489500000002,Parveen Pathak,1160553272039501825,2020-04-23 15:41:02,"New Delhi, India",city,"New Delhi, India",India
88,139.626644,35.197173,A,1160553353715126277,2020-02-24 12:12:53,,poi, ,Japan
160,-76.9814185,-12.1265765,Meshiu Morante Flores ,1160553458,2020-02-14 00:55:49,,city,"Santiago de Surco, Peru",Peru
35620,-73.914658,40.634965,KrispyNoKen,1160553553,2020-03-02 15:50:40,"Brooklyn, NY",poi,Wendy's,United States
17420,-84.86635000000003,35.193335999999995,haley wooten,1160553898677080064,2020-02-14 16:27:07,"Tennessee, USA",city,"Cleveland, TN",United States
222,108.32695849999999,-6.3207565,alvi kuli jeawa,1160553924576727040,2020-03-19 01:25:45,"prev, kuyangfirdaus",city,"Indramayu, Indonesia",Indonesia
171,126.3332905,8.1782015,JvonClint Berdin,1160554280333398016,2020-03-22 15:18:32,/ JanMarie,city,"City Of Bislig, Caraga",Republic of the Philippines
28660,-97.6547945,31.053384499999996,The Space-Agers,1160554427109056512,2020-03-05 03:29:19,,city,"Harker Heights, TX",United States
82,77.69233050000001,14.126957999999998,Gh Harish yadav,1160554435707146240,2020-03-28 12:11:11,,city,"Puttaparthi, India",India
19820,-83.52915999999998,42.528303,WLW XC & Track,1160554560177545216,2020-04-03 18:35:07,,city,"Wixom, MI",United States
45300,-82.44269399999997,27.9965945,EverydayJewel71,1160554734517927936,2020-02-17 19:37:54,"Tampa, FL",city,"Tampa, FL",United States
171,120.9363625,13.888924,Gyunie,1160554838674956294,2020-03-20 07:00:46,"Batangas City, Calabarzon",city,"Taal, Calabarzon",Republic of the Philippines
82,77.095086,28.638489500000002,Ritwik Chaturvedi,1160555024226762755,2020-03-27 11:45:23,,city,"New Delhi, India",India
222,112.64171599999999,-7.942089,,116055503,2020-02-14 06:50:40,,poi,Masjid Sabilillah,Indonesia
82,85.29704699999999,23.31569,BAMFI,1160555095366328320,2020-03-24 04:22:55,,poi,dhurwa,India
49,-80.091193,-2.512995,gonzalo  leon,1160555240,2020-03-08 04:02:24,,city,"Guayaquil, Ecuador",Ecuador
33980,-77.00664499999998,34.6638645,haligrace23,1160555301789143040,2020-05-20 22:58:12,,city,"Emerald Isle, NC",United States
38300,-79.9806895,40.431389,Teague Cole,1160555311243124736,2020-04-04 18:03:26,"Pittsburgh, PA",city,"Pittsburgh, PA",United States
35980,-72.10271800000002,41.5492885,Dragon ,1160555358567444480,2020-06-03 21:39:40,"Connecticut, USA",city,"Norwich, CT",United States
41740,-117.253175,32.88921,Jordan,1160555472404922368,2020-06-10 23:41:44,"San Diego, CA",poi,Black's Beach,United States
65,4.872383,45.782781,Camille Casaert,1160555612448743424,2020-02-22 15:08:53,"Grenoble, France",poi,Universit Claude Bernard Lyon 1 - Campus de la Doua,France
50,31.249709000000003,30.050058,John lofu,1160555617146298368,2020-05-18 03:30:57,,poi,Cairo Le Meridian Hotel,
193,100.670766,13.895107500000002,XZDayToy,1160556260246216704,2020-04-09 02:50:04,,city,"Ao Ngoen, Thailand",Thailand
14,91.658615,25.044355,Ahnaf Mahmud,1160556260711968768,2020-05-15 06:23:03,"Sylhet, Bangladesh",poi,chhatak,Bangladesh
151,4.2021665000000015,12.451223,officer alamen,1160556323324518400,2020-02-20 04:06:29,,city,"Birnin-Kebbi, Nigeria",Nigeria
200,41.2655875,39.9100375,Hakan,1160556466232860672,2020-05-24 17:59:08,"Erzurum, Trkiye",city,"Erzurum, Trkiye",Trkiye
82,80.2176115,13.013218499999999,MAKTHAL TRS PARTY Official (Assembly constituency),1160556600001646593,2020-02-17 03:31:22,,city,"Chennai, India",India
171,125.06606399999998,7.902982000000001, ,1160556690774749185,2020-02-15 02:13:32,"Santa Rosa, Laguna, Manila",city,"City of Valencia, Northern Mindanao",Republic of the Philippines
186,2.126777,41.3746915,Mister Risanty,1160556716053975043,2020-03-23 11:25:38,,neighborhood,"Sants-Badal, Barcelona",Spain
41860,-122.38709399999999,37.616713,bang,1160556759968358400,2020-03-02 20:55:18,"Brooklyn, NY",poi,San Francisco International Airport (SFO),United States
88,139.622008,35.74586499999999,B.S,1160556799184949250,2020-03-30 05:25:26,,city,"Nerima-ku, Tokyo",Japan
41,-79.50045899999999,22.080576,Noel Antonio Cabrera Fernndez,1160556921348349952,2020-05-11 23:54:44,Cuba,poi,Cabaiguan,Cuba
88,135.8920905,34.6579675, ,1160556961479286784,2020-02-14 06:16:55, ,city, ,
21,-51.1593095,-30.099836,Thaii Souza,1160557011278471168,2020-03-04 17:54:08,"Ipanema, Porto Alegre",city,"Porto Alegre, Brazil",Brazil
171,121.174816,14.067509,Mikay,1160557059898630144,2020-03-11 13:03:50,South,city,"Santo Tomas, Calabarzon",Republic of the Philippines
88,137.0738505,34.813696500000006,,1160557304242032649,2020-02-16 14:33:53,,city,"Nishio-shi, Aichi",Japan
186,-6.2655855,38.222907,UD_FDC FANS,1160557362014502912,2020-02-22 13:58:25,"Fuente de Cantos, Badajoz",city,"Fuente de Cantos, Espaa",Espaa
38,-73.92732149999999,11.0734625,.,1160557429144399873,2020-02-15 19:19:04,,city,"Santa Marta, Colombia",Colombia
31080,-118.4119065,34.0207895,,1160557608987590656,2020-03-02 03:35:53,"Los Angeles, CA",city,"Los Angeles, CA",United States
205,-2.264325,53.794216500000005,Aroosha Ahmed,1160557644098220034,2020-02-19 02:14:59,United Kingdom,city,"Burnley, England",United Kingdom
21,-48.347295,-20.7756145,joao10cg,1160557771118567424,2020-05-30 12:09:15,,city,"Terra Roxa, Brasil",Brasil
188,32.6430035,15.4987785,  ,1160557932259528705,2020-03-29 21:33:03,,city,Soba West,
37980,-75.117998,40.0048655,Belford Rivera,1160557940,2020-02-22 17:49:49,"Egg Harbor City, Nj",city,"Philadelphia, PA",United States
12100,-74.649023,39.5368095,Belford Rivera,1160557940,2020-03-08 14:46:49,"Egg Harbor City, Nj",city,"Egg Harbor City, NJ",United States
36140,-74.572137,39.27494,Belford Rivera,1160557940,2020-05-16 18:16:59,"Egg Harbor City, Nj",poi,Manco & Manco Pizza,United States
37980,-75.117998,40.0048655,Belford Rivera,1160557940,2020-05-21 21:19:03,"Egg Harbor City, Nj",city,"Philadelphia, PA",United States
12100,-74.649023,39.5368095,Belford Rivera,1160557940,2020-05-23 11:59:47,"Egg Harbor City, Nj",city,"Egg Harbor City, NJ",United States
35620,-73.8311875,40.6708795,Eleasha Gamble,1160558239,2020-03-18 19:27:48,New York,city,"Queens, NY",United States
19820,-83.099288,42.3527865,Emma Thomas,1160558374011977728,2020-04-08 00:13:57,,city,"Detroit, MI",United States
33,-71.550747,-33.02129,Reborn,1160558609224339461,2020-03-07 18:04:30,V regin chile,poi,Feria del Libro de Via del Mar,Chile
33100,-80.38378399999999,25.869070999999998,Reborn,1160558609224339461,2020-03-26 02:57:47,V regin chile,poi,Courtyard by Marriott Miami West/FL Turnpike,Estados Unidos
48180,-82.3511705,31.2019235,Reborn,1160558609224339461,2020-04-13 21:08:03,"Miami, FL",city,"Waycross, GA",Estados Unidos
120,103.405235,3.4601475,syx,1160558615175954439,2020-06-11 12:49:36,"Cameron Highlands, Pahang",city,"Pekan, Pahang",Malaysia
21,-43.803105,-22.879409,J Belchior,1160559370436038656,2020-03-06 22:52:12,,city,"Itagua, Brasil",Brasil
222,109.26170549999999,-7.325626,Ronaar,1160559515768479744,2020-02-28 23:57:08,,city,"Sumbang, Indonesia",Indonesia
82,82.133927,26.7689,VISHAL RAJNEESH SRIVASTAVA ,1160559530486317056,2020-02-19 08:03:00,"Ayodhya, India",poi,Faizabad Junction,India
164,-9.195505,38.7953675,Rita,1160559557732687873,2020-05-28 22:13:52,"Odivelas, Portugal",city,"Odivelas, Portugal",Portugal
21,-43.315089,-22.857136999999998,Ph ,1160559577487814658,2020-03-15 14:42:43,"Vila da Penha, Rio de Janeiro",poi,Morro do Juramento,Brasil
222,107.4228185,-6.5105135,Hamidah,1160559604972978177,2020-04-09 06:30:42,"Jawa Barat, Indonesia",city,"Purwakarta, Indonesia",Indonesia
21,-38.51989,-3.789768,Erinon Filho,1160559826113638401,2020-02-14 10:21:45,"Fortaleza, Brasil",city,"Fortaleza, Brazil",Brazil
151,7.424094,9.073663999999999,Farouk Idris,1160559860343345152,2020-03-24 16:25:16,"Abuja, Nigeria",city,"Abuja, Nigeria",Nigeria
21,-53.105762,-25.742499,Queren Antonielli,1160560017986281473,2020-03-05 22:36:09,,city,"Dois Vizinhos, Brasil",Brasil
222,106.88351899999999,-6.295869000000001,denyyou,1160560225331507200,2020-02-15 12:49:13,"Semarang, Jawa Tengah",poi,Padepokan Pencak Silat Indonesia,Indonesia
38,-76.17748399999998,4.179193,Andres,1160560277978529793,2020-02-16 21:04:09,,city,"Bugalagrande, Colombia",Colombia
151,5.780844,5.551759499999998,Nogho,1160560360312717312,2020-04-28 10:30:29,,city,"Warri, Nigeria",Nigeria
193,100.6078895,13.870529999999999,. ,1160560363928084487,2020-04-29 12:17:52,,city,", ",
82,78.3852855,17.3950375,Anjaneyulu DJ,1160560488050122752,2020-02-14 11:53:22,"Hyderabad, India",city,"Rajendra Nagar, India",India
38,-75.619213,6.270883,Kevin Holguin Garcia,1160560858143047681,2020-02-16 07:55:21,,city,"Medelln, Colombia",Colombia
39740,-75.9939225,40.320984499999994,Jerry hartman,1160560912459337732,2020-02-14 08:39:36,"West Lawn, PA",city,"West Wyomissing, PA",United States
82,77.095086,28.638489500000002,Prateek Srivastava,1160560999818244097,2020-03-23 16:34:21,"Gurgaon, India",city,"New Delhi, India",India
186,-2.002399,43.313508,Mk ,1160561027664232453,2020-02-15 22:05:38,"Gipuzkoa, Pas Vasco",poi,USB Music,Spain
21,-43.119101,-22.616096,eloa rabelo,1160561223819321344,2020-04-21 03:59:22,,city,"Mag, Brasil",Brazil
222,110.66879340000001,-7.0558011,OrangDong!,1160561224683180032,2020-05-22 09:58:17,Semarang,city,"Gubug, Indonesia",Indonesia
222,103.814171,-3.6256074999999996,Fahrul Antoni,1160561684429201408,2020-02-29 13:40:45,"Muara Enim, Indonesia",city,"Muara Enim, Indonesia",Indonesia
82,76.43708050000002,19.454932,Vaibhav Deshmukh,1160561712715534344,2020-05-18 17:06:40,Pune,city,"Sailu, India",India
21,-41.941329,-22.470358500000003,suco de fruta,1160561785574973440,2020-02-26 04:28:26,,city,"Rio das Ostras, Brasil",Brasil
82,77.095086,28.638489500000002,Deepak Bhandari,1160561786464034817,2020-04-13 06:22:02,"New Delhi, India",city,"New Delhi, India",India
175,36.614784,28.39854,mosafr2030,1160561853732401152,2020-03-03 14:23:26,,city,"Tabuk, Kingdom of Saudi Arabia",Kingdom of Saudi Arabia
31080,-118.26680900000001,34.041526,theillestpisces,1160562055163723778,2020-02-18 16:52:34,"Los Angeles, CA",poi,Circa LA Apartments,United States
82,77.3508815,28.3312135,Poonam kant,1160562210004860928,2020-06-10 16:15:54,,city,"Faridabad, India",India
151,3.19925,6.499572,Chidi anosike,1160562212,2020-02-26 09:35:55,"Lagos, Nigeria",city,"Ojo, Nigeria",Nigeria
120,100.404326,5.385179, ,1160562317462913025,2020-04-11 17:53:25,wazzappppp,poi,Stadium Old Trafford Taman Siakap,Malaysia
28140,-94.31332900000001,38.91028107,Byrrrne,116056253,2020-03-16 21:03:15,Right here. Right now.,city,"Lee's Summit, MO",United States
88,130.44778300000002,33.625101,kanna,1160562604026155008,2020-02-16 05:40:43,,poi,,
8,-68.8666875,-32.8833425,Apolonia,1160562617271934980,2020-04-12 16:19:59,"Mendoza, Argentina",city,"Mendoza, Argentina",Argentina
120,101.552669,3.0512200000000003,emeldanadira,1160562868112113664,2020-02-14 00:22:31,,city,"Damansara, Selangor",Malaysia
69,-1.1043290000000001,10.97402,KABA VICTOR NANKONG,1160562915390476288,2020-04-02 02:03:38,,city,"Paga Kakungu, Ghana",Ghana
205,-1.6901755,55.005311999999996,Tony Young,1160562936110301184,2020-05-29 19:06:14,"North East, England",city,"Whorlton Grange, England",United Kingdom
65,3.0715885,50.628974,@littlepink,1160562993287106560,2020-02-25 22:27:09,,city,"Lille, France",France
222,111.921991,-8.047363,moerdanoei,1160563047255035904,2020-02-15 13:44:23,sing penting ada kamu,city,"Kedungwaru, Indonesia",Indonesia
57,16.379845500000002,48.22012,foodievienna,1160563140033241088,2020-02-14 10:16:59,"Wien, sterreich",city,"Vienna, Austria",Austria
71,13.67688376,52.83189119,foodievienna,1160563140033241088,2020-05-02 07:25:29,"Wien, sterreich",city,"Schorfheide, Deutschland",Germany
57,16.379845500000002,48.22012,foodievienna,1160563140033241088,2020-05-02 08:27:37,"Wien, sterreich",city,"Vienna, Austria",Austria
119,-99.0444445,19.568279999999998,Laura,1160563184086003713,2020-02-16 19:08:19,,city,"Ecatepec de Morelos, Mxico",Mxico
82,77.339529,30.2514435,Mukesh Mehra,1160563191090470912,2020-03-21 04:46:22,,city,"Yamunanagar, India",India
171,123.189842,13.620959,alexis,1160563248560664577,2020-06-01 07:25:46,,poi,SM City Naga,Republic of the Philippines
88,131.18222749999998,31.733024,,1160563359147646976,2020-02-29 14:52:15,,city, ,
73,21.6847045,40.50572200000001,leotim1987,1160563402655358978,2020-04-04 07:42:54,Western Makedonia,city,", ",
171,121.01080300000001,14.483414000000002,nadz,1160563600856977411,2020-02-14 10:05:23,jake & kerbz,city,"Paranaque City, National Capital Region",Republic of the Philippines
82,77.6072125,12.99384875,Allwyn._.Thomas,1160563770185224195,2020-05-13 09:19:27,", ",city,"Bengaluru, India",India
21,-59.9803255,-2.572425,Itallo_18,1160564052248158208,2020-02-16 22:09:24,"Manaus, Brasil",city,"Manaus, Brasil",Brasil
88,137.3108565,35.140860499999995, ,1160564057797095431,2020-02-29 05:11:53,,city,"Toyota-shi, Aichi",Japan
205,-2.456646,50.513863,Nige,1160564092421255169,2020-06-07 15:03:24,"Poole, England",poi,Portland Bill,United Kingdom
35620,-73.9487755,40.655138,Adel Alesaei,1160564193801703425,2020-05-02 04:00:02, ,city,"Brooklyn, NY",United States
120,101.705305,3.1485305,haifa ,1160564242174447616,2020-02-21 02:23:07,,city,"Kuala Lumpur City, Kuala Lumpur Federal Territory",Malaysia
222,109.44633700000001,-7.4854319999999985,Hai aku,1160564267629760513,2020-04-26 01:39:26,,city,"Purworejo Klampo, Indonesia",Indonesia
200,29.0052225,41.0213205,yeim eryuva,1160564313154871296,2020-04-15 21:23:53,,city,"stanbul, Trkiye",Turkey
82,76.585677,28.260807,preety chauhan,1160564318078771200,2020-03-27 17:22:45," , ",city,"Rewari, India",India
88,140.36130300000002,36.2043175,,1160564346377736193,2020-05-07 14:20:26,,city, ,
82,80.88440750000002,26.8251695,Saurabh Yadav,1160564364052615168,2020-03-03 17:12:20,"Raebareli
",city,"Lucknow, India",India
171,121.062721,13.790391,@Brader,1160564368737632257,2020-03-13 03:30:32,,poi,Batangas City Grand Terminal,Republic of the Philippines
95,127.415722,36.2941135,.,1160564381916119040,2020-02-19 13:06:37,,city, ,
71,11.13536,49.439987, EYAD ,1160564487314989056,2020-04-05 21:48:32,Bayern,city,"Nuremberg, Germany",Germany
200,30.439902000000004,36.383842,1,1160564521272061952,2020-05-08 11:28:53,"Antalya, Trkiye",poi,Olympos Village,Trkiye
33460,-93.2373245,44.679378,Jennifer Christine,116056464,2020-02-17 04:17:19,Sherwood Forest,city,"Lakeville, MN",United States
20260,-92.067847,46.700355,Jennifer Christine,116056464,2020-02-26 13:29:19,Sherwood Forest,city,"Superior, WI",United States
193,102.8166925,17.4008265,DEF.ONLY ,1160564680143728640,2020-04-27 07:20:20,,city,"Udon Thani, Thailand",Thailand
95,127.72053600000001,37.866099,,1160564753271386113,2020-06-11 08:13:36,,poi, ,
82,79.9536,23.169275,Arzoo E Kaaba,1160564789967376384,2020-02-24 19:23:23,", ",poi,Jabalpur,India
222,108.31992673,-6.32748283,Deden Bonni Koswara,116056489,2020-04-04 08:02:41,"T: -6.406481,108.163153",city,"Indramayu, Indonesia",Indonesia
88,130.33868950000002,33.510389,kousei,1160565180834521089,2020-05-12 17:16:16,,city,"Fukuoka-shi Sawara, Fukuoka",Japan
82,77.4233395,28.773568,Tohid.saifi,1160565215966056448,2020-04-14 08:44:49,"Delhi, India",city,"Ghaziabad, India",India
186,-0.9273325000000001,41.6916365,Paco Cardiel,1160565319,2020-02-14 20:36:43,"Zaragoza, Aragon",city,"Zaragoza, Espaa",Espaa
200,30.381503,40.7592495,Tuba,1160565442290823169,2020-04-21 22:41:57,,city,"Sakarya, Trkiye",Trkiye
95,127.21126389999999,36.774330400000004,EunHwan Huh,1160566104747417601,2020-05-10 01:29:17,,city,"Cheonan-si, Republic of Korea",Republic of Korea
222,103.618904,-1.594378,Abdullah Ahmad,1160566196011298816,2020-05-22 16:15:50,,city,"Telanaipura, Indonesia",Indonesia
119,-99.182126,19.4857835,Abad Antonio,1160566230761246720,2020-02-24 01:35:21,,city,"Azcapotzalco, Distrito Federal",Mxico
82,72.88261800000001,21.189207999999997,PREM KANT SHARMA,1160566365918547969,2020-04-24 06:05:14,", ",poi,Welcome To Surat,India
19820,-83.039203,42.332313,Miss Cicero,1160566382213390336,2020-03-10 16:28:50,"Saline, Michigan",poi,Junior Achievement of Southeastern Michigan,United States
33780,-83.401207,41.9165775,Miss Cicero,1160566382213390336,2020-03-11 02:15:28,"Saline, Michigan",city,"Monroe, MI",United States
45780,-83.574671,41.65659049999999,Miss Cicero,1160566382213390336,2020-03-17 16:46:08,"Saline, Michigan",city,"Toledo, OH",United States
33780,-83.401207,41.9165775,Miss Cicero,1160566382213390336,2020-03-17 22:50:23,"Saline, Michigan",city,"Monroe, MI",United States
11460,-83.713277,42.200913,Miss Cicero,1160566382213390336,2020-05-04 22:13:07,"Saline, Michigan",city,"Pittsfield, MI",United States
33780,-83.430226,41.8968805,Miss Cicero,1160566382213390336,2020-05-19 19:42:59,"Saline, Michigan",city,"South Monroe, MI",United States
11460,-83.713277,42.200913,Miss Cicero,1160566382213390336,2020-05-21 22:05:38,"Saline, Michigan",city,"Pittsfield, MI",United States
19740,-104.9220935,39.713563,Brian,1160566632,2020-02-28 02:55:25,,city,"Denver, CO",United States
33100,-80.1226195,26.721896,Brian,1160566632,2020-06-10 05:48:41,,city,"West Palm Beach, FL",United States
88,135.76933,34.88684,,1160566670852706306,2020-05-13 07:44:04, ,poi, ,Japan
193,100.8277725,13.832671,Butsaba Woottisan,1160566841766363137,2020-05-02 23:23:55,", ",city,"Khok Faet, Thailand",Thailand
82,80.1621765,12.9394605,,1160566900801228800,2020-03-17 14:32:52,"Vedaranyam, India",city,"Sholinganallur, India",India
65,1.8683335,44.2606005,Luri,1160567379639881729,2020-04-24 04:05:29,"Pernambuco, Brasil",city,"Parisot, France",France
193,100.618354,13.605681500000001,Oki_oki,1160567397431959552,2020-03-02 06:19:52,"., .",city,", ",
160,-78.5580475,-7.065489,Jorge,1160567437814915073,2020-03-02 23:21:24,,city,"Cajamarca, Peru",Peru
173,41.4379745,52.7355485,,1160567488742121473,2020-02-28 18:11:55,,city,", ",
186,-0.352529,39.422484499999996,Joseluis Ruizortiz,1160567646284328965,2020-05-19 21:29:11,"Valencia, Espaa",city,"Valencia, Spain",Spain
65,2.5502455000000004,50.4889945,jules galand,1160567880909557760,2020-03-19 00:35:47,n,city,"Bruay-la-Buissire, France",France
19100,-96.0725895,32.878915500000005,rilla cooper,1160568024241455104,2020-02-19 18:55:06,,city,"Hawk Cove, TX",United States
24,-79.27256949999999,43.629311,,1160568126670376960,2020-03-08 03:39:17,,city,"Toronto, Ontario",Canada
82,72.87424399999999,19.174139999999998,Jayesh Sathe,1160568227837014022,2020-02-14 05:51:53,,city,"Mumbai, India",India
222,106.43121599999999,-6.1780265,,1160568351057334273,2020-06-03 14:48:48,03's,city,"Balaraja, Indonesia",Indonesia
19100,-96.835249,33.1501395,ananya,1160568393201856513,2020-05-14 08:05:37,United States,city,"Frisco, TX",United States
26420,-95.4464865,29.838495,Neda ,1160568513767137292,2020-02-22 19:18:02,,city,"Houston, TX",United States
205,-2.7621095,52.715233,JM,1160568570,2020-02-28 19:03:16,"Shrewsbury, Shropshire",city,"Shrewsbury, England",United Kingdom
200,28.99848233,41.06767241,Turquaz Ajans,1160568777752350722,2020-05-25 08:28:18,stanbul\Mecidiyeky,city,"stanbul, Trkiye",Trkiye
152,6.365684,52.83433,Emmy ,1160568971277590529,2020-05-21 15:43:02,Drenthe ,poi,Dwingeloo,The Netherlands
69,-0.0189785,5.703022000000002,Elvaa Property Consult,1160569150881837058,2020-03-10 18:45:36,,city,"Tema, Ghana",Ghana
82,77.47285649999999,10.0156935,V,1160569330276294657,2020-05-09 01:09:19,,city,"Theni Allinagaram, India",India
65,4.835099,45.75782150000001,Nass ,1160569783206731778,2020-03-22 08:02:08,"Lyon, France",city,"Lyon, France",France
88,139.69262600000002,35.666851,3phd,1160569832300924928,2020-06-06 04:59:36, ,city, ,
193,99.84992,13.692177,Thipphanee Choketananukull,1160569859672961025,2020-04-12 16:00:19,,city,", ",
45940,-74.7733365,40.2161325,David Pringle,1160569932,2020-02-25 19:36:05,"Cranford, NJ",city,"Trenton, NJ",United States
35620,-74.304097,40.656323,David Pringle,1160569932,2020-02-26 14:09:13,"Cranford, NJ",city,"Cranford, NJ",United States
45940,-74.7733365,40.2161325,David Pringle,1160569932,2020-03-02 17:51:39,"Cranford, NJ",city,"Trenton, NJ",United States
35620,-74.304097,40.656323,David Pringle,1160569932,2020-03-05 12:17:26,"Cranford, NJ",city,"Cranford, NJ",United States
15540,-73.22577249999999,44.4925995,David Pringle,1160569932,2020-03-10 17:08:43,"Cranford, NJ",city,"Burlington, VT",United States
35620,-74.304097,40.656323,David Pringle,1160569932,2020-03-12 12:18:59,"Cranford, NJ",city,"Cranford, NJ",United States
28740,-73.968333,42.0633765,David Pringle,1160569932,2020-05-18 17:23:44,"Cranford, NJ",city,"Saugerties, NY",United States
35620,-74.304097,40.656323,David Pringle,1160569932,2020-05-31 14:44:49,"Cranford, NJ",city,"Cranford, NJ",United States
120,103.838094,1.5254035, ,1160570241555955712,2020-03-03 14:10:47,,city,"Plentong, Johor",Malaysia
171,121.00663300000001,14.755164,SNichol3,1160570248157810689,2020-03-12 07:32:39,,poi,Tierra Nova Main,Republic of the Philippines
82,77.270235,11.045211,Saravanamuthu.m,1160570283129884678,2020-02-17 08:38:24,"Gobichettipalayam, India",city,"Palladam, India",India
82,77.095086,28.638489500000002,Sushil Kashyap,1160570305032552448,2020-05-21 16:07:54,,city,"New Delhi, India",India
200,29.317613,40.908024,Rait Altun,1160570989,2020-02-15 14:17:21,zmir,poi, Hatlar Gidi,Turkey
82,72.82211,19.37034,11 Station The Fitness Studio,1160571023437127680,2020-03-04 05:39:27,Vasai,city,"Mumbai, India",India
35620,-74.0647,40.7114,H.D.,1160571295,2020-04-28 22:27:51,"New Jersey, USA",city,"Jersey City, NJ",United States
32580,-98.11426999999999,26.1871815,Roy Joshua,1160571470017433603,2020-02-14 20:02:23,"San Antonio, TX",city,"Alamo, TX",United States
41700,-98.5406515,29.417501,Roy Joshua,1160571470017433603,2020-05-10 02:24:28,"Dirty South, TX",city,"San Antonio, TX",United States
82,77.095086,28.638489500000002,satish kumar yadav,1160571518620880897,2020-05-10 09:30:01,,city,"New Delhi, India",India
162,18.690839999999998,54.360944999999994,Adrianna Victoria Dzietowiecka,1160571522270093312,2020-05-01 19:06:06,Barcelona,city,"Gdansk, Poland",Poland
222,110.36523500000001,-7.796434,khohadad ajiji,1160571563206275072,2020-03-14 18:39:35,"Gondanglegi, Indonesia",poi,SBTB Lesehan Malioboro,Indonesia
20500,-78.9119475,36.719699,Trinity Martin,1160571652155088896,2020-02-20 16:27:29,"Nathalie, VA",city,"South Boston, VA",United States
178,27.968098,-26.2761385,jordankellyreecegreen,1160571691594113024,2020-02-16 19:53:42,"Johannesburg, South Africa",city,"Johannesburg, South Africa",South Africa
21,-54.6333,-16.4667,Anglica Barbosa,1160571757,2020-04-21 03:19:36,"Rondonopolis, MT",city,"Rondonpolis, Brasil",Brasil
88,139.3070305,35.357679499999996,(kazuo(roberto)) (Horie),1160571766994956288,2020-05-10 11:40:16,,city,"Hiratsuka-shi, Kanagawa",Japan
222,106.837755,-6.293493,ghinscu,1160571794576723968,2020-02-24 00:57:14,,city,"Pasar Minggu, Indonesia",Indonesia
12060,-84.50306649999997,34.110776,kaleigh,1160571798087450624,2020-06-04 23:19:48,,city,"Woodstock, GA",United States
21,-51.035027,-29.068624,ALEX,1160571900227178497,2020-03-22 19:41:37,,city,"Caxias do Sul, Brasil",Brasil
16740,-80.84333333,35.22694444,Red SexSlave,1160571992342499329,2020-03-19 03:22:29,"Charlotte, NC",city,"Charlotte, NC",United States
47260,-76.355918,36.841764000000005,Red SexSlave,1160571992342499329,2020-05-26 13:27:15,"Charlotte, NC",city,"Portsmouth, VA",United States
16740,-80.8467855,35.209059,Red SexSlave,1160571992342499329,2020-05-26 19:06:34,"Charlotte, NC",city,"Charlotte, NC",United States
47260,-76.355918,36.841764000000005,Red SexSlave,1160571992342499329,2020-05-26 21:54:23,"Charlotte, NC",city,"Portsmouth, VA",United States
20500,-78.8954405,35.9909825,Red SexSlave,1160571992342499329,2020-05-27 22:03:32,"Charlotte, NC",city,"Durham, NC",United States
16740,-80.8467855,35.209059,Red SexSlave,1160571992342499329,2020-06-02 16:50:27,"Charlotte, NC",city,"Charlotte, NC",United States
151,8.527467000000001,12.005,Emerald,1160572076866113537,2020-02-16 11:32:46,"Lagos, Nigeria",city,"Kano, Nigeria",Nigeria
8,-57.0684035,-37.37110850000001,Juan Pablo Debiassi,1160572089998413825,2020-02-18 04:15:35,,city,"Villa Gesell, Argentina",Argentina
65,7.2530225,43.703021,SAYZ,1160572104066158592,2020-02-15 18:09:40,"Nice, France",city,"Nice, France",France
40140,-117.31909399999999,34.418775499999995,@jessemere3,1160572188623138816,2020-02-23 20:08:25,,city,"Hesperia, CA",United States
37980,-75.163278,39.957078,simone.,1160572315098394627,2020-04-08 16:23:46,"Philadelphia, PA",poi,Hahnemann Main Lobby,United States
82,73.1505545,25.737239499999998,bhimraj parihar,1160572321951707136,2020-04-06 18:59:41,,city,"Pali, India",India
222,110.73366547,-7.53014231,Ragastra Haryo Wijanarko,1160572631701004288,2020-02-15 04:26:25,Indonesia,city,"Colomadu, Indonesia",Indonesia
225,55.477763,25.289645999999998, ,1160573024879423488,2020-03-03 03:31:14,  ,poi,W4 University Of Sharjah,United Arab Emirates
205,-3.3223190000000002,55.89463249999999,Heriot-Watt Engage ,1160573090,2020-02-24 20:13:52,,city,"Currie, Scotland",United Kingdom
171,121.38692749999998,13.761854499999998,hiro,1160573125026705409,2020-04-26 14:01:38,jonaxx boys,city,"San Juan, Calabarzon",Republic of the Philippines
82,88.352242,22.6127055,Binay Prasad,1160573240722382848,2020-03-22 13:26:02,Barrackpore,city,"Kolkata, India",India
161,71.636604,29.515359999999998,Rao Arslan,1160573979318509568,2020-02-24 17:55:51,,poi,lodhran city,Pakistan
88,127.66613500000001,26.213608999999998,,116057420,2020-02-19 08:51:25,,poi,,
186,-0.9273325000000001,41.6916365,The_Mex45,1160574248915808256,2020-02-20 16:54:17,Planeta Tierra,city,"Zaragoza, Espaa",Espaa
96,48.083079999999995,29.1867245,RMT,1160574334160777217,2020-03-24 23:36:11,,city,"Mubarak Al Kabeer, Kuwait",Kuwait
21,-52.7832325,-31.746881,Gaby Cunha,1160574386870636544,2020-02-23 00:39:12,"Pelotas, Brasil",city,"Cerrito, Brasil",Brasil
21,-46.441259499999994,-23.666101,tellaaaaa(),1160574543586648064,2020-02-14 09:13:25,,city,"Mau, Brasil",Brasil
82,76.3712085,21.3354075,mnu_njr,1160574741989580805,2020-05-01 02:07:45,"Burhanpur, India",city,"Burhanpur, India",India
82,87.098625,25.388088,Rupesh Kumar,1160574812575522816,2020-04-10 16:24:37,India,poi,naugachhia,India
95,127.065257,37.510222,#,1160574869672562694,2020-02-14 12:04:53,=,poi,Cafe Dorado,Republic of Korea
21,-47.97707761,-15.81324961,AnsiEDUde,1160574959506341894,2020-05-04 21:51:10,,city,"Braslia, Brasil",Brasil
19740,-105.1319435,39.580225,Han,1160574961,2020-02-16 18:27:48,"Durango, CO",city,"Ken Caryl, CO",United States
-9999,-105.8841595,37.46745350000001,Han,1160574961,2020-03-13 14:23:35,"Durango, CO",city,"Alamosa, CO",United States
19740,-104.949845,39.9054745,Han,1160574961,2020-03-17 02:44:09,"Durango, CO",city,"Thornton, CO",United States
21,-34.883371000000004,-7.1494765000000005,Daysiane Mendes,1160575000442748929,2020-05-26 09:09:36,Joo Pessoa  PB,city,"Joo Pessoa, Brasil",Brasil
171,120.6733055,16.114238999999998,,1160575236141506560,2020-05-03 03:29:14,,city,"San Manuel, Ilocos Region",Republic of the Philippines
151,7.424094,9.073663999999999,Sherlock Holmes,116057531,2020-02-14 18:43:06,"Federal Capital Territory, Nigeria",city,"Abuja, Nigeria",Nigeria
21,-43.441578,-22.911421500000003,Evandro Vieira,1160575436751028226,2020-04-12 10:03:27,,city,"Rio de Janeiro, Brasil",Brasil
222,112.754277,-7.326957500000002,,1160575554476580864,2020-06-04 05:40:38,"Kota Surabaya, Jawa Timur",city,"Tenggilis Mejoyo, Indonesia",Indonesia
205,-1.461878,53.38247,Mr R,1160575582918389760,2020-03-14 09:07:21,,poi,Ponds Forge Competition Pool,United Kingdom
31080,-117.88196950000001,34.087543,Laine,1160575698,2020-03-19 17:14:31,,city,"Covina, CA",United States
186,-3.7035075,40.4777945,World Leader,1160576018253602816,2020-04-23 20:42:06,"Comunidad de Madrid, Espaa",city,"Madrid, Espaa",Espaa
82,86.008985,20.369460500000002,"support CAA,NRC,NPR",1160576275259383808,2020-03-22 11:41:35,India ,city,"Cuttack, India",India
82,73.180515,22.276914,Nikunj Mehta,1160576359875219458,2020-03-23 17:03:33,,city,"Vododara, India",India
31080,-118.1567105,33.809171500000005,Lotfi Eldin Pretsch,1160576396307181570,2020-03-10 02:23:24,,city,"Long Beach, CA",United States
119,-98.362531,25.836567499999997,Cinthy Mtz,1160576405408833536,2020-04-05 02:50:04,,city,"Reynosa, Tamaulipas",Mxico
205,-0.010623999999999998,51.765124,marvesaini,1160576414120366082,2020-03-01 08:25:22,,city,"Hoddesdon, East",United Kingdom
36740,-81.37924,28.53834,Nevaeh Hoffman,1160576531518935040,2020-03-02 15:03:05,,poi,Playlist Live,United States
41860,-122.41888889,37.80194444,Sonia Peters,1160576605347074048,2020-02-22 11:07:01,,city,"San Francisco, CA",United States
120,101.79339554,2.81304906,Along,1160576634,2020-02-29 13:21:51,everywhere,city,"Labu, Negeri Sembilan",Malaysia
82,74.09588149999998,33.769594500000004,Alyas Ahmed Ali,1160576972369514497,2020-06-02 15:23:46,Jammu And Kashmir,city,"Punch, Jammu And Kashmir",
88,139.7091805,35.701657,ibuki,1160577140649148417,2020-03-27 12:51:28,3,city, ,
41860,-122.447694,37.72252,CCSFStudentSays,1160577239445934085,2020-02-14 05:56:39,"San Francisco, CA",poi,Balboa Park BART Station,United States
119,-99.2115105,19.4299345, DANIEL),116057740,2020-02-20 12:15:37,,city,"Miguel Hidalgo, Distrito Federal",Mxico
82,84.299072,27.052081,@ utkarshsingh,1160577410594566144,2020-02-14 09:03:31,,city,"Bettiah, India",India
222,110.3168365,-7.8147389999999985,1/2ManusiaBiasa,1160577591637499904,2020-02-14 00:55:15,,city,"Kasihan, Indonesia",Indonesia
12940,-91.0907995,30.4591,Emery Jones,1160577604610600961,2020-04-30 17:30:04,"Baton Rouge, LA",city,"Baton Rouge, LA",United States
161,68.35887149999999,25.3753865,Tarique Aziz,1160577805954011136,2020-03-19 08:48:43,,city,"Hyderabad, Pakistan",Pakistan
26420,-95.4464865,29.838495,Tito_the_Bandito_RescueDog,1160577888980209667,2020-03-06 01:48:46,The Great State of Texas. ,city,"Houston, TX",United States
222,105.2853115,-5.3778475,Mas Dede,1160578344938688512,2020-04-05 05:43:47,"Bandar Lampung, Lampung",city,"Sukarame, Indonesia",Indonesia
88,135.4650225,34.5766425,ako,1160578449276198912,2020-05-31 00:45:16,,city,  ,
164,-8.561306,41.078391499999995,  ,1160578482088419333,2020-05-10 21:37:22,"Vila Nova de Gaia, Portugal",city,"Vila Nova de Gaia, Portugal",Portugal
33,-72.59256742,-38.75620553,KKC,116057853,2020-03-20 12:09:06,Chile,city,"Temuco, Chile",Chile
151,6.674241499999999,12.1716825,Muhammad Dalhatu,1160578597750546432,2020-04-09 22:53:22,"Gusau, Nigeria",city,"Gusau, Nigeria",Nigeria
82,75.644071,15.984488500000001,Siddarth Siddu,1160578660354547713,2020-05-13 17:14:29,,city,"Badami, India",India
21,-42.914378,-20.4206995,kamilly Costa,1160578905104965634,2020-02-21 00:41:35,,city,"Ponte Nova, Brasil",Brasil
82,77.795913,22.471526,Gyanesh Tamrakar,1160579135346888704,2020-04-14 05:50:37,", ",city,"Itarsi, India",India
21,-51.1593095,-30.099836,Renatinha,1160579176132501506,2020-04-25 23:28:06,Aonde O Inter Estiver ,city,"Porto Alegre, Brasil",Brasil
186,-15.459848999999998,28.103013,JOS Manuel,1160579250497511428,2020-05-17 12:22:04,"Las Palmas de Gran Canaria, Es",city,"Las Palmas de Gran Canaria, Espaa",Espaa
193,100.395859,13.657721,DoctorGohanGaruda,1160579281434447873,2020-02-21 19:57:27,"Dotharl Khaa, Azim Steppe",city,", ",
28140,-94.3782315,38.916093,,1160579297075257347,2020-05-23 17:50:04,,city,"Lee's Summit, MO",United States
33100,-80.2948925,26.1566185,Alvaro,1160579470211919874,2020-02-25 20:27:21,,city,"Sunrise, FL",United States
88,138.966905,35.290678,arisa_7K3VEY,1160579484594032641,2020-03-01 07:28:43,,poi,,
21,-52.620523999999996,-21.865247,Vereador Cleyton BTG,1160579799326371842,2020-04-29 20:56:10,"Bataguassu, Brasil",city,"Bataguassu, Brasil",Brasil
82,72.87424399999999,19.174139999999998,Mohit,1160579814165606400,2020-03-03 07:15:34,"Pune, India",city,"Mumbai, India",India
200,26.4096465,40.131109499999994,Bilim Taryh ve Tasinlikler,1160579911037460480,2020-02-15 10:14:57,"anakkale, Trkiye",city,"anakkale, Trkiye",Turkey
222,110.200128,-7.612787,Agus Nurtanto,1160579925344002048,2020-04-08 14:41:16,"Magelang, Jawa Tengah",city,"Borobudur, Indonesia",Indonesia
161,74.17358399999999,32.1640415,Bilal,1160580122560389120,2020-03-25 18:39:20,,city,"Gujranwala, Pakistan",Pakistan
242,121.561476,25.085756,belle,1160580222107783173,2020-02-20 01:45:20,"Taipei City, Taiwan",city,"Taipei City, Taiwan",Taiwan
41860,-122.2286855,37.791994,AMRETHESINGER,1160580455541772289,2020-04-16 01:29:12,"Oakland, CA",city,"Oakland, CA",United States
21,-48.63524750000001,-27.099788,Silvano Klassen,1160580579693404160,2020-02-22 02:34:51,,city,"Itapema, Brasil",Brazil
88,132.755047,35.3367195,,1160580591667970048,2020-04-09 17:19:51,,city,"Izumo-shi, Shimane",Japan
21,-61.813293,-10.4481485,diego_santiagoo,1160580846627303424,2020-02-15 22:28:10,,city,"Ji-Paran, Brasil",Brazil
205,1.3404274999999999,52.219191,William Lamprell,1160581028295172098,2020-02-29 08:35:17,"East, England",city,"Framlingham, England",United Kingdom
205,-0.44236099999999995,51.537061,SHEMZ,1160581223573536770,2020-04-20 12:22:44,Quarantine central,city,"Hillingdon, London",United Kingdom
91,36.863620000000004,-1.2748635,Cate Wavinya,1160581241470705665,2020-03-10 10:17:02,"Nairobi, Kenya",city,"Nairobi, Kenya",Kenya
222,112.53134890000001,-7.8737997,Echoco,1160581380591345664,2020-02-28 12:50:45,"Tangerang, Indonesia",city,"Bumiaji, Indonesia",Indonesia
175,39.6540485,24.462089000000002,  ,1160581449424265216,2020-02-14 20:29:30,,city," ,   ",  
21,-43.119101,-22.616096,Erick,1160581459968741377,2020-04-21 00:20:31,"Rio de Janeiro, Brasil",city,"Mag, Brasil",Brasil
186,-3.7035075,40.4777945,Centro de Yoga Patanjali,1160581628680429568,2020-03-13 17:08:02,Avda Menendez Pelayo 18 Madrid,city,"Madrid, Espaa",Espaa
82,72.78910450000002,21.171369,Jigneshkumar Varodiya,1160581781491519489,2020-04-10 08:05:00,"Surat, India",city,"Surat, India",India
30,104.07796,30.635509000000003,K,1160581827104428032,2020-06-06 02:35:31,,poi, Sichuan University,People's Republic of China
151,8.527467000000001,12.005,andeelerh,1160581857001517061,2020-06-07 16:21:38,"Kano, Nigeria",city,"Kano, Nigeria",Nigeria
171,120.96950149999999,14.430456499999998,Jonathan Mesa,1160581940702932992,2020-02-14 13:22:10,"Bacoor, Calabarzon",city,"Bacoor, Calabarzon",Republic of the Philippines
193,100.523353,13.65778,,1160582226997727233,2020-02-14 16:55:41,,city,"Bang Phueng, Thailand",Thailand
21,-43.441578,-22.911421500000003,cleber,1160582228038082560,2020-03-08 20:22:07,hell de janeiro/atlntico ,city,"Rio de Janeiro, Brasil",Brasil
12060,-84.4703885,33.6312775,April Thomas,1160582267489738752,2020-05-08 22:29:40,,city,"College Park, GA",United States
171,120.7969695,14.291964499999999,Yantot,1160582308493025281,2020-03-15 15:14:00,"Naic, Calabarzon",city,"Naic, Calabarzon",Republic of the Philippines
222,110.7929635,-7.561752,setumpuk lemak,1160582316613197825,2020-02-20 10:03:39,surkarta,city,"Laweyan, Indonesia",Indonesia
186,-8.749459,42.1119005,L U N A,1160582438982234112,2020-02-28 17:25:46,,city,"Gondomar, Espaa",Espaa
31080,-118.25688999999998,34.012549,Bear,1160582466,2020-04-08 06:42:49,,poi,LAFD Fire Station 14,United States
21,-43.441578,-22.911421500000003,Faixa.Preta,1160582484603654149,2020-03-31 13:19:29,"Olaria, Brasil",city,"Rio de Janeiro, Brasil",Brasil
193,100.725339,13.81543,Itsara.klup,1160582945691721728,2020-05-11 11:47:41,,poi, 2 (Chatuchak 2),
38,-74.849933,10.958072999999999,Victor Julio,1160582948221067265,2020-02-14 01:08:24,,city,"Barranquilla, Colombia",Colombia
15380,-78.6816715,43.171602500000006,Jerome Powley,1160583135429574657,2020-06-02 01:00:40,"London, England",city,"Lockport, NY",United States
120,103.593903,1.6452025000000001,FieyaFath,1160583332469415938,2020-05-10 15:18:24,"Johore, Malaysia",city,"Senai Kulai, Johor",Malaysia
8,-58.442643,-34.604315,camilosexto,1160583385854763008,2020-04-05 19:16:38,,city,"Ciudad Autnoma de Buenos Aires, Argentina",Argentina
21,-38.51989,-3.789768,Katarina Saraiva,1160583392494272513,2020-03-29 17:47:07,,city,"Fortaleza, Brasil",Brasil
200,39.7140255,40.9691995,Lowkeymahdis.a,1160583445120204800,2020-02-29 17:19:59,,city,"Trabzon, Trkiye",Turkey
37460,-85.8720485,30.215828,Luke Norris,1160583674578034693,2020-05-05 10:21:35,,city,"Panama City Beach, FL",United States
21,-36.9712785,-10.7846975,Debinha,1160583678482890752,2020-03-26 03:09:54,,city,"Santo Amaro das Brotas, Brasil",Brazil
82,78.064109,8.7546805,Kannan Appavu,1160583754143940609,2020-04-20 02:54:17,,city,"Thoothukkudi, India",India
193,100.559009,13.778016,.,1160583838709379072,2020-02-23 16:35:34,", ",city,", ",
35620,-73.87294849999999,40.990215,John Yan,1160583920964055041,2020-02-15 13:33:09,,city,"Hastings-on-Hudson, NY",United States
82,79.6259585,17.139985999999997, Shiva Goud PSPK,1160584150098726912,2020-05-11 05:34:04,"Hyderabad, India",city,"Suryapet, India",India
222,106.802654,-6.21858,ravhaelkareni,1160584664790130691,2020-02-24 15:12:20,"Papua, Indonesia",poi,Stadion Utama Gelora Bung Karno (GBK),Indonesia
119,-96.734986,16.584287,Jacielpitudo,1160584727973117953,2020-05-29 09:09:36,san Miguel ejutla oaxaca ,city,"San Miguel Ejutla, Oaxaca",Mxico
26420,-95.484476,29.724208,,1160584744746311682,2020-05-29 19:02:06,United States,poi,little Mexico,United States
88,139.78598799999997,35.713206,Haruya,1160584807631355904,2020-03-15 03:19:43,,city, ,
88,127.75881000000001,26.222824,,1160584837645815808,2020-02-15 15:58:05,,poi,,Japan
175,46.821647,24.764229,Toms Landres,1160584864032120835,2020-03-23 11:22:41,,poi, ,Kingdom of Saudi Arabia
25180,-77.98526700000001,39.460648,Holler Regen ,1160585003094421504,2020-02-20 02:27:01,"West Virginia, USA",city,"Martinsburg, WV",United States
205,0.026299,51.39432,shelley,1160585160590536709,2020-03-18 18:55:40,,city,"Bromley, London",United Kingdom
35620,-74.0064,40.7142,GHETTO,1160585190,2020-03-03 13:45:26,"Bronx, NY",city,"Manhattan, NY",United States
171,120.97758300000001,14.583468,sana-chan,1160585398340349952,2020-02-22 03:39:25,sa puso ni sana minatozaki,poi,Rizal Park - Open Air Auditorium,Republic of the Philippines
88,127.6876045,26.2112665,Artdancer YUKARI,1160585424189812738,2020-02-14 10:16:31, ,city,"Naha-shi, Okinawa",Japan
82,77.58471800000001,12.960902,KICCHA RAM,1160585669065895936,2020-05-30 06:12:30,Bhantanur,poi,Bangalore Stock Exchange,India
8,-59.862469499999996,-36.7816765,.s,1160585753681903618,2020-02-14 15:02:27,"Azul, Argentina",city,"Azul, Argentina",Argentina
161,67.01,24.86,AMIAH COLLECTIONS,1160585810665779201,2020-06-05 20:26:07,"Karachi, Pakistan",city,"Karachi, Pakistan",Pakistan
14460,-70.67277778,42.04166667,Claire Rita Turck,116058608,2020-03-24 16:09:43,"Duxbury, MA",city,"Duxbury, MA",United States
21,-43.441578,-22.911421500000003,MAYCON RAMOS,1160586140958826496,2020-03-12 00:17:13,,city,"Rio de Janeiro, Brasil",Brasil
21,-51.7174065,-22.013073000000002,babi,1160586522648829952,2020-03-08 18:20:28,,city,"Santo Anastcio, Brasil",Brasil
119,-101.3403935,20.673542,Judith Vzquez,1160586787766620162,2020-02-21 06:25:07,"Irapuato, Guanajuato",city,"Irapuato, Guanajuato",Mxico
222,110.4039085,-7.0105794999999995,Dimaz,1160587009494093825,2020-02-21 21:05:22,,city,"Gajahmungkur, Indonesia",Indonesia
96,47.807656,29.971082,,1160587222938034177,2020-04-28 23:51:45,Salam,poi,,Kuwait
211,-63.53412438,8.123425,vernica,116058729,2020-02-18 14:55:32,"Puerto Ordz, Venezuela",city,"Ciudad Bolivar, Venezuela",Venezuela
171,121.04381740000001,14.72660132,call me alli ,1160587335597056001,2020-02-27 15:43:37,Republic of the Philippines,city,"Quezon City, National Capital Region",Republic of the Philippines
222,106.923482,-6.156264,Yogi AN,1160587350180679681,2020-02-22 19:56:21,"DKI Jakarta, Indonesia",poi,Komplek Bea Cukai,Indonesia
82,77.5584485,12.9231145,Asim Garg,1160587355650023424,2020-05-22 09:11:15,,city,"Bengaluru South, India",India
175,41.967043,19.578433500000006,Zahid Mahoomd,1160587485518471168,2020-02-25 05:50:38,,city,"Balqarn, Kingdom of Saudi Arabia",Kingdom of Saudi Arabia
222,106.7617815,-6.3928945000000015,MatchltteMzarell,1160587555345055744,2020-03-18 15:55:28,"Jakarta Selatan, DKI Jakarta",city,"Sawangan, Indonesia",Indonesia
21,-54.560265,-23.417054,Jhonatan Silva,1160587577331802113,2020-03-16 18:08:09,,city,"Iguatemi, Brasil",Brasil
35620,-73.99308266,40.77133289,Jonathan Swerdloff,1160587698,2020-02-29 13:57:54,"Manhattan, NY",city,"Manhattan, NY",United States
82,80.88440750000002,26.8251695,Satish Ch Dixit,1160587827572199425,2020-02-15 06:32:58,,city,"Lucknow, India",India
222,106.846645,-6.190237000000001,Kulimuatan,1160587856806465536,2020-04-18 05:02:18,"Jakarta Pusat, DKI Jakarta",city,"Menteng, Indonesia",Indonesia
35620,-73.8311875,40.6708795,Charlie Rodriguez,1160587881720811520,2020-02-14 10:24:01,"Long Island City, Queens",city,"Queens, NY",United States
82,86.480556,22.6140115,JALESHWAR NAYEK,1160587883738066945,2020-04-09 13:46:49,Baharagora,city,"Jamshedpur, India",India
21,-52.597488500000004,-23.7362855,Joo Testa,1160588071475253248,2020-02-15 11:39:38,,city,"Cianorte, Brasil",Brasil
51,-8.761319,52.51841450000001,Mad Yokes Inc,1160588091859636224,2020-04-27 15:14:42,,city,"Limerick, Ireland",Ireland
151,13.696121,11.089764,Adams Mohd,1160588198227140608,2020-03-25 10:15:40,,city,"Gwoza, Nigeria",Nigeria
82,78.95669699999998,10.525469,Avcc Ganesan,1160588220020563968,2020-03-22 03:42:21,,city,"Pudukkottai, India",India
65,1.961186,48.777104,NiintoKun,1160588308944175104,2020-04-03 22:19:53,,city,"Elancourt, France",France
82,77.129891,28.537042,sunny singh,1160588329320009729,2020-04-23 15:09:48,chandighar,poi,E 2 Vasant Kunj,India
30,119.922155,31.008171,.,1160588412929208320,2020-05-18 17:30:02,,poi,Noblift Equipment,People's Republic of China
48,-69.928392,18.485775,Jose Vargas,1160588733168672768,2020-04-18 21:39:33,,city,"anto Domingo de Guzmn, Dominican Republic",Dominican Republic
82,73.03588549999999,19.0967305,Sajid Reza,1160588833,2020-04-18 21:11:29,"Navi Mumbai, India",city,"Navi Mumbai, India",India
119,-103.5057845,24.165032,Erik Mtz,1160588958046347265,2020-03-07 04:12:33,"Zacatecas, Mxico",city,"Miguel Auza, Zacatecas",Mxico
65,1.8827625,49.2734,Naawqe,1160589004108107787,2020-04-12 14:34:41,,city,"Chaumont-en-Vexin, France",France
95,126.83555449999999,37.307038500000004,,1160589008797229059,2020-02-23 13:09:37,,city, ,
12060,-84.05501799999998,34.093436,alex coon,1160589061838594055,2020-02-29 21:55:06,atlanta,city,"Sugar Hill, GA",United States
73,25.449123999999998,41.181982,Taha___sa,1160589292823076866,2020-02-25 19:06:23,,city,", ",
30,106.46305600000001,29.568866999999997,,1160589370581299201,2020-05-04 10:08:54,,poi, Chongqing University,People's Republic of China
88,139.82556200000002,35.774529,,1160589580938014720,2020-03-06 06:12:56,,poi, ,
82,91.55975749999999,26.259671,Carewell Travels and Tour Pvt. Ltd.,1160589636814561280,2020-02-21 05:42:10,"Guwahati, India",city,"Guwahati, India",India
41740,-117.1048245,32.7671345,care,1160589834940850176,2020-03-23 08:33:31,"San Diego, CA",neighborhood,"Kensington, San Diego",United States
2,0.15117650000000002,34.8435315,J,1160590168270786561,2020-03-05 09:28:21,,city,"Sada                                                                                              , Algeria",Algrie
21,-48.500437,-27.752159000000002,Cari_lb,1160590479731412992,2020-04-26 12:14:03,,poi,Praia do Matadeiro,Brasil
21,-40.5401335,-20.597323000000006,natinha,1160590757981540353,2020-02-22 17:43:06,,city,"Guarapari, Brasil",Brasil
205,-6.940747,54.963079500000006,K_191,1160590763534815234,2020-03-28 06:19:25,,city,"Bonnanaboigh, Northern Ireland",United Kingdom
71,11.3796835,48.7534185,lukas,1160590972423671815,2020-03-24 13:49:39,,city,"Ingolstadt, Deutschland",Deutschland
8,-58.442643,-34.604315,Peronista de Pern,1160591247859474432,2020-02-14 01:04:21,,city,"Ciudad Autnoma de Buenos Aires, Argentina",Argentina
48660,-98.492778,33.912946999999996,Lauren Johnson,1160591274,2020-06-10 05:32:01,"Wichita Falls, TX",city,"Wichita Falls, TX",United States
82,80.1502555,27.0360095,Pushpendra Kumar,1160591400989155329,2020-04-18 12:15:41,"Mallawan Uttar Pradesh, India",city,"Mallawan, India",India
82,85.353985,25.7498995,Devesh Ranjan,1160591487978987523,2020-03-06 19:10:58,,city,"Hajipur, India",India
88,135.3070135,34.775017999999996,(X) DcFDM,1160591721526206464,2020-02-14 14:50:44,,city,"Nishinomiya-shi, Hyogo",Japan
19100,-97.0945065,32.846236499999996,AssAddictionOD,1160591791806132231,2020-03-12 14:43:41,"Texas, USA",city,"Euless, TX",United States
222,109.73221299999999,-6.9110580000000015,,1160591916955602944,2020-04-20 23:47:26,unknow,city,"Batang, Indonesia",Indonesia
26620,-86.611411,34.7060265,Daniiii,1160591954993995776,2020-02-24 02:57:00,"Georgia, USA",city,"Huntsville, AL",United States
12260,-81.809523,33.564603000000005,Daniiii,1160591954993995776,2020-05-14 23:17:43,"South Carolina, USA",city,"Graniteville, SC",United States
21,-43.5243665,-22.696528,Princesinha19,1160591973385981954,2020-03-06 17:17:13,,city,"Nova Iguau, Brasil",Brasil
21,-47.796623,-15.776254000000002,Junior Pereira,1160592098493685761,2020-05-03 19:32:23,,city,"Braslia, Brazil",Brazil
34980,-86.791549,36.200008000000004,Wade Arnold,1160592178088960000,2020-05-14 01:24:41,"Nashville, TN",city,"Nashville, TN",United States
205,-2.8027800000000003,54.04409800000001,JB*Installers,1160592224381538304,2020-04-04 10:47:16,"Asaba, Nigeria",city,"Lancaster, England",United Kingdom
16980,-87.732013,41.8335845,St. Linus School,1160592272880259073,2020-02-15 20:37:20,"Oak Lawn, IL",city,"Chicago, IL",United States
222,112.76568200000001,-7.253222500000001,Nurul Auliya,116059259,2020-05-22 02:28:11,surabaya,city,"Tambaksari, Indonesia",Indonesia
21,-60.9381315,-11.862665,Kay,1160592597049651202,2020-02-26 01:27:36,"Pimenta Bueno, Brasil",city,"Pimenta Bueno, Brasil",Brasil
200,32.680235,39.9300615,SerminCo,1160592650988400640,2020-05-03 06:51:55,,city,"Etimesgut, Trkiye",Trkiye
41740,-117.10498899999999,32.810012,Gary Choy,1160592709,2020-04-16 18:44:20,"San Diego, CA",city,"San Diego, CA",United States
21,-48.711997,-27.0666485,amandinha,1160592922317864968,2020-03-06 00:35:50,,city,"Cambori, Brasil",Brasil
222,106.82652900000001,-6.170886,-,1160592970166366209,2020-03-13 14:43:23,Bandung,poi,Mahkamah Agung Republik Indonesia,Indonesia
21,-46.8823285,-23.5110285,u ,1160593164429864960,2020-02-23 14:19:18,CamrenFetus_,city,"Barueri, Brasil",Brasil
82,92.862467,26.205625,Deka Mubarak,1160593263159439360,2020-03-02 12:04:00,,city,"Nagaon, India",India
16700,-80.045939,32.9144245,Liv ,1160593404,2020-05-31 23:47:30,"North Charleston, SC",city,"North Charleston, SC",United States
171,125.89203023,7.15731768,DJ Lei Carter.mp4,116059350,2020-04-03 03:39:28,"Davao Region, Republic of the",city,"Pantukan, Davao Region",Republic of the Philippines
49,-78.523965,-0.23232199999999997,Blady Herrera,116059372,2020-02-18 00:42:38,Hyrule,poi,INGESA,Ecuador
151,7.3270550000000005,6.703977,aku siapa?,1160594011649802240,2020-04-05 06:54:53,Honduras,city,"Aku, Nigeria",Nigeria
41980,-66.058368,18.384165499999998,Marcos Fabian Gonzalez,1160594130759761921,2020-03-17 20:32:30,"Isabela, Puerto Rico",city,"San Juan, USA",United States
32420,-67.13819000000001,18.201557,Marcos Fabian Gonzalez,1160594130759761921,2020-06-08 02:47:27,"Isabela, Puerto Rico",poi,"Cabo Rojo Beach, Puerto Rico",United States
82,81.95755550000001,27.140021,ambikeshwar,1160594138,2020-04-05 17:46:40,"Gonda, India",city,"Gonda, India",India
82,77.417861,23.181098000000002, ,1160594248187539456,2020-03-24 05:02:26, ,poi,"mansarovar campus , opp beema kunj , kolar road , bhopal",India
203,39.206317999999996,-6.872861,madam zenaice,1160594395110002688,2020-05-29 22:22:18,"Dar es Salaam, Tanzania",poi,dar es salaam mwalim julius kambarage airpot,Tanzania
21,-46.31564,-23.966379999999997,Thay Machado,1160594447530385409,2020-02-14 22:46:45,,poi,Quintal Dos Espetinhos,Brasil
14460,-71.035619,42.516789,"me, a buffoon",1160594448658698243,2020-03-06 21:20:09,,poi,sweetgreen,United States
21,-47.796623,-15.776254000000002,Flvio Lira,116059451,2020-02-17 04:48:06,Brasilia,city,"Braslia, Brasil",Brasil
200,29.0052225,41.0213205,Ziya akmak,1160594806181171202,2020-02-22 17:57:21,,city,"stanbul, Trkiye",Trkiye
51,-9.0333065,51.903863,Darren O Mahony,116059490,2020-02-19 17:53:17,"Cork, Ireland",city,"Cork, Ireland",Ireland
222,120.264004,-4.386514,IlhaMaulanaaaaa,1160595006987464704,2020-03-12 13:13:02,"Bone, Sulawesi Selatan",city,"Tellusiattinge, Indonesia",Indonesia
82,77.550599,28.499759,Kaibalya,1160595088528924672,2020-02-29 15:52:00,"Gurgaon, India",city,"Greater Noida, India",India
21,-42.605343,-19.5537345,amiguinho :),1160595091498647552,2020-02-14 01:15:29,"Timteo, Brasil",city,"Timteo, Brasil",Brazil
13,-77.340376,25.081063,amiguinho :),1160595091498647552,2020-05-21 13:30:57,"Timteo, Brasil",poi,Port of Nassau,Bahamas
21,-42.605343,-19.5537345,amiguinho :),1160595091498647552,2020-05-22 12:23:58,"Timteo, Brasil",city,"Timteo, Brasil",Brazil
31080,-118.32514499999999,34.18216,Dead Wrong Stan,1160595188282265600,2020-02-19 22:42:51,,city,"Burbank, CA",United States
91,36.77307655,-1.30585613,Kevin Okumu,1160595329714216961,2020-04-20 19:59:53,,city,"Nairobi, Kenya",Kenya
171,123.67839450000001,10.368178,Zootofia,1160595341508399106,2020-04-11 08:41:57,Toledo City Cebu,city,"Toledo City, Central Visayas",Republic of the Philippines
71,6.125954,50.9735735,Judozwerg,1160595369287438337,2020-02-16 19:27:20,"Great Plateau, Hyrule",city,"Geilenkirchen, Deutschland",Deutschland
21,-39.924859000000005,-13.5295915,ra,1160595379043414017,2020-02-15 13:45:19,"Bahia, Brasil",city,"Jaguaquara, Brasil",Brasil
16980,-87.732013,41.8335845,michael and casiana,1160595569762611200,2020-03-22 03:04:03,,city,"Chicago, IL",United States
119,-99.2115105,19.4299345,Jordan,1160595644022775810,2020-02-14 14:09:58,"Florida, USA",city,"Miguel Hidalgo, Distrito Federal",Mexico
33100,-80.2333285,25.7823535,Jordan,1160595644022775810,2020-02-19 04:41:15,"Florida, USA",city,"Miami, FL",United States
16980,-87.732013,41.8335845,Jordan,1160595644022775810,2020-02-22 00:08:15,"Florida, USA",city,"Chicago, IL",United States
33100,-80.2333285,25.7823535,Jordan,1160595644022775810,2020-02-25 17:48:18,"Florida, USA",city,"Miami, FL",United States
205,-1.76682,53.81593349999999,Aisha Iman,1160595678168571904,2020-03-22 11:31:02,"Bradford, England",city,"Bradford, England",United Kingdom
38,-74.24367099999999,4.2622835,Dannacano,1160595735219449856,2020-03-28 05:15:10,,city,"Bogot, D.C., Colombia",Colombia
33460,-93.2620465,44.9706105,EDITION STUDIOS,1160595870,2020-06-01 20:31:54,"Minneapolis, MN",city,"Minneapolis, MN",United States
205,-3.1798,51.4970015,A&me,1160595896725323776,2020-04-30 14:13:54,,city,"Cardiff, Wales",United Kingdom
65,2.491269,48.945853,,1160595923266875392,2020-04-18 19:02:18,"Aulnay-sous-Bois, France",city,"Aulnay-sous-Bois, France",France
19100,-97.27453,32.881414,Kelli King,1160596014149058560,2020-05-23 16:19:11,,poi,Park Glen Elementary School,United States
82,80.06585150000002,12.6714865,Sankarasubbu,1160596084562919424,2020-02-27 14:42:21,,city,"Chengalpattu, India",India
171,120.648642,13.2363125,ma.kristina,1160596116364095489,2020-03-25 07:23:40,"Mamburao, Mimaropa",city,"Mamburao, Mimaropa",Republic of the Philippines
21,-39.220108,-13.0191095,Anaildo Matteus,1160596265144672257,2020-04-06 18:35:43,"Santo Antnio de Jesus, Brasil",city,"Santo Antnio de Jesus, Brasil",Brasil
47900,-77.3885943,38.86199949,Francine Findley-Ber,1160596334,2020-03-17 14:41:01,,city,"Chantilly, VA",United States
21,-46.2331645,-23.2967145,Karina Silva,1160596343523598336,2020-02-20 12:57:31,"Santa Isabel, Brasil",city,"Santa Isabel, Brasil",Brasil
175,49.96218500000001,26.547136,Ali Sadiq,1160596473781862406,2020-02-19 14:43:35,,city,",   ",  
186,-3.7695875,40.328899,elFuentes23,1160597458281541633,2020-02-20 10:48:43,"Getafe, Espaa",city,"Legans, Spain",Spain
222,104.4551355,0.8999440000000001,Novita Sari,1160597554108567552,2020-04-08 16:26:22,Indonesia,city,"Teluk Bintan, Indonesia",Indonesia
26420,-95.4464865,29.838495,biigmfshay,1160597627592986635,2020-05-02 03:04:29,,city,"Houston, TX",United States
21,-37.073715,-10.886161,Beutran,1160597762355937280,2020-03-05 10:56:57,,neighborhood,"Cidade Nova, Aracaju",Brasil
45220,-84.26617399999999,30.4762155,Sarah Jane Burke.,116059787,2020-03-11 17:38:08,"tallahassee, fl",city,"Tallahassee, FL",United States
222,107.011756,-6.254410999999998,Nama tidak boleh kosong,1160597875534909440,2020-02-14 02:11:44,,city,"Bekasi Timur, Indonesia",Indonesia
8,-57.5814305,-38.01158750000001,s ,1160598234668122112,2020-03-23 00:57:51,Tu vieja en tanga. ,city,"Mar del Plata, Argentina",Argentina
119,-101.15285949999999,18.660586,Miguel.zapata,1160598402247225344,2020-02-21 21:50:32,,city,"Huetamo, Michoacn de Ocampo",Mxico
19100,-96.835249,33.1501395,Cheryl Deeds,1160598559881879552,2020-03-14 12:44:43,,city,"Frisco, TX",United States
88,135.4838255,34.678121999999995,,1160598579406225408,2020-03-09 03:32:32,,city,  ,
21,-43.441578,-22.911421500000003,INSTA: @Tiufil.22,1160598812194496514,2020-02-14 04:31:18,,city,"Rio de Janeiro, Brazil",Brazil
21,-46.7256391,-24.1430203,Giovana,1160598830406148103,2020-04-26 20:20:30,,city,"Itanham, Brasil",Brasil
65,2.3506555,50.9822425,Decoster,1160598926,2020-05-28 06:06:12,France,city,"Armbouts-Cappel, France",France
21,-43.709677500000005,-22.750747,Sam Guerra,1160599046920253440,2020-02-16 06:32:49,Rj ,city,"Seropdica, Brasil",Brasil
171,121.0627355,14.683012,BYOKI SOUNDS,1160599520473841669,2020-02-14 02:32:05,IDK,city,"Quezon City, National Capital Region",Republic of the Philippines
21,-64.07852650000001,-4.0358304999999985,Anderson Costta,1160599715815272448,2020-03-25 03:19:34,"Coari, Brasil",city,"Coari, Brasil",Brasil
21,-46.185715,-23.559382,mahh,1160599798317236226,2020-04-22 19:24:16,,city,"Mogi das Cruzes, Brasil",Brasil
119,-98.9903395,19.7051795,Alberto,1160600005155196929,2020-03-06 05:17:22,,city,"Tecmac, Mxico",Mxico
88,139.70529399999998,35.691159999999996,Toshiya Shibazaki,1160600047064477696,2020-02-17 12:22:31,,poi,,
65,-0.6809689999999999,44.786063,MARA,1160600080572919810,2020-03-15 21:17:17,"Bordeaux, France",city,"Pessac, France",France
200,28.2565755,36.8771255,Esra,1160600352,2020-02-16 16:02:14,Marmaris,city,"Marmaris, Trkiye",Trkiye
24,-80.31177,43.36002,Allison Cann,1160600472,2020-03-07 19:13:25,"Cambridge, Ontario Canada",city,"Cambridge, Ontario",Canada
21,-48.812305,-22.6677035,dona morcega.,1160600516,2020-03-27 02:36:09,Lenis Paulista - SP,city,"Lenis Paulista, Brasil",Brasil
222,111.4755425,-7.825753999999999,Raka Ngesti,1160600887183568898,2020-02-14 09:52:28,,city,"Babadan, Indonesia",Indonesia
77,-72.466089,19.052004999999998,D-Finitionmusic,1160600912982958080,2020-05-04 12:12:07,,poi,Verettes,Haiti
82,77.08757399999998,23.21086,M@yogendra,1160600987377127424,2020-03-22 01:32:28,"Indore, India",city,"Sehore, India",India
42660,-122.30312244,47.73139755,Horny Seattle,1160601016611426304,2020-03-06 17:18:27,"Seattle, WA",city,"Seattle, WA",United States
85,8.9328,44.4111,Dominik | Cruise Ship Paradise,1160601069535342592,2020-02-14 16:29:30,,city,"Genoa, Liguria",Italy
9,151.20797,-33.867509999999996,Dominik | Cruise Ship Paradise,1160601069535342592,2020-03-01 16:16:35,,city,"Sydney, New South Wales",Australia
65,5.9324900000000005,43.12215,Dominik | Cruise Ship Paradise,1160601069535342592,2020-03-02 17:11:56,,city,"Toulon, France",France
85,13.7723,45.6499,Dominik | Cruise Ship Paradise,1160601069535342592,2020-03-03 17:00:11,,city,"Trieste, Friuli-Venezia Giulia",Italy
186,2.6509,39.5687,Dominik | Cruise Ship Paradise,1160601069535342592,2020-03-11 17:14:46,,city,"Palma, Spain",Spain
33100,-80.192,25.7752,Dominik | Cruise Ship Paradise,1160601069535342592,2020-03-15 16:25:37,,city,"Miami, FL",United States
71,7.35671628,53.09887079,Dominik | Cruise Ship Paradise,1160601069535342592,2020-03-17 11:53:34,,city,"Papenburg, Deutschland",Germany
186,2.6509,39.5687,Dominik | Cruise Ship Paradise,1160601069535342592,2020-03-26 16:52:57,,city,"Palma, Spain",Spain
85,13.7723,45.6499,Dominik | Cruise Ship Paradise,1160601069535342592,2020-04-02 15:53:30,,city,"Trieste, Friuli-Venezia Giulia",Italy
45,9.11397147,55.73545575,Dominik | Cruise Ship Paradise,1160601069535342592,2020-04-07 12:05:49,,city,"Billund, Danmark",Denmark
33100,-80.1753068,25.7791582,Dominik | Cruise Ship Paradise,1160601069535342592,2020-04-21 15:12:43,,city,"Miami, FL",United States
186,2.1683,41.3894,Dominik | Cruise Ship Paradise,1160601069535342592,2020-04-23 16:37:36,,city,"Barcelona, Spain",Spain
71,10.0014,53.55,Dominik | Cruise Ship Paradise,1160601069535342592,2020-05-09 16:02:55,,city,"Hamburg, Germany",Germany
85,12.3267,45.4386,Dominik | Cruise Ship Paradise,1160601069535342592,2020-05-10 15:55:43,,city,"Venice, Veneto",Italy
41860,-122.44359944,37.79878882,Dominik | Cruise Ship Paradise,1160601069535342592,2020-05-12 17:16:32,,city,"San Francisco, CA",United States
73,22.99419158,37.92685535,Dominik | Cruise Ship Paradise,1160601069535342592,2020-05-15 16:11:14,,city,"Loutraki-Perachora, Greece",Hellas
205,-2.9794,53.4078,Dominik | Cruise Ship Paradise,1160601069535342592,2020-05-19 16:19:03,,city,"Liverpool, England",United Kingdom
85,9.82025,44.10203,Dominik | Cruise Ship Paradise,1160601069535342592,2020-05-20 16:24:52,,city,"La Spezia, Liguria",Italy
186,2.6509,39.5687,Dominik | Cruise Ship Paradise,1160601069535342592,2020-05-21 16:48:02,,city,"Palma, Spain",Spain
153,7.11201121,60.85862654,Dominik | Cruise Ship Paradise,1160601069535342592,2020-05-25 16:36:31,,city,"Aurland, Norge",Norway
71,7.328747999999999,52.525946999999995,Dominik | Cruise Ship Paradise,1160601069535342592,2020-05-30 16:11:35,,city,"Lingen (Ems), Germany",Germany
39,-83.02898990000001,9.990919900000002,Dominik | Cruise Ship Paradise,1160601069535342592,2020-05-31 16:03:06,,city,"Limon, Costa Rica",Costa Rica
152,4.4752,51.9235,Dominik | Cruise Ship Paradise,1160601069535342592,2020-06-02 20:02:10,,city,"Rotterdam, The Netherlands",The Netherlands
85,16.8736,41.1125,Dominik | Cruise Ship Paradise,1160601069535342592,2020-06-04 17:50:50,,city,"Bari, Apulia",Italy
65,5.4245,43.2905,Dominik | Cruise Ship Paradise,1160601069535342592,2020-06-05 16:38:01,,city,"Marseille, France",France
85,8.9328,44.4111,Dominik | Cruise Ship Paradise,1160601069535342592,2020-06-07 16:45:20,,city,"Genoa, Liguria",Italy
128,3.20687009,51.34013751,Dominik | Cruise Ship Paradise,1160601069535342592,2020-06-10 15:59:12,,city,"Bruges, Belgium",Belgium
27460,-79.313959,42.457758,Savannah,1160601380060565505,2020-05-09 10:23:58,silver creek,poi,The Home Depot,United States
16740,-80.81504699999998,35.48099550000001,James Bender,1160601432325857282,2020-03-12 14:48:51,"Goose Creek, SC",city,"Davidson, NC",United States
193,100.54218900000001,13.773195999999999,__,1160601447907516417,2020-02-15 16:47:38, ,poi,OVERSEOUL,Thailand
41980,-66.1664,18.1139,NeumoPedsPR,1160601588660088832,2020-05-25 22:24:01,"Puerto Rico, USA",city,"Cayey, Puerto Rico",United States
151,2.8903835,6.417679,Gheedhion,1160601598948794369,2020-04-12 22:59:45,"Lagos, Nigeria",city,"Badagry, Nigeria",Nigeria
49,-79.2829045,-0.7689140000000001,Angie Isabel Rubio Sevillano,1160602246217916417,2020-03-26 04:30:32,"Valencia, Ecuador",city,"Valencia, Ecuador",Ecuador
200,29.0052225,41.0213205,isim bo braklmaz,1160602249229492224,2020-02-14 08:02:09,,city,"stanbul, Trkiye",Trkiye
175,46.685077,24.7219435,R.,1160602357,2020-02-20 00:43:01,,city,",   ",  
82,72.87424399999999,19.174139999999998,Ravi Bajaj,1160602420616974337,2020-03-18 13:04:20,", ",city,"Mumbai, India",India
200,30.50071,39.754203499999996,Mehmet DOAN,1160602544,2020-04-21 21:50:36,,city,"Odunpazar, Trkiye",Trkiye
12060,-84.3228125,33.4409835,varidadon,1160602562774609922,2020-04-05 23:54:57,,city,"Lovejoy, GA",United States
120,101.688324,2.930478, ,1160602578679287808,2020-05-12 03:51:10,,poi,Ministry of Federal Territories (KWP),Malaysia
205,0.10673699999999998,51.768264,MatheusSantosOFC,1160602710477066240,2020-04-30 20:35:10,"England, United Kingdom",city,"Harlow, East",United Kingdom
82,73.910077,18.5081615,Harish Nidavanche,1160603021438410752,2020-05-21 11:00:59,"Pune, India",city,"Haveli, India",India
205,-3.7282605,56.712758,GilesC,1160603043395723265,2020-02-25 19:04:48,"Scotland, United Kingdom",city,"Moulin, Scotland",United Kingdom
205,-1.5724235,51.032815,Marques Brownlee,1160603157904404486,2020-03-31 09:23:57,,city,"Butt's Green, England",United Kingdom
82,73.113833,18.966801,    RJ 18,1160603211490705408,2020-02-27 02:06:17,,city,"Panvel, India",India
31080,-117.9016595,34.0150055,Lupe ,116060345,2020-02-19 04:48:23,"Los Angeles, CA",city,"South San Jose Hills, CA",United States
18700,-123.27934350000001,44.5692455,Lupe ,116060345,2020-03-11 05:01:51,"Los Angeles, CA",city,"Corvallis, OR",United States
38900,-122.630908,45.536402,Lupe ,116060345,2020-03-14 04:12:36,"Los Angeles, CA",city,"Portland, OR",United States
31080,-118.1940255,33.938045,Lupe ,116060345,2020-03-16 18:43:45,"Los Angeles, CA",city,"South Gate, CA",United States
21,-48.5994205,-27.164888,casagrande,1160603494816145408,2020-02-14 15:59:15,,city,"Porto Belo, Brasil",Brazil
175,36.614784,28.39854, ,1160603607290589185,2020-05-19 19:55:28,,city,"Tabuk, Kingdom of Saudi Arabia",Kingdom of Saudi Arabia
12060,-84.43310600000001,33.7671945,pimpin jordan,1160603616299900930,2020-02-25 11:20:47,"Atlanta, GA",city,"Atlanta, GA",United States
82,77.030165,26.496071999999998,Raj Chaturvedi,1160603726295396352,2020-03-09 05:00:50,"Karauli, India",poi,Karauli City Palace,India
82,89.961703,26.0830055,Dipmoni Dev Sarmah,1160603959792304128,2020-04-07 04:34:12,,city,"Gauripur, India",India
65,2.1200938999999996,48.82567647,geron fabrice,1160603993535631362,2020-04-14 16:46:08,"Le Chesnay, France",city,"Le Chesnay, France",France
186,-3.7035075,40.4777945,Gestiona in Spain,116060409,2020-02-21 08:24:05,"Madrid, Comunidad de Madrid",city,"Madrid, Espaa",Espaa
173,50.201155,53.256989000000004, ,1160604098913329154,2020-04-17 09:57:09,", ",poi,7 ,Russia
14,90.4970285,23.6144025, ,1160604140134916096,2020-03-16 15:46:03, -,city,"Narayanganj, Bangladesh",Bangladesh
82,88.8473845,22.402094, ,1160604140134916096,2020-04-04 19:38:49, -,city,"Sundarban Tigar Reserve, India",India
21,-43.208724,-22.899348,Lvea,116060423,2020-02-22 01:24:47,Minas Gerais,poi,Terminal Rodovirio Novo Rio,Brazil
8,-58.013021499999994,-34.9363185,carlos,1160604246523486209,2020-04-12 17:28:41,,city,"La Plata, Argentina",Argentina
21,-47.796623,-15.776254000000002,H I G U I N H O D E M A R A G U B A,1160604461015928832,2020-02-14 01:14:18,Bsb,city,"Braslia, Brazil",Brazil
119,-99.1332,19.4326,Diego Linares,1160604965787840512,2020-04-24 20:53:00,"Distrito Federal, Mxico",city,"Cuauhtmoc, Distrito Federal",Mxico
171,123.846722,10.3748325,Joemar Dela Cruz,1160605030480666624,2020-04-28 08:35:15,,city,"Cebu City, Central Visayas",Republic of the Philippines
21,-45.585614,-21.604117499999997,nah,1160605248500719617,2020-02-22 02:56:38,"Eli Mendes, MG",city,"Eli Mendes, Brasil",Brasil
88,135.754942,35.053287,,1160605385373319168,2020-03-17 14:30:31,,poi,,
211,-67.608333,10.265334,lolimar castillo,116060545,2020-04-27 12:08:25,"T: 10.271259,-67.5781",city,"Maracay, Venezuela",Venezuela
200,40.2223,40.2567,Serhat Meri SANSU,1160605506030972928,2020-03-31 14:48:33,"Bayburt, Trkiye",city,"Bayburt, Trkiye",Trkiye
82,73.88438199999999,18.520764,neha prasad,1160605531389566976,2020-05-11 18:09:09,,city,"Pune, India",India
82,85.75738150000002,19.8297495,Manoj,1160605554772807681,2020-04-12 07:48:19,,city,"Puri, India",India
16980,-87.732013,41.8335845,YNW Kaze,1160605570132566016,2020-04-18 14:02:19,Chicago,city,"Chicago, IL",United States
69,-1.612222,6.693627,nanakofi,1160605749116100609,2020-02-19 07:27:43,,city,"Kumasi, Ghana",Ghana
28140,-94.5778505,39.389389,Slagle Fence,1160605779793195009,2020-02-14 01:00:29,"Kansas City, MO",city,"Smithville, MO",United States
8,-58.79613199999999,-27.487033,Juan Ruiz,1160606545899675648,2020-03-06 02:29:06,"Corrientes, Argentina",city,"Corrientes, Argentina",Argentina
21,-43.441578,-22.911421500000003,da provi ,1160606669530894337,2020-05-04 07:21:28,,city,"Rio de Janeiro, Brasil",Brasil
88,135.7448575,34.552737500000006,,1160607015409840128,2020-04-06 03:41:07, ,city, ,
41860,-122.43597849999999,37.7706565,Amelia Guasch,1160607103846719489,2020-02-20 11:40:08,,city,"San Francisco, CA",United States
13460,-121.311582,44.059938,Amelia Guasch,1160607103846719489,2020-03-30 17:16:59,,city,"Bend, OR",United States
200,35.1523525,42.0185205,Zeliha,1160607167604559872,2020-02-22 11:08:38,"Gaziantep, Trkiye",city,"Sinop, Trkiye",Trkiye
175,39.8016865,21.389833000000007,Rawahel Al-Mashaer Co.,1160607378498359296,2020-02-18 23:39:00,http://bit.ly/Rawahel_Location,city," ,   ",  
33,-71.672062,-38.84465504,Los Pioneros Melipeuco,116060752,2020-03-20 16:03:58,Km 1 cam internacional Icalma,city,"Melipeuco, Chile",Chile
151,7.422322500000001,10.511245,auta boy,1160607574380765184,2020-03-01 22:41:52,"Kaduna, Nigeria",city,"Kaduna, Nigeria",Nigeria
88,139.79570006,35.67217421,hisapone ,116060769,2020-05-02 04:04:39,,city, ,
82,80.88440750000002,26.8251695,shafi ahmad,1160607721332334594,2020-03-20 11:53:59,,city,"Lucknow, India",India
21,-48.9664745,-26.261689500000003,_RAISA_,1160607767054434309,2020-03-26 22:50:38,Joinville/Itapo |SC,city,"Joinville, Brasil",Brasil
82,75.636726,32.259312,Ankit Sharma,1160607781721792512,2020-06-09 21:26:11,"New Delhi, India",poi,Pathankot Cantt Railway Station,India
205,-3.188431,55.944489000000004,Qingyuan Gardner,1160608032331653120,2020-03-05 00:06:35,"Edinburgh, Scotland",poi,7 George Square,United Kingdom
8,-56.68857,-36.541587,Mario,1160608054221709316,2020-05-24 20:18:04,"Buenos Aires, Argentina",poi,Muelle De Santa Teresita,Argentina
120,103.838094,1.5254035,Pathma Sekaran,1160608101491343361,2020-02-15 11:53:53,,city,"Plentong, Johor",Malaysia
82,73.031286,26.173613,VIRMA RAM.VISHNOI@JOD.,1160608773922099200,2020-04-28 16:43:29, INDIA,city,"Jodhpur, India",India
19100,-97.11477049999999,33.202495500000005,Michael Cudd,1160608777457901573,2020-04-16 00:09:01,,city,"Denton, TX",United States
21,-43.23964575,-22.91994974,"the myth, the legend, the baddest bitch of all",1160608939,2020-03-24 22:48:53,tricolor de corao,city,"Rio de Janeiro, Brasil",Brasil
17460,-81.56610400000001,41.584908,His Queen,1160609053317447681,2020-06-09 19:56:24,"Cleveland, OH",poi,Cleveland Lakefront State Park,United States
38300,-79.9806895,40.431389,Grace Wetzel,1160609119,2020-03-28 02:07:16,H2Pitt nursing 2018,city,"Pittsburgh, PA",United States
178,27.891715,-26.01306,Seventh May,1160609124293500930,2020-03-04 05:49:48,,city,"Nooitgedacht, South Africa",South Africa
41180,-90.5883815,38.5881625,Alex Imig,1160609179016544257,2020-03-25 18:50:52,,city,"Ellisville, MO",United States
19820,-83.265121,42.312628,Ray Fakhoury,1160609229402779650,2020-03-02 14:32:45,,city,"Dearborn Heights, MI",United States
24,-97.1526765,49.8538055,Neire,1160609251561234432,2020-04-23 23:50:27,,city,"Winnipeg, Manitoba",Canada
186,-5.679147,40.954377,Maria Jesus Martinez,1160609297887375361,2020-05-22 14:29:53,,city,"Salamanca, Espaa",Espaa
82,88.352242,22.6127055,RD BORND,1160609429995155456,2020-03-26 20:53:47,India,city,"Kolkata, India",India
119,-99.1614805,19.380613,Anwar,116060951,2020-03-14 02:12:44,Madrid / Mexico city,city,"Benito Jurez, Distrito Federal",Mexico
88,139.637256,35.443535,evencoin,116060952,2020-03-04 23:30:31,Yokohama City,city,  ,
205,-3.2030084999999997,55.943195499999995,Jennifer Veitch,1160609572454883328,2020-04-26 11:32:19,"Edinburgh, Scotland",city,"Edinburgh, Scotland",United Kingdom
21,-50.0049935,-20.44661,Helena_hjs82 #thelmacampea,1160609812910133248,2020-04-27 21:40:39,"Votuporanga, Brasil",city,"Votuporanga, Brasil",Brasil
171,121.6264105,13.940447500000001,_shwn,1160610000567459841,2020-06-07 11:49:44,"Calabarzon, Republic of the Ph",city,"Lucena City, Calabarzon",Republic of the Philippines
65,2.4418795,48.6297025,mi._lindie._,1160610085128871937,2020-05-17 15:48:45,,city,"Evry, France",France
162,21.6672,51.736000000000004,Izabela,1160610271779594241,2020-02-14 10:33:28,Polska,city,"Sobolew, Polska",Poland
21,-49.7132755,-26.089898,claudia neumann,1160610431649624064,2020-03-23 13:35:46,"Rio Negro, Brasil",city,"Rio Negro, Brasil",Brasil
21,-38.020827000000004,-5.135596499999999,Tallys.ros,1160610467485798400,2020-03-19 10:45:38,"Fortaleza, Brasil",city,"Limoeiro do Norte, Brasil",Brasil
178,18.4961165,-33.823411,M BA LE N HL E,1160610512050294785,2020-05-14 08:28:49,"Cape Town, South Africa",city,"Milnerton, South Africa",South Africa
211,-70.23458113,8.62203807, $ ,116061053,2020-04-13 22:45:53,"Lima, Peru",city,"Barinas, Venezuela",Venezuela
160,-76.97037346,-12.165637199999999, $ ,116061053,2020-05-11 02:37:53,"Lima, Peru",city,"San Juan de Miraflores, Peru",Peru
21,-42.880259,-20.7479715,fada sensata,1160610695517523971,2020-03-01 13:19:51,"Viosa, Brasil",city,"Viosa, Brasil",Brasil
35620,-74.20956100000002,41.37154,Mikva Politics,1160610760378200064,2020-04-07 19:53:42,"By the ""gmura"".....",city,"South Blooming Grove, NY",United States
222,107.6925465,-2.7674425,Eriel Aristo Nanthaniel,1160610761552515072,2020-05-30 21:36:08,"Tanjung Pandan, Indonesia",city,"Tanjung Pandan, Indonesia",Indonesia
28660,-97.780841,31.1327815,Lotto,116061101,2020-06-04 00:39:19,"Austin, TX",city,"Fort Hood, TX",United States
82,74.012182,21.553545,Shaileshkumar Sharma,1160611083939241984,2020-04-17 16:04:39,,city,"Akkalkuva, India",India
82,72.9121545,20.933605,Manish Kamdar,1160611177099157506,2020-03-26 21:41:26,", ",city,"Navsari, India",India
222,106.7326595,-6.5755315,Gina,1160611204273807360,2020-03-25 08:59:40,"Bogor, Jawa Barat",city,"Dramaga, Indonesia",Indonesia
24,-79.27256949999999,43.629311,He Who Has No NAME,1160611218371076097,2020-06-02 20:26:39,"Toronto, Ontario",city,"Toronto, Ontario",Canada
21,-49.4361545,-15.4818055,Pocahontas,1160611336042287105,2020-02-26 21:25:41,,city,"Rianpolis, Brasil",Brasil
45300,-82.7333652,27.8217669,Miguel A Padro Cruz,1160611929423060992,2020-04-15 20:02:23,,city,"West Lealman, FL",United States
171,121.15264499999999,14.808677,Kyle,1160612029595439104,2020-03-17 14:24:32,,poi,Mt. Balagbag,Republic of the Philippines
88,136.720351,34.49522,,1160612068338229248,2020-03-23 10:51:09,,poi,,
186,-6.30431,37.305409999999995,Jos Hernndez,1160612107,2020-05-04 21:30:13,Sevilla/Espaa,city,"Pilas, Espaa",Espaa
204,32.587425,0.338698,Owen,1160612203201990656,2020-05-29 05:53:45,,poi,Shoprite Acacia Mall,Uganda
21,-45.022863,-21.2642385,Clara,1160612296437186561,2020-02-16 05:21:40,Na minha casa,city,"Lavras, Brasil",Brasil
49,-80.091193,-2.512995,BettyVelizB,1160613025319194624,2020-02-25 18:22:09,,city,"Guayaquil, Ecuador",Ecuador
96,48.075041,29.288416,dalazmi,1160613122098565122,2020-04-04 01:40:44, ,city,"Salwa, Kuwait",Kuwait
186,-8.771557000000001,42.1970575,kim TH Carolina,1160613312578707456,2020-02-26 21:28:36,"Vigo, Espaa",city,"Vigo, Espaa",Espaa
113,-7.5061005,33.592471,Zoumhane mohamed,1160613364697128961,2020-02-17 23:53:04,"Grand Casablanca, Royaume du M",city,"Sidi Moumen, Royaume du Maroc",Royaume du Maroc
82,78.3852855,17.3950375,Ram Bhatunge,1160613580376383488,2020-05-08 07:04:16,,city,"Rajendra Nagar, India",India
