currentGEOID,lon,lat,name,author_Id,created_at,location,place_type,place_full_name,place_country
171,121.0652415,14.504111499999999,jhenz_cute ALS,1135195999629037574,2020-04-23 07:09:00,"Taguig City, National Capital ",city,"Taguig City, National Capital Region",Republic of the Philippines
88,139.715295,35.730723,,1135196105958801408,2020-05-27 11:44:47,,poi, ,
151,3.4642199999999996,6.431102,Certified Djnautica,113519630,2020-03-01 13:28:16,Lagos Nigeria,poi,Lekki Coliseum,Nigeria
33,-71.480435,-33.6692145,Alexandra Chasiguano,1135196383810658304,2020-05-24 14:19:41,"Copiap, Chile",city,"San Antonio, Chile",Chile
21,-43.709677500000005,-22.750747, #TardezinhaDosCria,1135196562781589504,2020-03-10 17:26:24,Rio de Janeiro,city,"Seropdica, Brasil",Brasil
19780,-93.6248185,41.6700505,Mariah Echevarria,1135196820,2020-03-14 02:53:52,"Des Moines, IA",city,"Saylorville, IA",United States
193,100.019517,14.6305205, ,1135196822320713730,2020-02-29 04:37:09,,city,"Don Chedi, Thailand",Thailand
205,-2.304758,53.580698,BAME Project,1135197296516304896,2020-02-14 07:58:33,,city,"Bury, England",United Kingdom
88,139.2138955,35.573609499999996,@,1135197305252933633,2020-02-15 14:33:00,,city,"Midori-ku, Kanagawa",Japan
119,-99.087817,19.4320755,Martha,1135197322235850755,2020-04-04 02:58:44,"Venustiano Carranza, Distrito ",city,"Venustiano Carranza, Distrito Federal",Mxico
26420,-95.4464865,29.838495,Itrinemun ,1135197326891528194,2020-04-12 17:23:31,Venezuela,city,"Houston, TX",Estados Unidos
21,-43.441578,-22.911421500000003,y,1135197390728830978,2020-02-17 19:20:50,,city,"Rio de Janeiro, Brasil",Brasil
38,-74.8936395,10.894855,  .,1135197754899279872,2020-05-08 02:15:22,"Galapa, Colombia.",city,"Galapa, Colombia",Colombia
95,129.317,35.5372,,1135197783466467329,2020-05-30 14:06:00,,city, ,
88,130.97350799999998,34.142483,,1135197954971557888,2020-03-15 13:48:13,,city,"Shimonoseki-shi, Yamaguchi",Japan
175,46.685077,24.7219435,,1135198041349251072,2020-05-26 05:12:45,Kingdom of Saudi Arabia,city,"Riyadh, Kingdom of Saudi Arabia",Kingdom of Saudi Arabia
193,102.77624300000001,17.386301,,1135198135431573504,2020-03-06 00:41:48,", ",poi,,
222,107.63441350000001,-6.9279340000000005, = m/V,1135198192041992192,2020-02-22 17:39:46,,city,"Batununggal, Indonesia",Indonesia
33460,-93.2050555,45.165333,Randy Muehlbauer,1135198276943253504,2020-04-19 03:57:58,,city,"Blaine, MN",United States
117,56.1087365,22.9036575,,1135198609694253056,2020-03-14 16:02:16, ,city,"Al Dhahirah, Oman",Oman
21,-38.51989,-3.789768,Larisse Sousa,1135198690979864576,2020-06-01 03:32:34,"Jardim Cearense, Fortaleza",city,"Fortaleza, Brasil",Brasil
205,-0.531648,51.9464445,Harvey Laurence Silver,1135198716145623040,2020-04-06 19:33:11,"Toddington, Dunstable",city,"Toddington, England",United Kingdom
178,26.6433135,-26.860547999999998,Dion Venter,1135198740279635970,2020-04-23 18:06:21,,city,"Klerksdorp, South Africa",South Africa
82,90.67246949999999,26.337634499999997,Bintu S Nath,1135198746910703616,2020-04-13 09:54:00,"Barpeta Road, India",city,"Abhayapuri, India",India
88,133.58327866,34.35236495,,113519905,2020-02-25 08:48:16,,city, ,
193,103.71772750000001,17.859929,,1135199234439782407,2020-02-20 12:45:24,"., .",city,"Na Tae, Thailand",Thailand
200,29.0052225,41.0213205,Erdemli,1135199398328250368,2020-03-25 10:17:37,"stanbul, Trkiye",city,"stanbul, Trkiye",Turkey
58,15.738541,50.688788,Karolna Slachov,1135199604776026112,2020-03-04 19:11:36,,city,"Pec pod Snezkou, Czech Republic",Czech Republic
18140,-82.985772,39.9946835,dani jones,1135199622861922305,2020-03-27 00:12:50,"Columbus, OH",city,"Columbus, OH",United States
222,102.512886,-3.4288865,CintaKoplak ,1135199760384577538,2020-02-29 14:04:45,Indonesia,city,"Curup, Indonesia",Indonesia
14860,-73.19911850000001,41.1856745,erik sanchez,1135199778,2020-04-07 13:15:46,Bridgeport ct,city,"Bridgeport, CT",United States
169,26.0948065,44.4455455,Florentina Balescu,1135199792299225094,2020-02-21 18:50:43,"Bucureti, Romnia",city,"Bucharest, Romania",Romania
21,-46.441259499999994,-23.666101,Vinicius Alves,1135200037,2020-02-21 01:27:00,So Paulo/Mau,city,"Mau, Brasil",Brasil
171,121.033212,14.5464995,,1135200215626014720,2020-06-03 16:55:53,pamilacan island,city,"Lungsod ng Makati, Pambansang Punong Rehiyon",Republika ng Pilipinas
171,121.154274,14.613470999999999,louieV ,1135200339873820674,2020-02-16 08:35:40,,poi,Cloud 9 Hotel & Resort,Republic of the Philippines
82,77.51795,28.477015,Sanjeev Chaudhary,1135200358823841794,2020-04-11 05:44:11,,poi,SECTOR ALPHA II,India
26420,-95.4464865,29.838495,nicole,1135200359662739456,2020-03-12 22:17:37,"Houston, TX",city,"Houston, TX",United States
119,-104.36338,19.128538,Casado Bisex,1135200479191822339,2020-02-16 16:27:06,"Manzanillo, Colima",city,"Manzanillo, Colima",Mxico
91,36.863620000000004,-1.2748635,MWUGUSi DANSON@dmwugusi@gmail.com,1135200733106778113,2020-03-28 12:42:19,,city,"Nairobi, Kenya",Kenya
24,-123.934998,49.1745345,W SINKEVICH,1135200923276402688,2020-06-05 22:33:19,,city,"Nanaimo, British Columbia",Canada
21,-43.441578,-22.911421500000003,Dhuli Silva,1135201009083568128,2020-02-14 18:40:11,,city,"Rio de Janeiro, Brasil",Brasil
200,36.1756515,36.571034000000004,Kemal Bura,1135201206236827649,2020-04-18 20:21:44,,city,"skenderun, Trkiye",Trkiye
82,83.781305,26.503024,Aman Kushwaha,1135201387971616768,2020-06-02 10:51:17," , , ",poi,deoria city,India
35620,-73.9685415,40.780709,Tania Khodakivska,1135201390404542464,2020-04-05 16:24:08,,city,"Manhattan, NY",United States
24340,-85.615408,42.911452000000004,Ian Greutman,1135201744647053312,2020-02-15 17:14:32,NW Ohio,poi,Woodland Sports,United States
205,0.4110205,51.6196155,Tony Dingwall,1135201945,2020-05-30 10:59:56,,city,"Billericay, East",United Kingdom
69,-0.1842935,5.6231985,  ,1135202112944480256,2020-04-10 03:50:14,"Parit Buntar, Perak",city,"Accra, Ghana",Ghana
120,100.4920465,5.092944,  ,1135202112944480256,2020-04-21 05:15:25,"Parit Buntar, Perak",city,"Parit Buntar, Perak",Malaysia
33460,-93.2428,44.6471,Ricky L Phillips,1135202138,2020-03-21 20:51:51,"Minneapolis, MN",city,"Lakeville, MN",United States
24,-75.80014150000001,45.248791,Sir Slack,1135202145261772800,2020-04-23 17:14:14,,city,"Ottawa, Ontario",Canada
23060,-85.1700515,41.086917,Howie Steele,1135202371271888896,2020-02-25 23:52:42,"Fort Wayne, IN",city,"Fort Wayne, IN",United States
88,138.587279,36.628855, ,1135202439903174656,2020-02-22 01:34:07,,poi,,Japan
171,121.169273,14.538013000000001,J E R R I E L Y N,1135202615522783232,2020-05-27 23:13:51,"Angono, Calabarzon",city,"Angono, Calabarzon",Republic of the Philippines
41940,-121.967821,37.370990000000006,cinderellas pumpkin,113520268,2020-02-18 22:54:24,"Silicon Valley, CA",city,"Santa Clara, CA",United States
38,-76.49608,3.364182,Ana Mara Jaramillo,1135202695,2020-06-02 21:13:06,,city,"Candelaria, Colombia",Colombia
73,23.852122,38.126675,     ,1135203020667572224,2020-04-01 18:52:38,,city,", ",
19380,-84.200366,39.78035800000001,ronnae,1135203032,2020-02-15 04:28:52,,city,"Dayton, OH",United States
12060,-84.1511495,33.4424245,ronnae,1135203032,2020-03-10 21:28:14,,city,"McDonough, GA",United States
19380,-84.200366,39.78035800000001,ronnae,1135203032,2020-06-03 01:01:19,,city,"Dayton, OH",United States
151,4.216673,12.464796,Greatness Abraham Joseph,1135203154176483328,2020-04-06 23:00:37,"Birnin-Kebbi, Nigeria",poi,Birnin Kebbi,Nigeria
82,81.090823,25.062025,Raj Agrahari,1135203391615881221,2020-03-02 18:32:02,,poi,Manikpur,India
91,36.863620000000004,-1.2748635,Official Nairobi City Stars Fc,1135203528211931137,2020-02-19 13:01:50,"Nairobi, Kenya",city,"Nairobi, Kenya",Kenya
8,-58.79613199999999,-27.487033, ,1135203530,2020-02-17 14:31:57,Argentina,city,"Corrientes, Argentina",Argentina
33,-70.8244775,-33.515108000000005,ParasethU,1135203556879978496,2020-03-08 01:16:30,,city,"Maip, Chile",Chile
85,12.3687095,43.13933400000001,alfredo polidori,1135203760538574849,2020-03-05 21:20:47,,city,"Perugia, Umbria",Italia
222,112.79315600000001,-7.374732000000001,Michael Joshua,1135203791169437698,2020-03-15 13:56:29,,poi,Juanda Domestic Airport,Indonesia
14500,-105.14172749999999,39.96890000000001,Will Fitzpatrick,1135203919758528512,2020-03-27 19:43:11,,city,"Louisville, CO",United States
9,149.1297825,-35.313979499999995,Dr. Deepak Ramanath,113520402,2020-03-21 02:35:33,"Canberra, Australian Capital T",city,"Canberra, Australian Capital Territory",Australia
119,-99.2115105,19.4299345,Ranjeet Kummar,1135204021671608325,2020-02-15 23:18:10,"Distrito Federal, Mxico",city,"Miguel Hidalgo, Distrito Federal",Mexico
19100,-96.7617535,32.819858499999995,Ranjeet Kummar,1135204021671608325,2020-03-03 02:46:56,"Distrito Federal, Mxico",city,"Dallas, TX",United States
172,-65.791754,18.419943,Born Too Be Wild,113520410,2020-02-28 01:57:28,On Top of the World,poi,Coco Beach,United States
200,29.0052225,41.0213205,cekomo,1135204150705360902,2020-04-01 01:35:40,cehennem,city,"stanbul, Trkiye",Turkey
82,81.249201,26.2351145,Ankur Singh,1135204224587878400,2020-05-02 17:40:17,,city,"Rae Bareily, India",India
88,139.69262600000002,35.666851,Caroline International Japan,1135204331832061953,2020-03-13 04:47:08,"Tokyo, Japan",city, ,
38,-73.745544,3.991529,ALVARO DELGADO RIBEROS,1135204357748736000,2020-02-28 19:06:31,"Villavicencio, Colombia",city,"Acacas, Colombia",Colombia
169,26.0948065,44.4455455,Maria Buruiana Smarandache,1135204437004365824,2020-03-25 12:16:43,,city,"Bucureti, Romnia",Romnia
2,5.5335145,22.7906605,Tadiramas,1135204537118134274,2020-05-23 17:16:36,,city,"Tamanghasset                                                                                        , Algeria",Algeria
65,7.325557000000001,47.752539500000005,,1135204845026254848,2020-02-29 22:01:41,"Strasbourg, France",city,"Mulhouse, France",France
21,-43.441578,-22.911421500000003,J.,1135204942090854400,2020-02-25 23:35:28,"Rio de Janeiro, Brasil",city,"Rio de Janeiro, Brasil",Brasil
162,18.68435,50.66864,Tomek Ku,1135204974,2020-02-14 16:11:50,,city,"Lubliniec, Polska",Polska
8,-65.428832,-36.222277000000005,InfoHuella.com.ar,1135205101,2020-02-16 04:41:27,La Pampa,poi,Victorica,Argentina
11460,-83.7515025,42.178922,Al Leslie,1135205442,2020-05-16 00:24:04,"Saline, Michigan",city,"Saline, MI",United States
171,121.1242275,14.606717499999998,shishi,1135205562407194625,2020-04-01 13:36:51,"Pasig City, National Capital R",city,"Cainta, Calabarzon",Republic of the Philippines
47900,-77.451295,38.948926,ElRey1Salvadoreo,1135205663926292480,2020-03-12 20:16:19,,poi,Gate B50,United States
175,40.4908105,21.38543,,1135205665,2020-02-21 11:53:54,,city,",   ",  
19100,-97.2859135,32.7799665,Delta V Esports,1135205696973283328,2020-03-02 17:02:58,"Fort Worth, TX",city,"Fort Worth, TX",United States
31140,-85.72234549999999,38.195555,rockstargee,1135205720767508480,2020-05-16 21:10:03,"Louisville, KY",city,"Louisville, KY",United States
188,33.524921500000005,14.3989915,Ahmed Metwally,1135205836127707137,2020-03-06 07:00:51,,city,Hantub,
50,30.642992,31.132921000000003,Ahmed Metwally,1135205836127707137,2020-04-15 00:48:04,,poi,Piano Coffee House,Egypt
186,-4.297581500000001,37.441093,Hugooexposito,1135205845329960960,2020-03-02 18:42:50,"Carcabuey, Espaa",city,"Carcabuey, Espaa",Espaa
222,101.4159165,0.6318155000000001,Mas Gendon,1135206046752882694,2020-03-03 17:13:05,"Kota Surabaya, Jawa Timur",city,"Rumbai, Indonesia",Indonesia
205,-1.4707785,52.91553,GH,1135206087269986304,2020-02-15 12:41:22,"Nottingham, England",city,"Derby, England",United Kingdom
175,46.685077,24.7219435,Razan,1135206281701220353,2020-02-15 07:16:13,"Riyadh, Kingdom of Saudi Arabia",city,"Riyadh, Kingdom of Saudi Arabia",Kingdom of Saudi Arabia
186,-5.694972,43.2873255,Joan Lpez Vilches,1135206288,2020-03-15 14:10:03,"Asturias, Langreo",city,"Langreo, Espaa",Espaa
186,-4.6842665,36.555924,Lisa Burgess ,1135206329910550529,2020-02-15 21:57:57,"Andalusia, Spain",city,"Mijas, Spain",Spain
35620,-74.184848,40.734494,Jay Foxx ,1135206386248441856,2020-03-08 16:31:05,"Newark, NJ",city,"Newark, NJ",United States
42540,-75.950281,41.240246,Jay Foxx ,1135206386248441856,2020-04-15 08:51:10,"Newark, NJ",city,"Plymouth, PA",United States
35620,-74.184848,40.734494,Jay Foxx ,1135206386248441856,2020-04-17 00:13:50,"Newark, NJ",city,"Newark, NJ",United States
120,101.4790765,3.1231455,HwangB,1135206489667227648,2020-06-02 15:15:16,,city,"Bukit Raja, Selangor",Malaysia
200,37.0181055,39.7483805,Muammer Aydin,1135206633892655104,2020-03-01 19:08:25,"Sivas Merkez, Sivas",city,"Sivas, Trkiye",Turkey
30,103.962385,30.670503999999998,,1135206672090013697,2020-03-03 07:41:16,,poi,GUESS(),
178,27.927864000000003,-28.5032615,Leoma Rebonejoang,1135206720706400257,2020-04-23 17:32:36,,city,"Rosendal, South Africa",South Africa
88,136.9156965,35.359911,,1135206767648886785,2020-05-01 23:52:00, ,city,"Fuso-cho, Aichi",Japan
88,136.11722049999997,34.6167575, ,1135206908426461185,2020-05-17 12:14:51,,city,"Nabari-shi, Mie",Japan
8,-60.72515799999999,-31.663144,Moremendoza,1135206956124254208,2020-03-07 00:03:55,,poi,"Estadio Brigadier General Estanislao Lpez ""El Cementerio de los Elefantes"" (Club Atltico Coln)",Argentina
151,3.5899254999999997,7.97663,The Legit boss,1135206958645075968,2020-03-17 07:50:02,"Iseyin, Nigeria",city,"Iseyin, Nigeria",Nigeria
21,-46.59118597,-23.5729005,Tuco,1135207073413828609,2020-03-02 00:26:11,Bruxque,city,"Sao Paulo, Brazil",Brazil
178,29.080657000000002,-26.5478615,zaaka.co,1135207123015602178,2020-04-02 20:33:27,2761 Mangobe Cres Embalenhle,city,"Embalenhle, South Africa",South Africa
222,112.2480695,-7.4848905000000014,arman_maula27,1135207133543165952,2020-02-24 12:56:53,"Mojokerto, Jawa Timur",city,"Tembelang, Indonesia",Indonesia
28140,-94.2791215,39.0148605,BSHS WBB,1135207165881442304,2020-02-21 13:15:10,"Blue Springs, MO",city,"Blue Springs, MO",United States
151,3.9052964999999995,7.4290745,stan~lee,1135207421561974792,2020-05-03 18:37:04,,city,"Ibadan, Nigeria",Nigeria
161,74.3584865,31.5318195,asma chishty,1135207666001874944,2020-03-17 16:17:14,,city,"Lahore, Pakistan",Pakistan
30,115.9752,28.712864,John,1135207875381420033,2020-03-28 14:41:27, ,poi,,People's Republic of China
12020,-83.39977950000001,33.9563835,Cecil,113520792,2020-02-14 13:49:18,Athens Ga,city,"Athens, GA",United States
16980,-87.90534749999999,41.9180755,Cecil,113520792,2020-03-12 20:26:21,Athens Ga,city,"Northlake, IL",United States
12020,-83.39977950000001,33.9563835,Cecil,113520792,2020-03-17 17:07:17,Athens Ga,city,"Athens, GA",United States
151,3.3437300000000003,6.63128,Cute Gadgetstore,1135208052016189441,2020-03-04 15:05:15,"Lagos, Nigeria",city,"Ikeja, Nigeria",Nigeria
205,-2.0002720000000003,51.0595425,Esme James,1135208155984609282,2020-05-19 18:57:36,"England, United Kingdom",city,"Fovant, England",United Kingdom
21,-43.9387,-19.9191,  LEIAM O LADO MAIS SOMBRIO,1135208164813619201,2020-03-15 22:09:51,,city,"Belo Horizonte, Brazil",Brazil
33,-70.55934149999999,-33.593537999999995,Matas C. Muoz,113520817,2020-06-08 19:30:38,Chile,city,"Puente Alto, Chile",Chile
200,36.3406495,41.31315100000001,brahim,1135208197168533504,2020-05-23 08:03:35,,city,"Samsun, Trkiye",Turkey
161,70.6473885,30.699417,LOCALBBC,1135208308883763204,2020-05-31 05:27:59,,city,"Taunsa, Pakistan",Pakistan
88,136.91678149999998,35.25046000000001,,1135208592682901504,2020-06-05 22:54:01,,city,"Toyoyama-cho, Aichi",Japan
96,47.672275,29.348658,,1135208635712360448,2020-03-18 06:46:06,,poi,Pick Yo,Kuwait
205,-4.172646,55.820915500000005,James Sren Anderson,1135208737701056514,2020-02-14 17:35:11,,city,"Cambuslang, Scotland",United Kingdom
9,143.85274099999995,-37.567452,Jedd,1135208768910659585,2020-05-30 14:03:20,"Victoria, Australia",city,"Ballarat, Victoria",Australia
95,126.92383500000001,35.17615,,1135208938683506689,2020-03-13 12:53:17, ,city, ,
88,139.560072,35.708001,Colors,1135208971063648256,2020-02-14 14:12:46, ,city,"Musashino-shi, Tokyo",Japan
88,136.6245935,34.552158500000004,,1135209217063657472,2020-03-04 16:24:30,,city, ,
159,-57.60601750000001,-25.300264000000002,CAF BIKE Paraguay,1135209259061469184,2020-03-06 20:55:06,,city,"Asuncion, Paraguay",Paraguay
171,121.2803415,15.529923000000002,Ibyanggg,1135209445271564289,2020-03-27 13:02:51,"Gabaldon, Central Luzon",city,"Gabaldon, Central Luzon",Republic of the Philippines
119,-99.5799145,19.251530499999998,Ral Cano,113520947,2020-02-15 01:03:42,"Metepec, Mxico",city,"Metepec, Mxico",Mxico
200,39.197963,38.667615500000004,Hayalperest ,1135209589098631169,2020-04-22 12:12:07,,city,"Elaz, Trkiye",Trkiye
205,-1.2928485,54.54691700000001,Paul Robinson,1135209733898625025,2020-04-17 08:48:03,"North East, England",city,"Thornaby on Tees, England",United Kingdom
222,108.4072255,-6.727885499999998,Senja,1135209883983179776,2020-02-20 03:28:55,Indonesia,city,"Palimanan, Indonesia",Indonesia
21,-43.412031,-22.758421,2k,1135209933216071680,2020-03-13 12:26:51,Manhoso City,poi,C.E Paulino Barbosa,Brasil
88,135.535031,34.558948,@05/16TheMYCROHEAD4'ns,1135209987389530112,2020-04-12 04:46:47, ,poi,,
171,121.398443,14.262523000000002,Dr.,1135210127923957762,2020-02-14 02:41:30,"Santa Cruz, Calabarzon",city,"Santa Cruz, Calabarzon",Republic of the Philippines
200,29.0052225,41.0213205,metin begen,1135210202,2020-06-10 18:29:20,,city,"stanbul, Trkiye",Trkiye
82,80.3460625,26.405874,Dr Santosh Tripathi,1135210442643476483,2020-03-26 03:19:36,"Kanpur, India",city,"Kanpur, India",India
50,31.034664000000003,30.775028999999996,AHMED GABER,1135210543487299584,2020-03-18 17:57:36,"El Gharbia, Egypt",poi,Ma7rosa,Egypt
152,4.768735,52.468465,iDM-Warmtepomp,1135210565062864896,2020-02-28 20:29:59,"Heemskerk, Nederland",city,"Zaanstad, Nederland",Nederland
88,141.061442,38.3022985,,1135210606703697920,2020-02-29 03:58:42, ,city, ,
21,-49.2884605,-25.4952495,carolita,1135210642082807808,2020-05-30 01:53:36,"Florianpolis, Brasil",city,"Curitiba, Brasil",Brasil
82,78.064745,17.618071,V.R. Krishna,1135210848362803201,2020-03-22 18:04:50,"Beeramguda, Patancheru",city,"Sangareddi, India",India
29380,-82.66398899999999,30.182768,,1135210953220530176,2020-02-27 20:42:36,,city,"Lake City, FL",United States
33100,-80.3266,25.58811,Dr. Gaby Kafie,1135211006,2020-02-17 04:37:44,"Cutler Bay, FL",city,"Cutler Bay, FL",United States
222,106.6778875,-6.2026825,malmal,1135211025584680960,2020-02-16 20:30:05,"Tangerang, Indonesia",city,"Cipondoh, Indonesia",Indonesia
21,-37.100742,-11.0036455,gabizaummmmmm,1135211410584166405,2020-02-27 02:16:46,aju,city,"Aracaju, Brazil",Brazil
21,-40.062181,-18.7968105,Malu Lucena,1135211496374493184,2020-05-24 16:12:58,,city,"So Mateus, Brasil",Brasil
120,110.484165,1.4061315,rusli kalimantan barat,1135211629384126464,2020-02-25 14:16:21,"Sarawak, Malaysia",city,"Samarahan, Sarawak",Malaysia
17460,-81.52047850000001,41.58846,tweety,1135211681175560193,2020-05-09 23:09:36,,city,"Euclid, OH",United States
21,-43.441578,-22.911421500000003,#carla_fatima ,113521174,2020-02-14 02:53:06,,city,"Rio de Janeiro, Brasil",Brasil
82,75.78286700000002,26.245841,Shafeek Azaad,1135211881088466944,2020-04-30 14:11:48,,city,"Tonk, India",India
186,-2.9331675,43.2518995,Babi,1135211890576109573,2020-02-14 06:32:31,EH. ,city,"Bilbao, Espaa",Espaa
40140,-117.603783,34.0451585,Arturo Alencastro,1135211906958888960,2020-02-14 23:09:21,"San Bernardino, CA",city,"Ontario, CA",United States
222,107.6478775,-6.8985575,dhiy,1135211954790752256,2020-03-21 08:19:35,moonceana.,city,"Cibeunying Kidul, Indonesia",Indonesia
200,28.76666667,36.83333333,Ziraat Mhendisiyiz,1135212084508155904,2020-04-04 11:14:41,Trkiye,city,"Ortaca, Trkiye",Trkiye
21,-43.959822499999994,-19.918692,,1135212175847559169,2020-04-11 18:13:07,jisoo utted,city,"Belo Horizonte, Brasil",Brasil
222,110.27162450000002,-7.591388999999999,SUNEO_,1135212504064221185,2020-02-15 13:55:36,"Sleman, Yogyakarta",city,"Muntilan, Indonesia",Indonesia
119,-99.269192,19.5645875,Paola Vigueras,113521264,2020-03-24 14:21:30,mexico,city,"Atizapn de Zaragoza, Mxico",Mxico
171,125.39453049999999,11.3853825,qn ,1135213231834714113,2020-05-18 11:24:51,,city,"Balangkayan, Eastern Visayas",Republic of the Philippines
21,-46.75652150000001,-23.210131,Roberto Santos,1135213508096876549,2020-04-28 03:46:19,"Campo Limpo Paulista, Brasil",city,"Campo Limpo Paulista, Brasil",Brasil
113,-9.7123185,29.685826000000002, ,1135213518536544256,2020-06-08 05:47:15,,city,"Tiznit, Royaume du Maroc", 
186,-4.069133,38.1832985,Jaujsico,1135213929578270720,2020-03-08 16:06:04,Espaa,city,"Andjar, Spain",Spain
205,-0.018734,51.5992555,Arturo_Bandini,1135213972343463937,2020-02-15 08:51:48,dw,city,"Walthamstow, London",United Kingdom
36420,-97.4451735,35.222301,Dani Feathers,1135213992,2020-02-15 21:23:21,"Oklahoma, USA",city,"Norman, OK",United States
45140,-94.97236099999999,35.9163365,Dani Feathers,1135213992,2020-03-12 06:47:45,"Oklahoma, USA",city,"Tahlequah, OK",United States
36420,-97.4451735,35.222301,Dani Feathers,1135213992,2020-03-23 10:10:25,"Oklahoma, USA",city,"Norman, OK",United States
45140,-94.97236099999999,35.9163365,Dani Feathers,1135213992,2020-04-03 03:38:58,"Oklahoma, USA",city,"Tahlequah, OK",United States
36420,-97.35762,35.47036400000001,Dani Feathers,1135213992,2020-04-05 00:36:03,"Oklahoma, USA",city,"Midwest City, OK",United States
45140,-94.9715,35.9129,Dani Feathers,1135213992,2020-05-19 06:59:26,"Oklahoma, USA",city,"Tahlequah, OK",United States
36420,-97.4436,35.2205,Dani Feathers,1135213992,2020-05-24 07:06:18,"Oklahoma, USA",city,"Norman, OK",United States
45140,-94.97236099999999,35.9163365,Dani Feathers,1135213992,2020-05-29 23:48:31,"Oklahoma, USA",city,"Tahlequah, OK",United States
200,29.0052225,41.0213205,melo dacic,1135214016824053765,2020-02-27 20:38:27,,city,"stanbul, Trkiye",Turkey
205,-1.4813515000000002,52.516657,Jerome Felix-Sebastian,1135214261612027916,2020-04-28 10:59:31,,city,"Nuneaton, England",United Kingdom
65,2.5957075,48.62467,Dismon.9,1135214277135147009,2020-05-08 20:23:13,Cote colombie,city,"Moissy-Cramayel, France",France
51,-9.0333065,51.903863,Victor victor,1135214314003083268,2020-02-29 00:36:02,,city,"Cork, Ireland",Ireland
16980,-87.732013,41.8335845,Paul ,1135214552075984896,2020-02-17 02:57:17,,city,"Chicago, IL",Estados Unidos
119,-102.7645815,20.0502755,Paul ,1135214552075984896,2020-03-16 20:26:59,,city,"Sahuayo, Michoacn de Ocampo",Mxico
45,12.208675999999999,55.521091000000006,Kim Rene Mahlert,1135215023377264641,2020-06-02 03:51:34,"Solrd, Danmark",poi,Jersie st.,Danmark
82,83.359951,26.74441,Anup Tripathi,1135215332115673088,2020-02-14 13:26:04,"Gorakhpur, New Delhi, India",city,"Gorakhpur, India",India
33,-71.6037715,-35.42246950000001,ivonne selame,1135215390525657089,2020-03-04 11:37:23,,city,"Talca, Chile",Chile
119,-99.1614805,19.380613,Gaby Moreno,113521553,2020-03-19 03:59:40,Mxico,city,"Benito Jurez, Distrito Federal",Mxico
19820,-83.1407835,42.460877,tinytiger,1135215620268744705,2020-02-17 13:11:22,"Detroit, MI",city,"Ferndale, MI",United States
47260,-76.429223,36.978844,Kas,1135215648693510144,2020-05-20 04:05:24,,poi,Newport News City Jail,United States
88,133.66343799999999,33.751053999999996,,1135215666938540033,2020-02-20 00:06:11,,poi, ,
31020,-123.09381699999999,46.174164000000005,Baylee,1135215715252727808,2020-03-25 23:32:42,,poi,Willow Grove Beach,United States
200,30.974991999999997,36.868995,,1135215716473430016,2020-03-19 10:53:55,,poi,Titanic Deluxe Golf Belek,Turkey
21,-46.579077000000005,-23.630370000000003,Talicia,1135215993335230464,2020-02-17 04:29:51,,poi,praia do tombo guaruja,Brazil
222,110.4580875,-7.047778500000001,Walking Disaster,1135216003057537030,2020-02-14 00:54:26,Guess where?,city,"Tembalang 1, Indonesia",Indonesia
35620,-73.9685415,40.780709,Amy Balbierz,1135216203079831552,2020-02-20 00:10:30,"New York, NY",city,"Manhattan, NY",United States
35620,-73.254595,40.7289075,Pamela ,1135216633188933632,2020-03-17 11:25:08,,city,"Bay Shore, NY",United States
178,26.700179,-29.246753000000002,Esaih Mphuthing,1135217247251763200,2020-05-25 22:44:15,,city,"Botshabelo, South Africa",South Africa
186,2.1162,41.3684,lh_on,1135217293,2020-04-03 09:05:10,L'Hospitalet de Llobregat,city,"L'Hospitalet de Llobregat, Espaa",Espaa
44340,-81.781818,32.42638,Josh Moffet,1135217445067771904,2020-04-04 00:16:13,"Statesboro, GA",poi,Georgia Southern University,United States
12260,-82.0117765,33.089211,Josh Moffet,1135217445067771904,2020-06-05 18:55:30,"Statesboro, GA",city,"Waynesboro, GA",United States
44340,-81.8005785,32.440510499999995,Josh Moffet,1135217445067771904,2020-06-06 14:13:08,"Statesboro, GA",city,"Statesboro, GA",United States
19100,-96.961483,32.863917,Destiny,1135217469956788224,2020-03-12 17:25:43,,city,"Irving, TX",United States
32820,-90.2091745,35.2538975,Destiny,1135217469956788224,2020-05-06 17:16:07,,city,"James Mill, AR",United States
19100,-96.961483,32.863917,Destiny,1135217469956788224,2020-06-09 18:58:33,,city,"Irving, TX",United States
82,75.7564715,22.561004,Akki Alaat,1135217747632279554,2020-04-05 17:25:01,"Indore, India",city,"Mhow, India",India
178,29.944485999999998,-27.778102,Nqokonqoko Khawula,1135217748945100800,2020-03-03 17:19:26,"Newcastle, South Africa",poi,Newcastle Mall,South Africa
82,83.359951,26.74441,Yamini Shankar,1135217995519651842,2020-04-23 11:23:22,,city,"Gorakhpur, India",India
160,-77.11947099999999,-11.9845885,DM,1135218048493936642,2020-05-23 02:56:24,,city,"Callao, Peru",Peru
186,-3.5979675,37.180409000000004,carmen,1135218108749271041,2020-03-09 14:50:50,"Adra, Spain",city,"Granada, Espaa",Espaa
222,109.701581,-7.3962639999999995,sp,1135218185530011648,2020-02-26 09:08:33,Disini Aja!,poi,Mandiri Syariah,Indonesia
36220,-102.344087,31.8738385,cristian,1135218252471308288,2020-03-19 18:27:47,"Odessa, TX",city,"Odessa, TX",United States
13700,-101.481443,31.863506,cristian,1135218252471308288,2020-03-30 19:19:46,"Odessa, TX",poi,Garden City Texas,United States
36220,-102.344087,31.8738385,cristian,1135218252471308288,2020-04-14 10:34:15,"Odessa, TX",city,"Odessa, TX",United States
57,16.360617,48.171839,Walter chrpa,1135218277,2020-05-26 16:27:24,,city,"Wien, sterreich",sterreich
21,-44.3657935,-23.032432500000002,L c Rocha,1135218298533138432,2020-02-14 03:25:46,,city,"Angra dos Reis, Brasil",Brasil
96,47.9714947,29.23941009,,1135218466061979648,2020-02-18 14:58:00,Kuwait,city,"Airport Area, Kuwait",Kuwait
193,100.75278399999999,13.690891,,1135218466061979648,2020-02-19 03:05:34,Kuwait,poi,Royal Silk Lounge,Thailand
96,47.9714947,29.23941009,,1135218466061979648,2020-02-28 14:21:21,Kuwait,city,"Airport Area, Kuwait",Kuwait
21,-47.493776000000004,-0.8343745000000001,eurogercomentei,1135218508227330048,2020-02-14 13:35:44,"Iconha, Brasil",city,"Maracan, Brasil",Brazil
151,5.641287999999999,6.3349545,Bennifer,1135218896,2020-05-16 13:37:04,Nigeria,city,"Benin-City, Nigeria",Nigeria
69,-0.1842935,5.6231985,betsy_boateng,1135218906086420480,2020-02-29 22:07:28,,city,"Accra, Ghana",Ghana
82,78.0612955,28.171044,Rahul Sharma,1135218923186532352,2020-03-26 16:55:28,,city,"Pahasu, India",India
171,121.05788500000001,14.584451999999999,Joseph Lendell San Jose,1135219003176042496,2020-02-16 14:33:05,"Angono, Calabarzon",poi,Genki Sushi,Republic of the Philippines
8,-60.674902,-31.6191365,Trombofilia Y Embarazo Santa Fe,1135219151566491648,2020-05-20 11:19:49,"Santa F, Argentina",city,"Santa F, Argentina",Argentina
21,-52.44186600000001,-29.6005305,luiza,1135219352293249024,2020-02-16 02:08:09,"So Sep, Brasil",city,"Santa Cruz do Sul, Brasil",Brasil
82,77.4233395,28.773568,Sunmallik,1135219375131176966,2020-03-22 12:23:13,,city,"Ghaziabad, India",India
222,106.85680900000001,-6.225842,Mardhiah Ahmad,1135219576021536769,2020-02-18 12:02:48,"DKI Jakarta, Indonesia",city,"Tebet, Indonesia",Indonesia
33,-70.6806208,-33.4564498,Claudio,1135220297014173701,2020-02-26 23:09:29,"Santiago, Pichilemu",city,"Estacin Central, Chile",Chile
119,-103.0397775,23.809064000000003,Sofia,1135220389708214272,2020-05-02 06:25:04,"Zacatecas, Mxico",city,"Ro Grande, Zacatecas",Mexico
151,7.424094,9.073663999999999,Anyiam Juliet,1135220415926870016,2020-03-30 19:34:28,,city,"Abuja, Nigeria",Nigeria
88,139.744876,35.71770150000001,uraco,113522046,2020-05-17 11:09:25,,city, ,
12020,-83.39977950000001,33.9563835,nola,1135220550,2020-05-11 00:47:57,United States,city,"Athens, GA",United States
82,85.75738150000002,19.8297495,Subrat Palai,1135220693275107328,2020-05-14 06:05:26,"Bhubaneshwar, India",city,"Puri, India",India
186,-16.231479,28.499581,Jorge Pedreo,1135220805657354242,2020-05-27 22:19:01,Tenerife  - Salamanca ,city,"Santa Cruz de Tenerife, Espaa",Espaa
82,77.095086,28.638489500000002,Praveen Aggarwal,1135220819506880512,2020-02-21 06:09:48,,city,"New Delhi, India",India
38,-72.89061749999998,5.657152,Weiqui Natural,1135220978911461376,2020-03-22 01:08:12,,city,"Sogamoso, Colombia",Colombia
82,77.4233395,28.773568,Akshay Somal,1135221376971825152,2020-02-23 03:11:22,,city,"Ghaziabad, India",India
211,-69.367625,10.055515,Pastor Romero,1135221481703690241,2020-03-23 01:51:25,"Barquisimeto, Venezuela",city,"Barquisimeto, Venezuela",Venezuela
91,36.863620000000004,-1.2748635,LennoEvans,1135221760176152577,2020-02-25 22:13:37,"Nairobi, Kenya",city,"Nairobi, Kenya",Kenya
205,-2.58333,51.45,Deed,1135221764,2020-02-15 13:28:31,Prestatyn / Bristol,city,"Bristol, England",United Kingdom
186,2.1683,41.3894,Deed,1135221764,2020-03-01 15:17:58,Prestatyn / Bristol,city,"Barcelona, Spain",Spain
178,28.184066499999997,-25.752605499999998,,1135221880829464576,2020-02-15 17:12:39,"Pretoria, South Africa",city,"Pretoria, South Africa",South Africa
175,49.9945455,26.353591499999997,    ,1135222027248439296,2020-04-30 11:20:36,,city,",   ",  
49180,-80.244984,36.0871685,NC Sting Baseball,1135222225,2020-03-26 23:53:56,,city,"Winston-Salem, NC",United States
35620,-74.658292,40.995296,nur,1135222459047845888,2020-04-06 00:47:25,crevice of hope,poi,Byram General Store,United States
41940,-121.8737305,37.331159,ACAB,1135222459047845888,2020-05-30 04:01:59,she/her,city,"San Jose, CA",United States
38,-74.077288,4.6460669999999995,Mara Fernanda C.,1135222535224725504,2020-03-02 23:53:04,"Bogot, D.C., Colombia",poi,Estadio Nemesio Camacho El Campn,Colombia
222,106.85042820000001,-6.153181200000001,f w u,1135222566715441152,2020-05-07 02:25:53,,city,"Kemayoran, Indonesia",Indonesia
21,-46.5955455,-23.682803,nathalia ,1135222586802155526,2020-02-17 22:56:41,"Consolao, So Paulo",city,"Sao Paulo, Brazil",Brazil
21,-43.441578,-22.911421500000003,Marcos.,1135222675419336704,2020-02-14 19:40:07,,city,"Rio de Janeiro, Brasil",Brasil
33100,-80.1778765,26.270692500000006,Lanna Iapichino,1135222696508297216,2020-04-12 03:53:55,Estados Unidos,city,"Coconut Creek, FL",United States
31140,-85.70772627,38.05902581,Shitz McGeee,1135222705060556801,2020-02-18 13:11:56,"Kentucky, USA",city,"Hillview, KY",United States
21060,-85.7385,37.571,Shitz McGeee,1135222705060556801,2020-04-18 20:23:46,"Kentucky, USA",city,"Hodgenville, KY",United States
31140,-85.7554,38.2525,Shitz McGeee,1135222705060556801,2020-04-19 23:12:36,"Kentucky, USA",city,"Louisville, KY",United States
21060,-85.7385,37.571,Shitz McGeee,1135222705060556801,2020-04-25 21:27:16,"Kentucky, USA",city,"Hodgenville, KY",United States
31140,-85.75785,38.10419,Shitz McGeee,1135222705060556801,2020-04-26 02:35:43,"Kentucky, USA",city,"Fairdale, KY",United States
21060,-85.7385,37.571,Shitz McGeee,1135222705060556801,2020-05-02 20:01:41,"Kentucky, USA",city,"Hodgenville, KY",United States
31140,-85.7554,38.2525,Shitz McGeee,1135222705060556801,2020-05-30 02:48:56,"Kentucky, USA",city,"Louisville, KY",United States
171,120.8839,14.3835,Keir,1135222778917838848,2020-03-13 12:39:17,Amaia skies sta mesa manila,city,"General Trias, Calabarzon",Republic of the Philippines
82,72.87424399999999,19.174139999999998,Avinash Jha,1135222842226642947,2020-04-14 19:18:15,Mumbai,city,"Mumbai, India",India
35620,-73.9685415,40.780709,Sad One,1135222907490185217,2020-02-20 19:53:14,"New York, NY",city,"Manhattan, NY",United States
21,-43.2995275,-22.829664,Carol,1135222960351039488,2020-05-05 20:50:28,+55 021,neighborhood,"Brs de Pina, Rio de Janeiro",Brasil
222,107.610289,-6.902479,jib,1135223119549935617,2020-03-20 22:00:52,,poi,BEERMART,Indonesia
24,-75.80014150000001,45.248791,Kavya A.,1135223228694245377,2020-02-23 19:41:30,Treaty 7 territory,city,"Ottawa, Ontario",Canada
24,-75.80014150000001,45.248791,Ess Cee,1135223285086482432,2020-04-07 04:46:51,,city,"Ottawa, Ontario",Canada
119,-89.62361100000003,20.941035,4OT_MQ_Rayonier_SSBU_6_7_dias_para_mi_cumpleaos,1135223536807743488,2020-02-14 03:27:54,"Mrida, Yucatn",city,"Mrida, Yucatn",Mxico
205,-1.8906405,52.493966500000006,Ian86,1135223553803137026,2020-03-24 22:23:12,"Birmingham, England",city,"Birmingham, England",United Kingdom
21,-54.261875,-20.8753275,gabe,1135223781776089089,2020-02-14 04:33:37,,city,"Campo Grande, Brasil",Brasil
193,100.3854645,13.7401425,GLOBAL SET THAILAND ONLINE,1135223793612234752,2020-04-26 08:08:08,,city,", ",
18580,-97.432425,27.737151,Metal Neck Gail,1135223871987179522,2020-04-17 22:09:38,"Texas, USA",city,"Corpus Christi, TX",United States
222,112.73743950000001,-7.273555,Yudha Karyanto,1135224023053262848,2020-03-16 07:22:32,,city,"Tegalsari, Indonesia",Indonesia
200,29.213844,40.928447,barix,1135224039105073153,2020-02-18 11:03:55,"Yldrm, stanbul",poi,Medellin Colombia,Turkey
151,13.2716195,10.268825,Francis S. Zirra,1135224085099831297,2020-06-02 07:05:00,,city,"Mubi, Nigeria",Nigeria
21,-48.672716,-27.582547,G3 ,1135224157887746048,2020-02-15 01:13:40,"Pelotas, Brasil",city,"So Jos, Brasil",Brasil
21,-46.8823285,-23.5110285,@RealMagnata,1135224272392249345,2020-03-23 23:37:55,"Sao Paulo, Brazil",city,"Barueri, Brasil",Brazil
82,77.095086,28.638489500000002,Rajesh Mishra,1135224367498088452,2020-02-14 14:26:19,,city,"New Delhi, India",India
21,-44.027322,-19.885664499999997,Dj Lavnia,1135224503896825858,2020-03-16 16:11:42,"Compton, CA",neighborhood,"Ressaca, Contagem",Brasil
222,110.4039085,-7.0105794999999995,calon imam,1135224565477494785,2020-02-15 00:08:15,,city,"Gajahmungkur, Indonesia",Indonesia
222,110.4265505,-7.068175,dianah pake h,1135224578819538951,2020-02-14 02:25:40,"Semarang, Jawa Tengah",city,"Banyumanik, Indonesia",Indonesia
171,121.90582749999999,13.984029999999999, ,1135224659429822464,2020-03-13 11:10:09,,city,"Atimonan, Calabarzon",Republic of the Philippines
38,-74.849933,10.958072999999999,Miguel Angel Henao,113522468,2020-02-26 13:37:41,"Barranquilla, Colombia",city,"Barranquilla, Colombia",Colombia
51,-6.162674,53.406068000000005,Eva,1135224739524423682,2020-03-02 20:51:33,"Dublin City, Ireland",poi,Trinity Donaghmede FC,Ireland
200,28.972738,41.082035999999995,Tue,1135224755542470656,2020-03-03 14:37:33,,poi,Kathane Meydan,Turkey
35620,-74.3150235,40.38456100000001,CodeNinjasOldBridge,1135224785443741697,2020-02-14 19:39:12,"3873 Route 516 East
Old Bridge, NJ 08857",city,"Old Bridge, NJ",United States
30,121.41561999999999,31.223599,Andy,1135224955736641537,2020-05-05 10:42:52,Shanghai,poi,Zhongshan Park (),People's Republic of China
30,117.305135,31.877948999999997,,1135224968482922496,2020-02-19 15:09:43,Fujian,poi,Hilton Hefei | ,People's Republic of China
85,9.982460000000001,44.81573,Martindave101,1135225052,2020-03-02 18:25:47,,city,"Salsomaggiore Terme, Emilia Romagna",Italia
85,11.244817,43.7807085,amanda burton,1135225124,2020-02-14 21:18:40,,city,"Florence, Tuscany",Italy
47900,-77.10199899999999,38.8808445,amanda burton,1135225124,2020-03-07 23:21:13,,city,"Arlington, VA",United States
40060,-77.49317049999998,37.529883,amanda burton,1135225124,2020-03-21 15:41:20,,city,"Richmond, VA",United States
47900,-77.10199899999999,38.8808445,amanda burton,1135225124,2020-03-23 06:41:54,,city,"Arlington, VA",United States
40060,-77.49317049999998,37.529883,amanda burton,1135225124,2020-05-16 21:08:07,,city,"Richmond, VA",United States
47900,-77.10199899999999,38.8808445,amanda burton,1135225124,2020-05-19 16:44:29,,city,"Arlington, VA",United States
21,-52.4698255,-25.7941115,Delmar Otvio Veis,1135225182971469825,2020-03-12 19:11:03,,city,"Chopinzinho, Brasil",Brasil
82,77.53357700000002,13.301598,Santhosh J,1135225403751014402,2020-02-27 17:37:10,,city,"Dod Ballapur, India",India
82,80.375587,22.6073995,Priyesh Namdeo Prince,1135225507170021376,2020-05-14 11:31:34,"Indore, India",city,"Mandla, India",India
21,-59.9803255,-2.572425,wesley,1135225595166679041,2020-02-26 05:35:00,"Manaus, Brasil",city,"Manaus, Brasil",Brasil
82,76.84448,32.038035,Dikshant Thakur,1135225647440117760,2020-05-29 12:02:37,"Himachal Pradesh, India",poi,Barot,India
91,36.863620000000004,-1.2748635,sk_macharia @kaninikeegah,1135225699835535361,2020-03-14 09:24:38,,city,"Nairobi, Kenya",Kenya
222,107.6312925,-6.8864115,cra,1135225738183958528,2020-03-16 06:44:37,"Portland, OR",city,"Cibeunying Kaler, Indonesia",Indonesia
222,108.30722250000001,-6.4517305,hery 99/01,1135225886175719424,2020-04-23 20:56:45,,city,"Jatibarang, Indonesia",Indonesia
200,29.0052225,41.0213205,rrabia,1135225902609174528,2020-02-15 10:56:39,,city,"stanbul, Trkiye",Trkiye
82,76.6,27.5667,Mukesh Shekhawat,113522597,2020-06-06 18:32:50,India,city,"Alwar, India",India
21,-49.1687365,-25.3136775,Emli Quirino,1135226040123580416,2020-03-21 16:55:05,,city,"Colombo, Brasil",Brasil
47900,-77.436051,38.829363,.,1135226652324179969,2020-02-29 01:39:38,,poi,Cinemark,United States
42660,-122.124,47.6694,Ryan Benzel,1135226948,2020-04-02 21:17:51,,city,"Redmond, WA",United States
82,77.84222550000001,20.9816435,Tejas Nandurkar,1135227208027529216,2020-05-25 12:51:06,India,city,"Amravati, India",India
21,-51.9274535,-29.215432,Gabi Nascimento,1135227643081764864,2020-02-20 22:43:54,RS,city,"Encantado, Brasil",Brasil
87,42.949571,36.861453999999995,Suhaib AL.Kurdy,1135227806,2020-02-27 18:43:52,Iraq,poi,Duhok,Iraq
47900,-77.0143985,38.898603,Larissa Santos Silverman,1135227866,2020-03-07 21:17:58,"Maryland, USA",city,"Washington, DC",United States
117,58.4641695,23.549159000000003,suresh kumar,1135227912460935172,2020-06-01 05:54:36,kerala,city,"Muscat, Oman",Oman
200,37.387009000000006,37.062044,Zeynep,1135228058,2020-04-22 22:00:27,,city,"Gaziantep, Trkiye",Trkiye
24,-122.74415345,49.26350105,Drupti Glowinkowski,1135228178,2020-03-09 03:46:47,Vancouver,city,"Port Coquitlam, British Columbia",Canada
41860,-122.43597849999999,37.7706565,RAZ AUTRY,1135228308860297216,2020-05-09 14:54:16,"South San Francisco, CA",city,"San Francisco, CA",United States
21,-43.240912,-22.906148,Bandida m ,1135228405849436160,2020-02-21 03:01:58,Nos Seus sonhos // ,poi,Morro da Mangueira,Brasil
16980,-88.040002,41.791584,Becoming A Golf Guy,1135228442591543300,2020-02-22 19:33:09,,city,"Downers Grove, IL",United States
175,36.459303000000006,26.246490500000004,Gh,1135228555955232768,2020-04-10 13:09:02,  ,city,"Al Wajh, Kingdom of Saudi Arabia",Kingdom of Saudi Arabia
21,-46.5955455,-23.682803,BruCapelli,1135229030519754760,2020-05-31 14:14:03,,city,"Sao Paulo, Brazil",Brazil
222,106.85680900000001,-6.225842,Rafi,1135229031526293504,2020-02-27 12:17:42,"Bandar Lampung, Lampung",city,"Tebet, Indonesia",Indonesia
178,25.5792625,-33.8065285,Litha Matshebelele,1135229043866050572,2020-05-10 04:37:01,,city,"Motherwell, South Africa",South Africa
21,-46.2900965,-23.86332,sandra,1135229197616635904,2020-04-13 10:57:34,,city,"Santos, Brasil",Brazil
21,-62.011802,-9.190269,Dani,1135229755001888769,2020-04-20 05:20:10,"Machadinho d'Oeste, Brasil",city,"Machadinho d'Oeste, Brasil",Brasil
222,106.5208465,-6.250499,,1135229877123072000,2020-02-14 16:03:07,Oklahomie,city,"Cikupa, Indonesia",Indonesia
222,112.737471,-7.294249000000001,Panda Jantan,1135230051702661120,2020-06-06 04:29:31,"Kota Surabaya, Jawa Timur",city,"Wonokromo, Indonesia",Indonesia
128,4.3581900000000005,51.2605565,Gzde Bekta,1135230053787344896,2020-02-17 19:17:11,,city,"Antwerp, Belgium",Belgium
200,29.0052225,41.0213205,Gzde Bekta,1135230053787344896,2020-04-12 22:10:05,,city,"stanbul, Trkiye",Turkey
31080,-118.4119065,34.0207895,xxMVMxx,1135230206682120192,2020-03-02 17:44:39,,city,"Los Angeles, CA",United States
21,-49.171597999999996,-26.727591500000006,_Mayzinha,1135230241541099521,2020-02-14 00:19:09,"Pomerode, Brasil",city,"Pomerode, Brasil",Brasil
175,40.4908105,21.38543, ,1135230400543019008,2020-03-08 18:54:33,,city,",   ",  
222,106.0483515,-6.0416655,tup,1135230443744182274,2020-04-18 16:25:06,"Cilegon, Indonesia",city,"Cilegon, Indonesia",Indonesia
48,-69.9029415,18.613332,Marino Navarro,1135230697638191104,2020-03-02 21:24:31,,city,"Santo Domingo Norte, Dominican Republic",Dominican Republic
21,-43.441578,-22.911421500000003,Hell Da Paz,1135230720849383426,2020-02-14 11:56:28,rj,city,"Rio de Janeiro, Brasil",Brasil
21,-43.196063099999996,-22.5128003,Bianca Reis,1135230746346565633,2020-04-18 01:58:23,,city,"Petrpolis, Brasil",Brasil
82,81.547832,20.705759,Vikas Kharoni,1135230812448628736,2020-03-27 15:22:29,"dhamtari,chhattisgarh,India",city,"Dhamtari, India",India
96,47.993584999999996,29.369654999999998,,1135230832082337792,2020-02-16 15:26:14,,poi,Al Shaheed Park |  ,Kuwait
8,-58.442643,-34.604315,El Vasquito Entrerriano,1135230856770072578,2020-03-20 00:17:56,,city,"Ciudad Autnoma de Buenos Aires, Argentina",Argentina
21,-50.693466,0.5866785,jack,1135230916140371968,2020-02-17 13:37:19,Macap,city,"Macap, Brasil",Brasil
222,106.800385,-6.291621,BIR,1135231014589030400,2020-03-01 08:28:33,,poi,Bermvda,Indonesia
37100,-119.2289915,34.289689499999994,mary,1135231025594769409,2020-02-18 05:22:13,,city,"Ventura, CA",United States
42200,-119.701636,34.429885,mary,1135231025594769409,2020-02-28 03:52:08,,city,"Santa Barbara, CA",United States
37100,-119.2289915,34.289689499999994,mary,1135231025594769409,2020-03-02 03:37:13,,city,"Ventura, CA",United States
26900,-85.672627,40.10539850000001,Troy Marling,1135231286082248704,2020-02-14 00:41:43,United States,city,"Anderson, IN",United States
38,-73.13269700000002,7.144792999999999,Nicolas Gelvez,1135231399,2020-02-14 07:54:07,,city,"Bucaramanga, Colombia",Colombia
193,100.49380699999999,13.6478465, ,1135231604601761792,2020-02-15 20:50:36,", ",city," 2, ",
193,99.5000735,14.053476500000002,OhNN,1135231621722886144,2020-02-16 03:18:25,,city,", ",
175,46.0327485,28.350082500000003,,1135231641272692737,2020-02-21 08:55:01, ,city,"Hafr Al Batin, Kingdom of Saudi Arabia",Kingdom of Saudi Arabia
88,135.81473300000002,34.972445,En Marche,1135231686889709573,2020-04-10 16:01:18, ,poi, (Nagitsuji Sta.) (T05),Japan
24,-79.27256949999999,43.629311,Miles Blended,113523177,2020-02-29 00:10:24,,city,"Toronto, Ontario",Canada
175,39.16444854,21.7632057,  ,1135231812,2020-02-29 19:01:47,--,city,",   ",  
171,121.0311415,14.7108935,Mil,1135232202487111680,2020-03-01 12:55:30,,city,"Caloocan City, National Capital Region",Republic of the Philippines
119,-100.772211,20.5226915,JuanjoC,113523227,2020-02-15 12:39:50,"Quertaro, Quertaro Arteaga",city,"Celaya, Guanajuato",Mxico
71,12.8917785,50.82301800000001,Gedenksttte Daniel H.,1135232482134171649,2020-02-15 02:30:21,,city,"Chemnitz, Deutschland",Deutschland
175,38.1911485,24.105024,Adel,1135232706,2020-02-16 11:48:51,,city,",   ",  
186,-16.4406845,28.4368055,ivyna Paris,1135232736,2020-03-07 00:13:02,"Puerto de la Cruz, Tenerife",city,"La Matanza de Acentejo, Espaa",Espaa
171,121.05466799999999,14.558385999999999,Maki ,1135232895293874177,2020-02-21 13:06:09,,poi,The Island PH,
21900,-80.131556,39.477610999999996,Michael Worth,1135232912708780033,2020-02-18 03:50:25,,poi,"faimont,wv",United States
12060,-84.413662,33.78131,Greg Barrett,1135233035715141634,2020-02-15 02:02:23,,poi,The Painted Duck,United States
222,116.116639,-8.509681500000001,KLX MERAH,1135233291651432448,2020-02-14 01:18:12,,city,"Gunungsari, Indonesia",Indonesia
40060,-77.374808,37.5809385,Silvanus Thrower,1135233373599916032,2020-03-15 23:09:40,,city,"East Highland Park, VA",United States
200,31.798249,41.453231,F G B,1135233437894397953,2020-02-21 12:31:45,"Dilaver, Zonguldak",city,"Zonguldak, Trkiye",Turkey
82,77.5584485,12.9231145,trueoll rama- ,1135233496778100736,2020-02-14 18:15:34,https://www.facebook.com/Chith,city,"Bengaluru South, India",India
65,0.3357,46.583870000000005,JODECI 5th MEMBER,1135233751,2020-03-20 17:17:13,France,city,"Poitiers, France",France
41740,-117.10498899999999,32.810012,EDDE $.,113523376,2020-02-16 00:05:00,San Diego ,city,"San Diego, CA",United States
16740,-80.894487,35.476402,Halsey Without Context,1135233775816888327,2020-02-24 21:21:48,,city,"Cornelius, NC",United States
21,-49.958945,-22.186851,Roh Stigmainner child,1135233851461197824,2020-03-08 13:12:50,Marlia sp,city,"Marlia, Brasil",Brasil
31080,-117.77291699999999,34.0654505,hails,1135233934122315776,2020-02-16 18:54:38,,city,"Pomona, CA",United States
41860,-121.94157949999999,37.758225,hails,1135233934122315776,2020-03-16 14:38:21,,city,"San Ramon, CA",United States
222,110.28596999999999,-7.575480000000001,Han,113523415,2020-02-14 10:36:19,"Malang, Jawa Timur",city,"Muntilan, Indonesia",Indonesia
82,72.87424399999999,19.174139999999998,Chowkidar VP Singh,1135234190302040064,2020-03-28 12:07:59,,city,"Mumbai, India",India
16820,-78.487448,38.0400365,Chris Chang-Bacon,113523424,2020-02-21 02:55:49,"Charlottesville, VA",city,"Charlottesville, VA",United States
222,100.351052,-0.936157,bacot lu,1135234255104032768,2020-05-29 09:39:40,#dirumahaja,poi,Pantai Padang,Indonesia
200,27.006511,38.4079305,zmir Hazal,1135234376319623168,2020-02-14 13:24:38,"Gaziemir, zmir",city,"zmir, Trkiye",Trkiye
27060,-76.4811945,42.5087205,The Neil Sen Report,1135234442904121349,2020-02-14 14:14:46,,city,"Lansing, NY",United States
35620,-74.37799799999998,40.5387865,The Neil Sen Report,1135234442904121349,2020-02-22 21:12:18,,city,"Edison, NJ",United States
27060,-76.4811945,42.5087205,The Neil Sen Report,1135234442904121349,2020-02-29 04:58:10,,city,"Lansing, NY",United States
65,2.5309925,48.937647,Fred Guiock,1135234496,2020-06-04 07:48:13,,city,"Sevran, France",France
205,-1.8906405,52.493966500000006,George Fowler,1135234514932908032,2020-03-06 07:44:23,,city,"Birmingham, England",United Kingdom
47260,-76.069946,36.8025415,Jamarei Ashby-Phan,1135234548088868866,2020-03-17 16:28:01,"Virginia Beach, VA",city,"Virginia Beach, VA",United States
8,-60.276114,-38.376922,Susy,1135235071584157702,2020-03-28 01:14:01,,city,"Tres Arroyos, Argentina",Argentina
222,110.20653600000001,-7.1039795,ta,1135235144153874432,2020-03-08 04:45:28,"Singorojo, Indonesia",city,"Singorojo, Indonesia",Indonesia
21,-34.8726385,-8.001542500000001,lorelove '  ,1135235197245542400,2020-02-17 04:09:44,"Manaus, Brasil",city,"Olinda, Brasil",Brasil
21,-51.222871000000005,-29.9119,Tom,1135235487092879361,2020-02-14 23:34:06,na minha cama,poi,Porto Belo,Brasil
24,-80.240128,43.534199,Royal City Brewing,1135235695,2020-02-21 21:04:14,"199 Victoria Road S, Guelph",city,"Guelph, Ontario",Canada
38,-74.87066746,11.02277545,Raul Comas ,113523575,2020-05-31 13:22:49,,city,"Barranquilla, Colombia",Colombia
33540,-114.03115,46.8791,kuhlawknee,1135235846,2020-02-15 08:11:32,thicka den mo$t ,city,"Missoula, MT",United States
19820,-83.21355700000002,42.314732,Trooper Edwards ,1135235898772262913,2020-02-25 04:21:53,"Miami, FL",city,"Dearborn, MI",United States
205,-0.1091815,51.5469265,Lil,1135235915012542470,2020-02-14 13:24:11,"London, England",city,"Islington, London",United Kingdom
31080,-118.540703,34.2006685,ShelbyLanducci,1135236522737774593,2020-02-19 04:01:54,,neighborhood,"Reseda, Los Angeles",United States
37100,-118.731399,34.2673105,ShelbyLanducci,1135236522737774593,2020-02-21 04:29:32,,city,"Simi Valley, CA",United States
31080,-118.4119065,34.0207895,ShelbyLanducci,1135236522737774593,2020-03-05 17:12:47,,city,"Los Angeles, CA",United States
37100,-118.731399,34.2673105,ShelbyLanducci,1135236522737774593,2020-03-19 02:49:31,,city,"Simi Valley, CA",United States
128,4.3743365,51.0505105,34,1135236575896453121,2020-05-09 16:03:26,,city,"Willebroek, Belgi",Belgium
88,139.73951449999998,35.56689400000001,,113523669,2020-04-02 03:20:36,,city, ,
222,100.6975885,0.113508,DaGem,1135237332058030080,2020-04-17 12:33:18,"Kota Padang, Sumatera Barat",city,"Pangkalan Koto Baru, Indonesia",Indonesia
211,-66.39528299999999,9.1146415,Jose Sanchez Cardenas,1135237541945389059,2020-05-30 06:05:06,Venezuela,city,"Las Mercedes, Venezuela",Venezuela
34820,-78.823789,33.73687,John Carter,1135237634,2020-04-03 16:53:56,"Myrtle Beach, SC",poi,67th Ave Beach Access,United States
193,101.212227,12.979436,,1135237769767211010,2020-03-09 15:34:29,"., .",poi,Tesco Lotus Super Market (),
151,7.0778205000000005,6.222540499999999,Sermon on the Nation,1135237885454639107,2020-03-13 18:02:27,,city,"Awka, Nigeria",Nigeria
82,82.85996850000002,22.3922755,Vishal Yadav,1135237957600722944,2020-02-23 13:22:47,"Chhattisgarh, India",city,"Korba, India",India
88,135.517198,34.656951,v1dar97,1135238009266135041,2020-03-17 20:42:14,CSC,poi,,Japan
151,7.358822,9.279661,set awon enugbe geng,1135238457448718337,2020-02-18 12:16:03,Not where i want,poi,Nigerian Law School,Nigeria
19100,-96.8637945,32.604153000000004,Rashad London,1135238654690025474,2020-02-22 04:30:07,"Dallas, TX",city,"Desoto, TX",United States
26420,-95.9901755,30.083158,Rashad London,1135238654690025474,2020-04-23 04:39:31,"Dallas, TX",city,"Prairie View, TX",United States
19100,-96.7617535,32.819858499999995,Rashad London,1135238654690025474,2020-04-27 02:04:58,"Dallas, TX",city,"Dallas, TX",United States
30980,-94.731341,32.503280000000004,Rashad London,1135238654690025474,2020-05-01 08:22:25,"Dallas, TX",city,"Longview, TX",United States
19100,-96.6021425,32.7749375,Rashad London,1135238654690025474,2020-05-03 07:19:17,"Dallas, TX",city,"Mesquite, TX",United States
30980,-94.731341,32.503280000000004,Rashad London,1135238654690025474,2020-05-05 19:16:20,"Dallas, TX",city,"Longview, TX",United States
19100,-96.7617535,32.819858499999995,Rashad London,1135238654690025474,2020-05-08 19:14:17,"Dallas, TX",city,"Dallas, TX",United States
26420,-95.4464865,29.838495,Rashad London,1135238654690025474,2020-05-24 07:38:04,"Dallas, TX",city,"Houston, TX",United States
19100,-96.8320095,32.959787500000004,Rashad London,1135238654690025474,2020-05-25 02:19:47,"Dallas, TX",city,"Addison, TX",United States
38,-75.434214,9.315605499999998, ,1135238746763399168,2020-02-16 06:10:01,"Sincelejo, Colombia",city,"Sincelejo, Colombia",Colombia
171,121.05401599999999,14.582654999999999,Ivan ,1135238925453103104,2020-04-18 14:03:56,"Mandaluyong City, National Cap",poi,St. Augustine School of Nursing,Republic of the Philippines
120,101.8550325,2.820527,Muhammad Syawal,1135239146555887616,2020-02-21 10:20:16,"Negri Sembilan, Malaysia",city,"Setul, Negeri Sembilan",Malaysia
21,-44.1860105,-4.1661765,NORDESTE ONLINE,1135239173525426176,2020-04-20 03:38:41,"Teresina, Brasil",city,"Coroat, Brasil",Brasil
80,19.129828,47.4812305,Angel of Calum,1135239614418042881,2020-05-12 01:28:38,Hungary,city,"Budapest, Hungary",Hungary
65,5.360165,43.29236543, . .,1135239615101620224,2020-05-28 12:02:46,somewhere only we know,city,"Marseille, France",France
82,78.70952249999999,29.918790500000004,Pradhumn Maheshwari,1135239753459163136,2020-03-23 14:40:40,"Satpuli, India",city,"Satpuli, India",India
222,104.99524299999999,-5.198021499999999,santi rukmana16,1135239795561472001,2020-04-16 08:03:55,"Bandar Lampung, Lampung",city,"Kalirejo, Indonesia",Indonesia
12580,-76.61399999999999,39.2944,Carsoshine Auto LLC,1135240014877605889,2020-04-14 11:05:48,"Baltimore, MD",city,"Baltimore, MD",United States
16740,-80.8467855,35.209059,Neyens Brian Mfuni-Molesanga,1135240507221823488,2020-02-14 18:08:59,"Charlotte, NC",city,"Charlotte, NC",United States
23500,-81.6594095,35.103567,Neyens Brian Mfuni-Molesanga,1135240507221823488,2020-05-19 15:20:10,"Charlotte, NC",city,"Gaffney, SC",United States
12060,-84.43310600000001,33.7671945,Neyens Brian Mfuni-Molesanga,1135240507221823488,2020-05-19 19:19:35,"Charlotte, NC",city,"Atlanta, GA",United States
24860,-82.3422685,34.7959415,Neyens Brian Mfuni-Molesanga,1135240507221823488,2020-05-19 22:33:10,"Charlotte, NC",city,"Greenville, SC",United States
16740,-80.8467855,35.209059,Neyens Brian Mfuni-Molesanga,1135240507221823488,2020-05-20 00:33:40,"Charlotte, NC",city,"Charlotte, NC",United States
12060,-84.43310600000001,33.7671945,Neyens Brian Mfuni-Molesanga,1135240507221823488,2020-05-23 20:47:27,"Charlotte, NC",city,"Atlanta, GA",United States
16740,-80.8467855,35.209059,Neyens Brian Mfuni-Molesanga,1135240507221823488,2020-06-10 23:18:49,"Charlotte, NC",city,"Charlotte, NC",United States
222,106.876179,-6.2757679999999985,Rizky rinaldy,113524077,2020-03-18 12:20:30,Jakarta,city,"Kramat Jati, Indonesia",Indonesia
45180,-86.3134785,33.202022,Archie Lindley,1135240882993664002,2020-04-19 00:30:08,,city,"Oak Grove, AL",United States
13820,-86.79391700000001,33.5422375,Archie Lindley,1135240882993664002,2020-05-13 11:42:15,,city,"Birmingham, AL",United States
24,-81.2487865,42.9488405,Jeff Watson,113524122,2020-03-03 23:55:58,London Ontario,city,"London, Ontario",Canada
96,48.005816499999995,29.3734335,Nadal Kooora,1135241429549293568,2020-06-02 12:16:33,,city," ,  ",Kowet
159,-54.631997999999996,-25.402631500000002,Nacho Gonzlez,1135241737759285248,2020-02-20 17:52:42,,city,"Hernandarias, Paraguay",Paraguay
200,28.668189,41.076457,KaanSwing,1135241784924213249,2020-02-20 20:07:23,"stanbul, Trkiye",poi,Baheehir Boazky Konak Evler Sitesi,Trkiye
88,139.293698,35.408291999999996,246,1135241888464695296,2020-03-07 18:11:38, ,city, ,
8,-67.52669,-46.4437435,,1135241899089059840,2020-04-07 16:07:31,Argentina ,city,"Caleta Olivia, Argentina",Argentina
87,43.792609000000006,33.355812,  ',1135241941866749957,2020-03-08 17:51:52,,poi,Fallujah - Aldhubbat,Iraq
21,-46.73518631,-23.60790749,Agno,11352422,2020-02-14 03:49:57,So Paulo,city,"So Paulo, Brasil",Brasil
119,-103.40758100000001,20.489709,yhlqmdlg ,1135242317210816513,2020-06-06 08:59:03,Faraway,city,"Tlajomulco de Ziga, Jalisco",Mexico
186,-3.68333,40.4,Dieguito Amor,113524242,2020-02-14 16:44:27,Madrid,city,"Madrid, Espaa",Espaa
82,80.77145300000001,27.634759499999998,Anshuman Pathak,1135242603513835520,2020-02-14 14:19:54,"Lucknow, India",city,"Sitapur, India",India
189,12.7188836,56.0413427,Solankeisthegoat,1135243340725850115,2020-03-31 10:32:11,Solanke's house,city,"Helsingborg, Sverige",Sverige
171,120.97565549999999,14.712613000000001,`,1135243487387930624,2020-04-08 12:27:10,"Valenzuela City, National Capi",city,"Valenzuela City, National Capital Region",Republic of the Philippines
14460,-71.0887125,42.3136695,Mr.Tail Beast,1135243519075991552,2020-04-23 22:41:43,"Boston, MA",city,"Boston, MA",United States
161,67.19987900000001,24.922601999999998,  ,1135243654690476032,2020-02-16 21:42:18,,city,"Malir Cantonment, Pakistan",Pakistan
82,75.7134205,25.2792095,MUKESH CLASSES,1135243728954613760,2020-02-17 11:35:24,"Bundi, India",city,"Bundi, India",India
65,0.236416,42.762944,atyl2,1135243775486418944,2020-02-28 15:12:30, she | her ,city,"Saint-Lary-Soulan, France",France
171,121.08234499999999,14.5833065,I V A N,1135243791164559360,2020-03-17 19:46:31,"Lungsod ng Makati, Pambansang ",city,"Pasig City, National Capital Region",Republic of the Philippines
26900,-86.1429225,39.7795625,Jojo Carver,1135243870965501958,2020-03-10 22:46:54,,city,"Indianapolis, IN",United States
21,-53.743945,-31.586551500000002,Luixinha,1135243980818583560,2020-02-17 02:02:51,"Bag, Brasil",city,"Candiota, Brasil",Brasil
222,98.6667,3.58333,Kwe Sutrisno,113524424,2020-02-26 05:43:29,Medan,city,"Medan Polonia, Indonesia",Indonesia
186,-3.697657,40.41433600000001,Jaime RHR,1135244350705848320,2020-06-03 19:19:36,"Madrid, Espaa",neighborhood,"Cortes, Madrid",Espaa
200,29.0611,40.1917,Aye Kazdal,1135244613206323207,2020-02-17 18:09:19,,city,"Bursa, Trkiye",Trkiye
120,102.18185799999999,6.0285674999999985, ,1135244771247525888,2020-03-26 05:00:57,,city,"Salor, Kelantan",Malaysia
82,75.210937,17.047893,Akshay Mohite Jath,1135244835751903233,2020-02-19 12:13:58,India,poi,Jath,India
69,-1.9930880000000002,5.290973,Kojo Tombrown,1135244982137294849,2020-04-25 20:02:32,"Sekondi Takoradi, Ghana",city,"Tarkwa, Ghana",Ghana
222,106.90412099999999,-6.162418,Terlanjur Manis,1135245279366565888,2020-03-18 06:13:34,"DKI Jakarta, Indonesia",poi,"madrid,spanyol",Indonesia
38,-75.560285,5.056934,,1135245284148207617,2020-02-23 15:57:23,Colombia,city,"Manizales, Colombia",Colombia
175,39.2541285,21.5857105,tungsten,1135245317094477824,2020-02-14 11:20:52,Jeddah,city,"Jeddah, Kingdom of Saudi Arabia",Kingdom of Saudi Arabia
21,-46.5955455,-23.682803,sarita,1135245345611485186,2020-02-16 02:00:08,"So Paulo, Brasil",city,"So Paulo, Brasil",Brasil
82,79.96387150000002,12.963486999999999,Natarajan,1135245364120809473,2020-05-29 07:13:02,Chennai India,city,"Sriperumbudur, India",India
82,77.498726,28.545556,B S Ranjan,1135245419552755712,2020-03-12 12:56:24,"Noida, India",city,"Noida, India",India
200,29.0052225,41.0213205,enay Cantrk,1135245615246520320,2020-03-09 19:15:33,,city,"stanbul, Trkiye",Trkiye
33,-71.51564599999999,-33.0263575,Naty,1135246250159349760,2020-02-25 02:41:03,"Via del Mar, Chile",city,"Via del Mar, Chile",Chile
96,47.6582825,29.3427065,abobadr,1135246347479728128,2020-05-30 04:17:59,,city,"Al Waha, Kuwait",Kuwait
24340,-85.6411415,42.9564115,Shabo_Whita,113524644,2020-03-02 22:11:55,OOOOOOOOOO,city,"Grand Rapids, MI",United States
193,100.53245600000001,13.744506,.,1135246465545097217,2020-06-06 06:47:41,,poi,Matchbox,Thailand
21,-34.902795999999995,-7.7464095,Carol Campos,1135246610877833216,2020-03-02 12:44:36,,city,"Itapissuma, Brasil",Brasil
205,-3.3644559999999997,51.637506,Chloe James,1135247086725881857,2020-02-23 13:58:27,,city,"Ynysybwl, Wales",United Kingdom
8,-58.748464500000004,-34.7028055,Laura Lorena Lavecchia,1135247097949806592,2020-02-14 16:39:14,"Merlo, Argentina",city,"Merlo, Argentina",Argentina
21,-43.441578,-22.911421500000003,Thaylaine Arajo,1135247139544731648,2020-02-14 08:44:20,Jamaica,city,"Rio de Janeiro, Brasil",Brasil
193,100.494,13.7522,WeSpeak English,1135247210701045761,2020-02-22 00:23:05,Worldwide,city,"Phra Borom Maha Ratchawang, Thailand",Thailand
82,76.95842950000001,30.0793515,Rahul Sharma,1135247558035595268,2020-04-04 04:09:13,,city,"Thanesar, India",India
205,-1.0853245,53.96620649999999,Chris ,1135247707222790144,2020-02-14 01:41:08,York/Norfolk,city,"York, England",United Kingdom
82,78.160087,26.0633235,Harshit Goyal,1135247729683156992,2020-05-30 10:37:40,"Bhopal, India",city,"Gwalior, India",India
222,106.808194,-6.3944565,casaaa,1135247794426470400,2020-02-26 06:30:12,"DKI Jakarta, Indonesia",city,"Pancoran Mas, Indonesia",Indonesia
222,111.902904,-7.158813499999999,Muhammad Imaduddin,1135247889658142720,2020-02-16 16:30:51,"Bojonegoro, Indonesia",city,"Bojonegoro, Indonesia",Indonesia
205,0.82763,51.888605,Sarah Ellice,113524799,2020-04-06 18:01:29,Colchester,city,"Eight Ash Green, England",United Kingdom
21,-56.253898,-15.558641,fa fa,1135248020453412864,2020-03-02 03:10:26,"Vrzea Grande, Brasil",city,"Vrzea Grande, Brasil",Brasil
24,-79.27256949999999,43.629311,Josh,1135248140,2020-03-05 01:15:20,,city,"Toronto, Ontario",Canada
31080,-118.4119065,34.0207895,Jdam87,1135248280000974849,2020-03-12 01:47:07,,city,"Los Angeles, CA",United States
82,88.352242,22.6127055,Manash@1996,1135248364511956992,2020-04-29 08:11:30,"Kolkata, India",city,"Kolkata, India",India
205,-0.278464,51.390063,Mindfulpersonaltraining,1135248530103291909,2020-02-20 07:05:35,"Teddington, England",city,"Kingston upon Thames, London",United Kingdom
200,29.0052225,41.0213205,Hasan tartar,1135248740,2020-04-02 10:19:55,,city,"stanbul, Trkiye",Trkiye
200,29.02518662,40.98691806,Dervian Turap,1135248991,2020-05-09 18:17:14,"Caddebostan, Kadky",city,"stanbul, Trkiye",Trkiye
119,-107.39,24.7994,Luis Diaz Felix,113524909,2020-05-04 00:24:36,"Culiacan, Sinaloa. Mexico",city,"Culiacn, Sinaloa",Mxico
205,0.5301245000000001,51.8593815,ray mayers,1135249141,2020-03-18 13:36:18,,city,"Great Notley, East",United Kingdom
82,70.78873899999998,21.931253,Shivangi Sanghavi,1135249225342754816,2020-05-12 07:15:29,,city,"Gondal, India",India
120,101.9170025,2.679944,,1135249415877189632,2020-03-18 14:35:16,"Johore, Malaysia",city,"Rasah, Negeri Sembilan",Malaysia
82,79.37363500000002,28.4060465,Adarsh Saxena,1135249428334465026,2020-05-25 17:00:09,,city,"Bareilly, India",India
11460,-83.7515025,42.178922,Duane Wilson,1135249466,2020-03-08 23:46:51,Saline MI,city,"Saline, MI",United States
200,32.8045985,39.7957375,Haluk BALLI,1135249631351386112,2020-04-02 18:02:40,,city,"Glba, Trkiye",Turkey
222,110.14766399999999,-7.364159,Amjad,1135249730714316801,2020-03-27 20:30:15,"Yogyakarta, Indonesia",city,"Tembarak, Indonesia",Indonesia
96,47.970046999999994,29.373696000000002,,1135249782350516224,2020-02-20 20:08:09,,poi,DOH!,Kuwait
82,72.87424399999999,19.174139999999998,Abdus Salam Laskar,1135249824255578112,2020-05-04 20:15:49,Mumbai Indians,city,"Mumbai, India",India
200,32.8183815,39.8889765,Elif Tuba Z,1135249886377627651,2020-02-20 18:42:27,,city,"Ankara, Trkiye",Trkiye
164,-9.159995,38.743614,Marco alaan,1135249919613255682,2020-03-08 21:14:51,,city,"Lisbonne, Portugal",Portugal
119,-103.4847745,20.790657000000003,Led Crdenas,113524996,2020-02-14 00:14:01,,city,"Zapopan, Jalisco",Mexico
29820,-115.13516499999999,36.060964500000004,Led Crdenas,113524996,2020-03-07 16:43:26,,city,"Paradise, NV",United States
119,-103.4847745,20.790657000000003,Led Crdenas,113524996,2020-03-09 14:46:03,,city,"Zapopan, Jalisco",Mexico
164,-9.397333,38.722466,Rosado,1135250099729252352,2020-05-04 12:36:51,"Cascais, Portugal",city,"Cascais, Portugal",Portugal
193,100.899186,12.688253999999999,Tch5955,1135250613657227264,2020-05-13 15:55:09,,poi,SKS Sweet Inn (  ),
65,4.8343545,43.882751500000005,Frdric (Photographe Professionnel),1135250695207161858,2020-04-02 11:05:50,"Avignon, France",city,"Chteaurenard, France",France
18580,-97.432425,27.737151,JaRod,1135251137475612672,2020-03-20 16:13:44,C.C. ,city,"Corpus Christi, TX",United States
51,-6.2357200000000015,53.494598,Gio ,113525172,2020-02-15 00:14:23,Hogwarts,city,"Fingal, Ireland",Irlanda
186,-3.7035075,40.4777945,Gio ,113525172,2020-03-07 17:34:32,Hogwarts,city,"Madrid, Espaa",Espaa
119,-104.8725575,21.626666,Gio ,113525172,2020-03-11 13:16:13,Hogwarts,city,"Tepic, Nayarit",Mxico
178,30.945940999999998,-29.740149,Kaybee,1135251840625516544,2020-04-05 07:42:45,"Bloemfontein, South Africa",city,"Ntuzuma, South Africa",South Africa
71,10.372761,51.6421875,Karina Mller KDKunststudio,1135252118980517888,2020-04-16 12:06:06,,city,"Herzberg am Harz, Deutschland",Alemania
82,78.80701350000002,18.388653,Thirmal Chennaveni,1135252219752660992,2020-05-23 18:24:48,,city,"Sircilla, India",India
26420,-94.64448399999999,29.467,elly,1135252314636378148,2020-06-02 03:24:25,in quarantine ,poi,Steve's Landing Restaurant,United States
222,102.6565745,-2.226857,Khairil Iril,1135252349398577152,2020-04-07 17:54:03,,city,"Sarolangun, Indonesia",Indonesia
21,-35.483284000000005,-6.710994,@Sgamer_345,1135252534132727814,2020-04-10 23:16:06,"Paraba, Brasil",city,"Belm, Brasil",Brasil
21,-51.968329,-23.4058225,maitezoller,1135252637128019969,2020-02-14 05:14:59,"Maring, Brasil",city,"Maring, Brasil",Brazil
71,8.636605500000002,50.1212355,maitezoller,1135252637128019969,2020-02-19 20:54:22,"Maring, Brasil",city,"Frankfurt on the Main, Germany",Germany
65,-0.611421,46.939336,,1135252698431971334,2020-02-27 14:12:41,,city,"Nueil-les-Aubiers, France",France
200,27.143028,38.395925,Batuhan Yaran,1135252741872345088,2020-04-01 08:20:34,,poi,deplasman,Trkiye
200,29.0052225,41.0213205,Blent Tamkafa,1135252944343982081,2020-04-10 08:50:02,,city,"stanbul, Trkiye",Turkey
82,81.547832,20.705759,Satyanarayan Tiwari,1135253183649918977,2020-04-20 10:32:07,"Rewa, India",city,"Dhamtari, India",India
205,-1.4480000000000002,52.842,Sam Magee,1135253302818594816,2020-02-16 12:53:19,,city,"Stanton by Bridge, England",United Kingdom
178,27.968098,-26.2761385,Lindani,1135253352542064640,2020-03-26 18:24:39,,city,"Johannesburg, South Africa",South Africa
31080,-117.67161100000001,33.6463475,Sir Cartier,1135253418270814208,2020-02-28 16:25:57,Antarctica,city,"Lake Forest, CA",United States
82,75.1520915,33.8651245,Ackeib_01,1135253530153873408,2020-03-31 12:41:19,,city,"Anantnag, Jammu And Kashmir",
96,47.940467,29.304325,,1135253726271348738,2020-02-17 18:18:22,,poi,L'ETO, 
21,-54.261875,-20.8753275,Marcus,1135253762451345408,2020-02-15 11:10:35,,city,"Campo Grande, Brasil",Brasil
151,3.3180660000000004,6.590611,Hh_Skuty,1135253827848953856,2020-02-14 18:55:18,"Lagos, Nigeria",city,"Ikeja, Nigeria",Nigeria
33460,-93.1056485,44.9415155,Maddy Hayes,1135253988,2020-02-24 00:23:17,,city,"St Paul, MN",United States
33100,-80.1386455,26.251895,Maddy Hayes,1135253988,2020-03-16 04:20:48,,city,"Pompano Beach, FL",United States
32140,-95.79197950000001,44.452403,Maddy Hayes,1135253988,2020-03-21 00:58:40,,city,"Marshall, MN",United States
119,-98.1542665,19.0322295,MDMAlover,113525402,2020-02-14 04:34:36,Mexico,city,"Puebla, Mxico",Mxico
82,85.4564775,25.271276,Vikrant Kumar,1135254105541304322,2020-03-28 18:05:16,"Noorsarai, India",city,"Noorsarai, India",India
205,-2.1270404999999997,57.16055600000001,FHIT,1135254212600901632,2020-04-21 06:22:37,"Aberdeen, Scotland",city,"Aberdeen, Scotland",United Kingdom
82,70.4879035,21.494273,   ,1135254280317808640,2020-03-22 09:47:10, ,city,"Junagad, India",India
222,109.669632,-6.916084,,1135254354,2020-06-06 10:33:17,,city,"Pekalongan Selatan, Indonesia",Indonesia
21,-46.606823,-23.598398,Dany Almeida,1135254397821366273,2020-02-29 00:42:44,"Bela Vista, Guarulhos",poi,Minha Goma,Brasil
21,-47.6695385,-24.865179,rayssa dias,1135254606957727744,2020-03-07 19:35:17,"Pariquera-Au, Brasil",city,"Ilha Comprida, Brasil",Brasil
119,-101.166961,25.0326315,Samir Garcia,1135255053017784322,2020-02-18 18:31:20,,city,"Saltillo, Coahuila de Zaragoza",Mxico
222,112.75828100000001,-7.2840905,nona,1135255133996982272,2020-02-14 04:18:51,Indonesia,city,"Gubeng, Indonesia",Indonesia
193,100.490728,13.6754525,Ggwp,1135255189387005952,2020-04-01 14:52:18,"Rat Burana, Bangkok",city,"Bang Pakok, Thailand",Thailand
200,29.0052225,41.0213205,isvdr,1135255327,2020-02-17 21:34:32,"stanbul, Trkiye",city,"stanbul, Trkiye",Trkiye
21,-54.45709599999999,-25.453901,Lucineide Paiva,1135255358027522053,2020-02-20 17:00:04,,city,"Foz do Iguau, Brasil",Brazil
65,2.4930375,48.7722845,Barreto Vitor,1135255449123590145,2020-03-29 14:27:41,,city,"Bonneuil-sur-Marne, France",France
85,12.490213,41.8673,Andrea Castellani,1135255465,2020-04-27 18:06:58,,poi,Circonvallazione Ostiense,Italia
33540,-114.03115,46.8791,SharmayneSmall/MacEwan,1135255509060149248,2020-02-15 22:31:40,"Missoula, MT",city,"Missoula, MT",United States
21,-51.1818955,-29.6529075,BABU CAMPEO,1135255565419065344,2020-04-12 16:56:51,,city,"Estncia Velha, Brasil",Brasil
32580,-98.152419,26.3475255,Michael,1135255672302575617,2020-05-02 04:14:09,"Texas, USA",city,"Edinburg, TX",United States
200,29.0052225,41.0213205,Nutrix,1135255827164610560,2020-03-11 07:52:01,,city,"stanbul, Trkiye",Trkiye
21,-54.30080150000001,-27.586753,kali t,1135256263980441607,2020-05-26 06:25:46,"Horizontina, Brasil",city,"Horizontina, Brasil",Brasil
82,73.03588549999999,19.0967305,Santosh Sathepatil,1135256291805343744,2020-05-01 06:44:37,,city,"Navi Mumbai, India",India
39300,-71.515665,41.828672999999995,Candysweet71,1135256425876393984,2020-05-16 12:00:18,"Johnston, RI",city,"Johnston, RI",United States
35380,-90.026039,29.9038355,clare,1135256558,2020-05-19 12:24:49,,city,"Terrytown, LA",United States
82,85.385683,23.3604345,Suraj Kumar,1135256650153992192,2020-05-24 17:50:27,"Piska More, Ranchi",city,"Ranchi, India",India
15980,-81.8231765,26.622149,leguii__,1135256750838439938,2020-02-16 17:22:09,"Florida, USA",city,"Fort Myers, FL",United States
88,139.620882,35.351278,,1135256946183815168,2020-02-14 11:10:55,"Mizarea, Auguste Isles",city,  ,
21,-57.9089625,-12.10978,Pocahontas ,1135256953385639936,2020-02-14 06:54:10,"Cuiab, Brasil",city,"Brasnorte, Brasil",Brasil
82,76.337815,26.898092,RAMCHARAN SAINI,1135257226610823168,2020-06-10 02:15:58,India,city,"Dausa, India",India
205,-2.915427,53.4198785,Tobias Gibaud,1135257308299177989,2020-04-13 17:37:05,"Liverpool, England",city,"Liverpool, England",United Kingdom
173,31.173265500000003,67.0107835,n (m) ,1135257528168787968,2020-02-19 20:51:05,neverland ,city,", ",
75,-9.300281,10.383486999999999,OumarFouiny,1135257648515944448,2020-03-01 12:56:21,,poi,kankan,Guine
38,-74.24367099999999,4.2622835,oscar niebles,113525771,2020-02-14 15:28:29,Barranquilla/Colombia,city,"Bogot, D.C., Colombia",Colombia
222,116.91778799999999,-1.25472951,Ayyiex  Falgunadi,113525773,2020-03-18 08:11:19,"Bedugul, Bali",city,"Balikpapan Selatan, Indonesia",Indonesia
205,-3.31885161,51.62231388,Paul,1135257840,2020-02-16 21:01:08,llechwen hall,city,"Pontypridd, Wales",United Kingdom
21,-46.5955455,-23.682803,luiza,1135257943522365441,2020-05-11 03:39:20,,city,"So Paulo, Brasil",Brasil
21,-44.3657935,-23.032432500000002,AmandA,1135258059616456709,2020-02-17 01:01:21,"Angra dos Reis, Brasil",city,"Angra dos Reis, Brasil",Brasil
171,122.375197,10.9124285,Significant Figure,1135258116897906688,2020-02-18 14:41:26,"Iloilo City, Western Visayas",city,"Maasin, Western Visayas",Republic of the Philippines
42200,-119.701636,34.429885,KwikFox on Ghost,1135258251325390848,2020-03-23 09:01:03,,city,"Santa Barbara, CA",United States
175,46.685077,24.7219435,16,1135258274683596800,2020-02-14 08:53:48,,city,"Riyadh, Kingdom of Saudi Arabia",Kingdom of Saudi Arabia
82,86.07130500000001,26.346096999999997,Vikash Kumar Ojha,1135258566397292545,2020-04-26 05:33:12,,city,"Madhubani, India",India
8,-58.732381000000004,-38.571653000000005,diosoamoroso,1135258875718975489,2020-02-17 11:26:00,"Necochea, Argentina",poi,VETERINARIA PAMPA FLORIDA,Argentina
85,7.566482499999999,43.826219,palash.mattubbar@gmail.com,1135259010049937408,2020-03-05 12:43:50,,city,"Ventimiglia, Liguria",Italy
13820,-86.73975,33.481181,Taylor Stewart,1135259198869164032,2020-03-13 01:43:29,,city,"Mountain Brook, AL",United States
65,-1.176531,46.162060499999995,Cyr Cration,1135259254707953670,2020-04-12 16:14:18,,city,"La Rochelle, France",France
222,104.3082755,-4.376475,Danty,1135259272147660801,2020-03-06 13:39:05,"Martapura, Indonesia",city,"Martapura, Indonesia",Indonesia
200,28.968457,41.037706,Narin Yakut,1135259290422456322,2020-03-04 17:21:05,"Ar, Trkiye",city,"stanbul, Trkiye",Trkiye
19740,-104.976767,39.534793500000006,Darien4Commish,1135259354280554497,2020-02-14 23:24:20,"Highlands Ranch, CO",city,"Highlands Ranch, CO",United States
32580,-98.24567449999999,26.24069,Brandon Orrego,1135259396387344385,2020-03-06 22:14:27,,city,"McAllen, TX",United States
200,27.676775,36.731609999999996,Mazoti,1135259414292815872,2020-03-20 04:55:15,,city,"Data, Trkiye",Trkiye
222,106.84202450000001,-6.2204554000000005,Alvndyagam,1135259482219397120,2020-03-08 07:08:17,,city,"Setia Budi, Indonesia",Indonesia
37620,-81.54170450000002,39.256249,Aislynn Banky,1135259619843104771,2020-03-19 03:55:35,,city,"Parkersburg, WV",United States
21,-42.01276,-22.882618,Ritinha ,1135259754840899584,2020-02-22 03:45:05,,poi,Praia do Forte,Brasil
21,-41.886124,-22.754704,docinho ,1135259781512478723,2020-02-25 16:49:14,"Belford Roxo, Brasil",poi,Armao dos Bzios,Brasil
205,-1.8117580000000002,53.6473925,Yiannis Kardamakis,1135259857513254912,2020-02-14 14:09:17,"Huddersfield, England",city,"Huddersfield, England",United Kingdom
200,29.0052225,41.0213205,murat tekin,1135260025,2020-05-19 00:22:39,,city,"stanbul, Trkiye",Trkiye
200,29.0052225,41.0213205,Duygu Topcu,1135260228847583232,2020-03-25 19:22:03,"stanbul, Trkiye",city,"stanbul, Trkiye",Trkiye
71,8.43108,49.31933,Fridays For Future Speyer,1135260351363256320,2020-04-06 08:39:29,"Speyer, Rheinland-Pfalz",city,"Speyer, Deutschland",Deutschland
200,32.255133,37.465311,_asiyyee,1135260490198933504,2020-03-25 14:35:58,"Konya, Trkiye",poi,May Baraj,Trkiye
205,-2.768452,53.0228725,Brittany Stevens,1135260771200446467,2020-05-20 18:04:30,"England, United Kingdom",city,"Malpas, England",United Kingdom
82,88.352242,22.6127055,@Chandan Singh,1135260967586095105,2020-04-29 06:06:27,"Kolkata, India",city,"Kolkata, India",India
222,112.6107005,-7.943314999999999,Yuniartabs,113526135,2020-02-14 18:26:48,"Kota Malang, Jawa Timur",city,"Lowokwaru, Indonesia",Indonesia
13820,-86.79391700000001,33.5422375,GEE,113526141,2020-06-04 18:34:16,L. A. 2 #myASU,city,"Birmingham, AL",United States
16980,-87.65136700000001,41.784994,A. Watson,1135261427122561025,2020-02-22 21:36:35,Chicago,poi,West Englewood Neighborhood,United States
-9999,22.0601,77.5795595,Evans ,1135261538732785664,2020-05-24 05:12:34,"Depok, Indonesia",city,"Svalbard, Norge",Norway
42340,-81.2342,32.2933, ,113526154,2020-02-29 16:09:50,"Pooler, GA",city,"Rincon, GA",United States
19660,-81.0379,29.2073, ,113526154,2020-05-19 01:33:41,"Pooler, GA",city,"Daytona Beach, FL",United States
82,81.3587455,21.158141,H@ppy $!ngh Official,1135261611914977286,2020-02-14 02:19:12,,city,"Bhilai, India",India
193,103.4937875,14.838529,Alongkot_Neng,1135261612493889536,2020-02-19 04:06:03,,city,", ",
47900,-77.0908695,38.81738,Jason M McDowell,1135261686,2020-03-03 12:59:09,"Alexandria, VA",city,"Alexandria, VA",United States
200,30.502537,36.911976,EmRaH aLkAn,1135261691787317249,2020-04-06 10:48:48,"Antalya, Trkiye",poi,Antalya Saklkent,Trkiye
152,6.6228835,53.458960499999996,sn_utils,1135261751145050112,2020-04-27 08:12:37,Amsterdam,city,"Eemsmond, Nederland",The Netherlands
205,-1.4727815,53.5583015,Medium Red,1135261872,2020-04-20 17:41:00,Barnsley,city,"Barnsley, England",United Kingdom
242,121.577272,25.050501,,1135261908779454464,2020-03-20 14:42:18,,poi, Raohe St. Night Market,
175,39.2541285,21.5857105,lavender,1135262014169866240,2020-02-15 17:31:25,Neverland,city,"Jeddah, Kingdom of Saudi Arabia",Kingdom of Saudi Arabia
69,-0.3772645,5.5033005,Bighomiie,1135262025238634498,2020-04-13 12:08:32,Dansoman,city,"Krokrobite, Ghana",Ghana
222,102.275925,-3.7965730000000004,faris,1135262078053150720,2020-05-11 04:03:33,"palembang, Indonesia",poi,Cinema 21 - Palembang Indah Mall,Indonesia
21,-46.5955455,-23.682803,maestro Roberto,1135262102288044033,2020-03-25 13:38:52,"So Paulo, Brasil",city,"So Paulo, Brasil",Brasil
85,12.5451455,41.8984165,michael taylor,1135262197,2020-06-03 13:52:38,Rome,city,"Rome, Lazio",Italy
21,-39.064457,-12.200165,Garoto Senttimental,113526249,2020-02-15 12:50:08,Feira de Santana - Bahia,city,"Feira de Santana, Brasil",Brasil
205,-1.0853245,53.96620649999999,OJWake,1135262690388189190,2020-04-17 10:58:48,"York, England",city,"York, England",United Kingdom
200,29.0052225,41.0213205,hasan hakk,1135262707,2020-02-14 20:09:56,,city,"stanbul, Trkiye",Trkiye
222,112.747694,-7.215561,Saya Ulhaq,1135262854221684736,2020-05-21 08:55:12,diAtas Ranjang,city,"Semampir, Indonesia",Indonesia
205,-0.5473899999999999,53.220721,Izzy ,1135263054021742592,2020-06-04 19:00:58,,city,"Lincoln, England",United Kingdom
71,13.4246065,52.506701,Michel Walik,1135263229398134784,2020-02-15 11:39:13,"Schneberg, Berlin",city,"Berlin, Deutschland",Deutschland
175,46.685077,24.7219435, ,1135263372746907648,2020-05-22 02:56:50,,city,"Riyadh, Kingdom of Saudi Arabia",Kingdom of Saudi Arabia
205,-1.280075,52.905012,Abi Colton,1135263662,2020-02-25 22:15:52,Nottingham,city,"Sandiacre, England",United Kingdom
21,-51.035027,-29.068624,Rodrigo Lazzarotto,113526375,2020-02-14 16:00:16,Caxias do Sul - RS,city,"Caxias do Sul, Brasil",Brasil
21,-34.939349,-8.043603,MBC - Pernambuco,1135263867297259520,2020-02-26 20:38:05,"Recife, Brasil",city,"Recife, Brasil",Brasil
200,28.135064,39.3965075,Yasemin Ylmaz,1135264171363328000,2020-02-23 18:24:11,"Eskiehir, Trkiye",city,"Bigadi, Trkiye",Trkiye
95,127.22441450000001,37.227869500000004,  !,1135264340,2020-05-04 21:06:37, ,city, ,
188,32.590746,15.6587375,shatta ,1135264444035018755,2020-02-14 09:28:37,,city,Khartoum North,
119,-99.269192,19.5645875,davidvaldezm,1135264445565767680,2020-02-15 03:35:59,,city,"Atizapn de Zaragoza, Mxico",Mexico
21,-40.515178999999996,-18.953603,namorada do 77,1135264587962552321,2020-03-17 02:11:58,"So Gabriel da Palha, Brasil",city,"So Gabriel da Palha, Brasil",Brasil
205,-2.287169,53.43804300000001,Raff,1135264591967952896,2020-04-21 13:34:04,"Manchester, England",poi,Chorlton Ees Nature Reserve,United Kingdom
88,139.70818,35.657546999999994,BRIAN SHINSEKAI / ,113526463,2020-02-14 08:29:04,"Tokyo, Japan",poi,Astro Lab.,
178,28.386694,-25.710812,James,1135264761921359872,2020-02-25 19:40:55,South Africa,city,"Mamelodi, South Africa",South Africa
65,2.31033212,48.86994683,Eline CardosoDaCunha,1135265186,2020-02-26 19:58:17,Belgium,city,"Parijs, Frankrijk",Frankrijk
175,42.6520445,17.168178,Ali Reffai,1135265310460850177,2020-03-21 19:45:28,,city,"Sabya, Kingdom of Saudi Arabia",Kingdom of Saudi Arabia
119,-103.381251,20.736007,Alexis Gonzlez ,1135265373698310150,2020-03-04 04:53:43,"Guadalajara, Jalisco",poi,Cineteca FICG de la UdeG,Mxico
21,-49.232383,-25.51248,s,1135265423606386690,2020-03-09 02:40:38,"Boqueiro, Curitiba",poi,Churrascaria Braseiro,Brasil
171,121.0627355,14.683012,Quenie Elaiza,1135265629043216384,2020-02-18 12:16:41,,city,"Quezon City, National Capital Region",Republic of the Philippines
175,39.249156,21.446251,  ,1135265782613590018,2020-02-20 19:42:48,,poi,     ,  
222,107.02765249999999,-6.5289455,e_widi,113526588,2020-03-07 03:26:26,"Work Jakarta, Live Bekasi",city,"Jonggol, Indonesia",Indonesia
205,-1.5997475,54.700924,Tori Mayhew,1135266050776453120,2020-02-16 13:14:21,"Durham, England",city,"Spennymoor, England",United Kingdom
200,32.744717,39.9676005,Emrah Yldz,1135266055805423623,2020-05-31 07:18:24,"Ankara, Trkiye",city,"Yenimahalle, Trkiye",Trkiye
223,-61.49641999999999,16.208145000000002,laplume,1135266084,2020-03-15 12:10:14,Guadeloupe,poi,Le Gosier,Guadeloupe
65,2.385621,48.99251200000001,  ,1135266180,2020-02-22 22:49:45, ,city,"Sarcelles, France",France
10420,-81.511516,41.1652465,Alex,1135266250026827776,2020-02-18 19:31:54,,city,"Cuyahoga Falls, OH",United States
17460,-81.76465999999998,41.3878385,Alex,1135266250026827776,2020-05-31 03:35:38,,city,"Parma Heights, OH",United States
38060,-112.1246765,33.5528625,Cruz ,1135266328141418496,2020-02-14 03:34:15,"Phoenix, AZ",city,"Phoenix, AZ",United States
96,48.081134999999996,29.074256, .,1135266384181702656,2020-02-14 13:31:20,,poi,,Kuwait
160,-71.4651025,-16.3531135,Burgers Queen,1135266564717105153,2020-02-14 01:25:17,,city,"Miraflores, Peru",Peru
88,138.154155,34.830901000000004,,113526679,2020-02-23 02:43:05,,poi,,
17980,-85.026365,32.438371999999994,Angelia Cardwell,1135266900,2020-04-17 18:36:31,,city,"Phenix City, AL",United States
12220,-85.08841699999998,32.524128000000005,Angelia Cardwell,1135266900,2020-05-28 22:58:15,,city,"Smiths, AL",United States
40900,-121.469664,38.561721999999996,.,1135267054838091776,2020-03-19 23:39:15,,city,"Sacramento, CA",United States
120,110.484165,1.4061315,damnconejo,1135267258081587200,2020-02-21 05:05:47,askme,city,"Samarahan, Sarawak",Malaysia
200,36.0806135,40.3917325,Burcu ,1135267559710830592,2020-06-09 18:23:59,,city,"Turhal, Trkiye",Trkiye
82,88.40825185,22.58859875,debasish ghosh,1135267574,2020-03-15 10:08:30,"West Bengal, India",city,"Bidhan Nagar, India",India
205,-4.7558760000000015,55.939201000000004,,1135267649884217344,2020-03-26 21:45:22,"Scotland, United Kingdom",city,"Greenock, Scotland",United Kingdom
186,-6.0380425,37.4004405,Paco the dog,113526776,2020-04-02 09:49:25,Sevilla,city,"Camas, Espaa",Espaa
222,116.86604650000001,-1.2438285,andhy ferdian,113526780,2020-03-03 09:39:04,"Balikpapan, Kaltim",city,"Balikpapan Selatan, Indonesia",Indonesia
24,-71.3410585,46.855857,Deepak Dwivedi,1135267972971421696,2020-03-22 20:16:05,,city,"Qubec, Canada",Canada
96,48.075041,29.288416,  ,1135267976201101312,2020-05-05 05:20:04,"Salwa , UK ",city,"Salwa, Kuwait",Kuwait
200,35.4600735,41.143109,Beety ,1135268217990107137,2020-05-29 16:00:41,Outro:Tear,city,"Vezirkpr, Trkiye",Trkiye
175,46.685077,24.7219435,,1135268283077320704,2020-05-11 14:59:13,,city,",   ",  
40900,-121.3008435,38.26551,kenn ,1135268348,2020-03-29 22:54:22,,city,"Galt, CA",United States
200,29.395201500000002,40.84593750000001,Emin,1135268514091163654,2020-04-26 21:20:49,"Gebze, Trkiye",city,"ayrova, Trkiye",Trkiye
193,100.6798465,13.999492499999999, ,1135268634924728320,2020-03-05 20:26:42,,city,", ",
222,106.89062450000002,-6.3919865,Edo Agus Rinaldi,1135268772657262592,2020-03-07 13:56:27,indonesia,city,"Cimanggis, Indonesia",Indonesia
186,-3.3761370000000004,38.010909999999996,,1135268936,2020-02-26 18:32:52,"Jan, Espaa",poi,Cafe-bar Alejo,Espaa
82,78.11391549999998,29.8714325,Ananya Mondal,1135268963410108416,2020-04-28 04:35:35,,city,"Haridwar, India",India
21,-42.6007415,-19.4454605,Kkj,1135269001305739265,2020-02-27 19:42:47,"Ipatinga, Brasil",city,"Ipatinga, Brasil",Brasil
178,27.875272,-26.2564215,Mathale man jack morwa 'NAPE'',1135269018905063424,2020-02-22 20:10:33,"Burgersfort, South Africa",city,"Soweto, South Africa",South Africa
208,-56.256426,-34.592937,Andres Quatrini,1135269068,2020-05-05 22:55:16,Juanico  ,poi,Juanico,Uruguay
30460,-84.50251,38.049403000000005,DeWayne Peevy,113526925,2020-02-23 23:43:31,"Lexington, KY",poi,Rupp Arena,United States
23540,-82.3302695,29.6731715,DeWayne Peevy,113526925,2020-03-07 21:42:42,"Lexington, KY",city,"Gainesville, FL",United States
33460,-93.276095,44.979463,DeWayne Peevy,113526925,2020-03-26 01:25:07,"Lexington, KY",poi,Target Center,United States
88,139.94984,35.44811,,1135269344,2020-06-02 08:58:43,,poi,,
222,106.743997,-6.150752,Pluto ,1135269371507425280,2020-04-09 12:19:58,"Cirebon, Jawa Barat",city,"Cengkareng, Indonesia",Indonesia
175,46.685077,24.7219435, ,1135269726559580160,2020-05-22 02:35:52,Riyadh,city,"Riyadh, Kingdom of Saudi Arabia",Kingdom of Saudi Arabia
205,-1.8906405,52.493966500000006,Linda Derham,1135269967,2020-03-24 08:21:57,,city,"Birmingham, England",United Kingdom
21,-46.530655,-23.8040495, ,1135270182656626690,2020-03-02 22:19:11,longe dos falsos ,city,"So Bernardo do Campo, Brasil",Brasil
19100,-96.961483,32.863917,Joshua Salazar,1135270256,2020-02-14 03:38:19,,city,"Irving, TX",United States
205,0.0893245,51.468402000000005,fumzinoo x,1135270276156055553,2020-05-22 10:41:29,,city,"Eltham, London",United Kingdom
186,-0.515521,38.3489055,Rafael Navarro Atienza,1135270352815366145,2020-04-09 11:24:37,,city,"Alicante, Espaa",Espaa
188,32.5450035,15.5244125,Monzir El_Fatih,1135270482276769792,2020-02-15 21:23:10,Khartoum,city,Khartoum,
200,29.0052225,41.0213205,Muhuttin etin,1135270671737597953,2020-02-16 05:39:19,"stanbul, Trkiye",city,"stanbul, Trkiye",Trkiye
38060,-111.928142,33.392883999999995,STREAM PORT,1135270748912668672,2020-05-16 16:03:27,phx,city,"Tempe, AZ",United States
24,-82.1433865,47.271506,Stardust Motel,1135270928651358208,2020-05-19 23:01:36,Greater Sudbury / Grand Sudbur,city,"Sudbury, Unorganized, North Part, Ontario",Canada
45000,-120.6443945,40.416095,Way ,1135271196528861184,2020-03-04 22:59:56,"Susanville, CA",city,"Susanville, CA",United States
30,114.39798600000002,30.50096,tance,1135271402737623041,2020-05-15 18:06:08,,poi,,People's Republic of China
120,101.988236,2.692285,Tengku Hafiz,113527146,2020-04-02 11:31:04,In Playstation Home,poi,Klinik Kesihatan Senawang,Malaysia
200,28.96862,41.037164000000004,berrin,1135271715699875840,2020-05-21 19:44:39,Velimee ,city,"Sakarya, Trkiye",Turkey
186,-0.352529,39.422484499999996,GizTab,1135271750,2020-04-25 13:56:31,Mundo,city,"Valencia, Espaa",Espaa
200,29.096246,37.7721435,Veli zcan,1135271900278665218,2020-02-17 10:02:35,"Denizli, Trkiye",city,"Denizli, Trkiye",Trkiye
82,79.0327905,20.9882585,  ,1135271973775323136,2020-02-21 16:45:52,", ",city,"Nagpur, India",
21,-49.62276900000001,-27.185354999999998,PANDINI,1135271995866853377,2020-02-17 01:39:07,"Santa Catarina, Brasil",city,"Rio do Sul, Brasil",Brasil
49,-79.9553,-3.2626,Jewelry Store Johanna,1135272453264019457,2020-02-14 18:19:24,"El Oro, Ecuador",city,"Machala, Ecuador",Ecuador
41860,-122.31542150000001,37.552481,Carrie Sambel,1135272458,2020-03-14 15:55:40,,city,"San Mateo, CA",United States
222,112.59233600000002,-7.862636500000001,Not followed by anyone you're following,1135272498931437568,2020-04-13 15:22:20,,city,"Karangploso, Indonesia",Indonesia
152,5.17509668,52.10736014,Patiperra travels,1135272520565821440,2020-04-16 13:19:53,"Utrecht, The Netherlands",city,"De Bilt, Nederland",The Netherlands
21,-53.824203000000004,-29.753085,"Lucas "")",1135272552144801793,2020-03-07 19:12:44,Balnerio Cambori ,city,"Santa Maria, Brasil",Brazil
85,7.5918175,45.016358000000004,Ines,1135272556351709184,2020-02-17 11:33:32,,city,"Beinasco, Piemonte",Italia
85,13.4991295,38.077493,salvatore,1135272667395907585,2020-04-13 08:29:19,,city,"Bagheria, Sicilia",Italy
151,10.4676075,11.3096535,Meen abdoul,1135272689239826432,2020-02-28 13:14:08,Nigeria,city,"Misau, Nigeria",Nigeria
21,-42.3953835,-22.568928,Alessandro Garciia,1135272768113717248,2020-02-14 03:49:30,"Silva Jardim, Brasil",city,"Silva Jardim, Brasil",Brasil
21,-48.702383000000005,-1.4924110000000002,Rani ,1135272835776163840,2020-02-23 22:38:10,"Marituba, Brasil",poi,Praia do Caripi,Brasil
119,-102.68033100000001,22.900442,Edgar Gutirrez,113527294,2020-03-02 13:09:01,Zacatecas,poi,Aeropuerto Internacional de Zacatecas (ZCL),Mxico
41860,-122.2286855,37.791994,goose,1135272951341670400,2020-02-15 02:30:37,"Oakland, CA",city,"Oakland, CA",United States
88,135.339,34.7444,gonta-oyaji,1135272998766764032,2020-02-21 08:29:15, ,city, ,
21,-43.779663,-22.866604000000002,Hin,1135273007876902914,2020-03-14 00:54:26,Rio de Janeiro,poi,Itagua,Brasil
82,80.362371,26.454701,VAIBHAV AGRAWAL,1135273159857328128,2020-06-07 16:07:11," , ",poi,"Cantt, Kanpur",India
222,119.506723,-5.1337,VolcanoYT,1135273274374467584,2020-05-21 21:06:06,Indonesia,poi,BTP,Indonesia
205,-4.8690345,50.3610925,Advanced Clinical Reflexology,1135273380419121152,2020-02-16 07:59:55,Warwick,city,"Foxhole, England",United Kingdom
36740,-81.3677725,28.5016785,Heather,113527341,2020-02-20 21:07:37,"Florida, USA",city,"Orlando, FL",United States
49180,-80.08371650000002,36.1128105,Heather,113527341,2020-02-28 21:48:06,"Florida, USA",city,"Kernersville, NC",United States
36740,-81.371775,28.625735,Heather,113527341,2020-03-14 23:59:57,"Florida, USA",city,"Maitland, FL",United States
42680,-80.40473399999998,27.6309955,Heather,113527341,2020-05-24 20:55:09,"Florida, USA",city,"Vero Beach, FL",United States
36740,-81.371775,28.625735,Heather,113527341,2020-05-27 01:26:22,"Florida, USA",city,"Maitland, FL",United States
38,-73.13269700000002,7.144792999999999,John Carlos Pabon,113527342,2020-02-18 17:08:43,Bucaramanga,city,"Bucaramanga, Colombia",Colombia
175,46.685077,24.7219435,khalid alshail,1135273705,2020-02-26 09:08:24,,city,",   ",  
82,77.5584485,12.9231145,PRINCE_DAV,1135273850499936259,2020-02-20 09:57:56,Inde,city,"Bengaluru South, India",India
51,-6.395643,53.90604200000001,Ronan,1135273857219252225,2020-03-29 19:46:13,,city,"Louth, Ireland",Ireland
17780,-96.2916485,30.5854715,Lucas Sampson,1135273924437188610,2020-04-10 22:32:07,,city,"College Station, TX",United States
33,-70.67794649999998,-33.562393,Loreto #5SOSLatamIsHere,1135273982125629441,2020-03-27 01:19:06,Chile,city,"El Bosque, Chile",Chile
200,38.482494,36.976606,Kemal Akaltun,1135273988685553668,2020-04-14 18:46:20,"Gaziantep, Trkiye",poi,Boztepe Ky,Trkiye
186,-5.6919445,43.509797,Nacho,1135274008579063809,2020-04-30 13:31:28,"Principado de Asturias, Espaa",city,"Gijn, Espaa",Espaa
188,32.5450035,15.5244125,Eisa Abuasaal,1135274008759480320,2020-05-12 18:28:57,,city,Khartoum,
82,77.5584485,12.9231145,Sanket Sharma,1135274234530258944,2020-03-21 18:06:18,,city,"Bengaluru South, India",India
-9999,-34.550309000000006,-4.8747985,mari mar,1135274240171810818,2020-02-17 20:52:57,,city,"Natal, Brasil",Brasil
21,-35.36743149999999,-5.776878,mari mar,1135274240171810818,2020-02-21 00:15:56,,city,"So Gonalo do Amarante, Brasil",Brasil
-9999,-34.550309000000006,-4.8747985,mari mar,1135274240171810818,2020-02-21 14:30:29,,city,"Natal, Brasil",Brasil
21,-35.36743149999999,-5.776878,mari mar ,1135274240171810818,2020-02-23 04:17:13,,city,"So Gonalo do Amarante, Brasil",Brasil
-9999,-34.550309000000006,-4.8747985,mari mar ,1135274240171810818,2020-03-06 04:07:24,,city,"Natal, Brasil",Brasil
205,-0.092633,51.358931,Kane Sumile,1135274298543955969,2020-02-21 06:52:02,,city,"Croydon, London",United Kingdom
222,110.31733,-7.536989999999999,Merry solita dewi,113527448,2020-03-05 05:28:36,Magelang,city,"Sawangan 1, Indonesia",Indonesia
65,3.5797464999999997,50.43202,Gianni Stanziano,1135274484229955591,2020-02-16 19:50:13,,city,"Fresnes-sur-Escaut, France",France
21,-38.486756,-7.0940985,Kim Lu,1135274555650510849,2020-03-08 01:46:13,Brasil,city,"So Jos de Piranhas, Brasil",Brasil
88,139.84774,34.9835475,,1135274566232657920,2020-03-06 15:33:08, ,city,"Tateyama-shi, Chiba",Japan
18140,-82.585699,39.732821,Mr. Sharp,1135274690178666496,2020-02-14 19:30:42,,poi,Lancaster High School,United States
205,-1.4855825,52.473809499999994,Michelle ,1135274714660823040,2020-04-29 02:09:39,,city,"Bedworth, England",United Kingdom
186,-3.7035075,40.4777945,A. Zuleta,1135274721795289088,2020-02-25 08:22:12,,city,"Madrid, Espaa",Espaa
41500,-121.4403665,36.509190999999994,mariaa ,1135274729038684160,2020-02-21 21:03:33,"Gonzales, CA",city,"Gonzales, CA",United States
21,-47.2850265,-22.780749,lolorodrigues,1135274730880208896,2020-02-15 04:13:04,,city,"Nova Odessa, Brasil",Brazil
21,-51.2226245,-30.0398275,nodari,1135274938267525121,2020-02-26 19:45:35,,neighborhood,"Cidade Baixa, Porto Alegre",Brasil
205,-3.2539455000000004,54.985195,Chantelle Hyslop,1135275063178158080,2020-03-01 09:35:45,"Glasgow, Scotland",city,"Annan, Scotland",United Kingdom
205,-3.0603215,50.8905995,FM Chrisy,1135275172385173507,2020-05-26 20:08:21,"Michigan, USA",city,"Marsh, England",United Kingdom
19820,-83.8511105,42.465022999999995,FM Chrisy,1135275172385173507,2020-05-30 17:00:52,"Michigan, USA",city,"Lakeland, MI",United States
222,112.747694,-7.215561,re,1135275202177224704,2020-05-26 11:01:12,Indonesia,city,"Semampir, Indonesia",Indonesia
119,-103.348324,20.592133,JOSE LUIS FONSECA,113527540,2020-05-23 20:43:48,,city,"Tlaquepaque, Jalisco",Mxico
173,37.42764250000001,55.7547875,Amnesia,1135275434801844224,2020-04-19 13:09:11,"Moscow, Russia",city,"Moscow, Russia",Russia
40140,-117.39896350000001,34.06075850000001,yungbruhv,1135275502589972480,2020-03-15 21:59:21,1600,city,"Bloomington, CA",United States
175,39.2541285,21.5857105,   ,1135275624,2020-02-28 09:21:35,,city,",   ",  
35620,-73.9487755,40.655138,Custom Funko Pop!: Chasten Buttigieg,113527566,2020-02-14 02:05:33,"Brooklyn, NY",city,"Brooklyn, NY",United States
38860,-70.29254499999999,43.696187,Custom Funko Pop!: Chasten Buttigieg,113527566,2020-02-15 21:25:28,"Brooklyn, NY",city,"Portland, ME",United States
35620,-73.9685415,40.780709,Custom Funko Pop!: Chasten Buttigieg,113527566,2020-02-18 14:15:02,"Brooklyn, NY",city,"Manhattan, NY",United States
119,-98.1542665,19.0322295,Carlos V semiamargo,1135276013183787015,2020-02-26 22:46:09,,city,"Puebla, Mxico",Mexico
151,4.2021665000000015,12.451223,Faysal Wasagu,1135276015801044992,2020-02-21 11:12:34,Kebbi state,city,"Birnin-Kebbi, Nigeria",Nigeria
189,11.73402,57.68110600000001,Axel Johanson,1135276182,2020-02-19 19:16:25,,city,"Gteborg, Sverige",Sverige
27900,-93.925225,36.9168235,Brenda Saucedo,1135276215122706433,2020-03-09 23:16:16,,city,"Monett, MO",United States
205,-1.15006,51.9051825,Bicester Blue Fins,1135276394,2020-03-02 08:34:51,Oxfordshire,city,"Bicester, England",United Kingdom
12060,-84.43310600000001,33.7671945,MoonChildXL,1135276490323582976,2020-03-09 19:58:50,,city,"Atlanta, GA",United States
21,-46.5955455,-23.682803,almeida ANDDER ,1135276742808154117,2020-02-14 17:29:07,,city,"So Paulo, Brasil",Brasil
35620,-74.12750600000001,40.903917,Victor,1135276764534583296,2020-02-16 08:48:14,,poi,Dunkin',United States
42140,-105.9991065,35.6565515,Brooke Mosley,113527714,2020-03-31 04:05:46,,city,"Santa Fe, NM",United States
175,39.2541285,21.5857105,Mhmd.alhuthali,1135277387980169216,2020-04-25 19:02:49,,city,",   ",  
40140,-117.5621525,34.12167,Catherine,1135277639969648641,2020-03-04 03:26:26,,city,"Rancho Cucamonga, CA",United States
65,2.2478525,48.950032,95%,1135277855569567744,2020-04-06 12:12:00,,city,"Argenteuil, France",France
186,-3.396407,38.8089395,MM,1135278038298574848,2020-03-01 10:57:03,,city,"Valdepeas, Espaa",Espaa
40380,-77.489723,43.0995265,Pugz,1135278046003572738,2020-02-15 18:44:39,,city,"East Rochester, NY",United States
36740,-81.7332615,28.5381695,Tanuja Girdhari,1135278133777707009,2020-03-21 08:05:44,,city,"Clermont, FL",United States
24,-123.421838,48.5819835,IISAAK OLAM Foundation,1135278210554273792,2020-02-15 22:40:37,"Victoria, British Columbia",city,"Central Saanich, British Columbia",Canada
35620,-74.00076130000001,40.7207559,IISAAK OLAM Foundation,1135278210554273792,2020-04-27 20:22:13,"Victoria, British Columbia",city,"Manhattan, NY",United States
24,-123.37083799999999,48.4962255,IISAAK OLAM Foundation,1135278210554273792,2020-05-22 17:41:20,"Victoria, British Columbia",city,"Saanich, British Columbia",Canada
46060,-110.91557350000001,32.1893905,San Miguel of Tucson,1135278230,2020-02-14 00:51:40,"Tucson, Arizona",city,"Tucson, AZ",United States
26420,-95.158936,29.668301,SSPMHSDHS,1135278269530542080,2020-06-04 22:36:30,"Pasadena, TX",city,"Pasadena, TX",United States
21,-43.329440000000005,-22.868004,#Anjo Negro,1135278296835530752,2020-05-22 18:50:28,,poi,Complexo Da Serrinha,Brasil
17820,-104.845474,38.889755,,1135278374170091522,2020-04-17 06:03:34,16,poi,Jackson Elementary School,Estados Unidos
222,119.436598,-5.1512839999999995,Arsyandi,1135278505787215872,2020-05-05 08:53:13,"Kota Makassar, Sulawesi Selata",poi,Taman Pakui Sayang,Indonesia
21,-47.12743142,-22.92490412,Nenno Alvees,1135278579191865344,2020-03-21 22:22:37,"Campinas, Brasil",city,"Campinas, Brasil",Brasil
42100,-121.766255,36.917977,amaranta rios leon,1135278870351892482,2020-03-10 03:10:48,"California, USA",city,"Watsonville, CA",United States
14,91.880306,24.8950825,Habib Rahman,1135278988136538113,2020-03-29 19:22:54,,city,"Sylhet, Bangladesh",Bangladesh
21,-44.19287,-19.942007500000006,Sara34Storari,1135279194517229569,2020-03-09 02:00:56,"Minas Gerais, Brazil",city,"Betim, Brasil",Brasil
175,46.725405,24.842145000000002,,1135279357,2020-02-18 15:11:02,Riyadh.,poi,  |     ,Kingdom of Saudi Arabia
29820,-115.223125,36.232915000000006,ThePatmoShow,1135279376222711808,2020-03-04 08:33:09,,city,"Las Vegas, NV",United States
35620,-73.9685415,40.780709,Ecuador en ONU,1135279753,2020-02-14 16:11:15,New York,city,"Manhattan, NY",United States
205,-1.2720453999999999,52.8982166,James Leighton Financial Services,1135279818726084614,2020-03-17 08:53:33,"East Midlands, England",city,"Sandiacre, England",United Kingdom
205,-0.8740684999999999,53.703418000000006,heidi,1135280086377213953,2020-05-15 14:32:26,"Goole, England",city,"Goole, England",United Kingdom
38,-74.24367099999999,4.2622835,bryan plata ,1135280209320697857,2020-04-01 06:09:24,"Bogot, D.C., Colombia",city,"Bogot, D.C., Colombia",Colombia
186,-3.7035075,40.4777945,El nombre no puede estar en blanco.,1135280490506854401,2020-02-14 10:56:54,"Madrid, Espaa",city,"Madrid, Espaa",Espaa
41700,-98.5,29.4167,Sheila Clyne,1135280554578980864,2020-02-14 20:11:06,"Texas, USA",city,"San Antonio, TX",United States
12420,-97.93957472,29.88850418,Sheila Clyne,1135280554578980864,2020-03-01 17:09:22,"Texas, USA",city,"San Marcos, TX",United States
41700,-98.5,29.4167,Sheila Clyne,1135280554578980864,2020-03-06 18:44:33,"Texas, USA",city,"San Antonio, TX",United States
12060,-84.1706,33.8079,Sheila Clyne,1135280554578980864,2020-05-01 17:04:25,"Texas, USA",city,"Stone Mountain, GA",United States
41700,-98.5406515,29.417501,Sheila Clyne,1135280554578980864,2020-05-03 23:45:14,"Texas, USA",city,"San Antonio, TX",United States
200,30.680889,36.89007,Niyazi ZELK,1135280918,2020-02-21 09:56:45,"Antalya, Trkiye",city,"Antalya, Trkiye",Trkiye
82,77.498726,28.545556,Arjun Singh,113528119,2020-04-17 06:16:47,"New Delhi, India",city,"Noida, India",India
200,28.968211,41.037175,Melisa Ylmaz,1135281194810191873,2020-06-09 16:53:43,"Antalya, Trkiye",city,"Ankara, Trkiye",Trkiye
33980,-76.8242735,34.696458,COALBEERKILLA96,1135281473190268930,2020-06-07 03:22:25,,city,"Pine Knoll Shores, NC",United States
21,-51.968329,-23.4058225,Nogueira a da rave,1135281521915498497,2020-02-27 14:44:34,No seu corao,city,"Maring, Brasil",Brazil
186,-0.4242175,39.536066,Rober Casinos,1135281575090896896,2020-02-17 20:45:20,,city,"Godella, Espaa",Spain
38,-74.24367099999999,4.2622835,Frederick Guerrero,113528177,2020-05-12 05:21:09,"Cundinamarca, Bogot",city,"Bogot, D.C., Colombia",Colombia
119,-99.187904,23.685934,Kyo,1135281984874397696,2020-04-09 12:43:47,,city,"Victoria, Tamaulipas",Mxico
151,4.550274,8.479929499999999,COCA-COLA,1135282056932536320,2020-02-28 20:18:43,,city,"Ilorin, Nigeria",Nigeria
19820,-83.099288,42.3527865,gabby,1135282147,2020-02-16 23:59:44,Michigan,city,"Detroit, MI",United States
24340,-85.6411415,42.9564115,gabby,1135282147,2020-02-17 20:57:22,Michigan,city,"Grand Rapids, MI",United States
160,-75.8932035,-14.260549,Carlos Eduardo,113528215,2020-05-04 15:20:18,"Ica, Peru",city,"Ica, Peru",Peru
21,-42.676103999999995,-13.265451,Iza  50ft ,1135282317503672326,2020-06-07 01:34:56,Macabas-BA Brazil,city,"Macabas, Brasil",Brasil
24,-52.829425,47.4826065,pizzapros420,1135282387280105473,2020-02-25 02:06:52,C1012,city,"St. John's, Newfoundland and Labrador",Canada
21,-43.0596095,-22.904549000000006,.,1135282592356417536,2020-04-14 20:48:30,,city,"Niteri, Brasil",Brasil
200,36.273239000000004,41.335993,Zemher Ziyangil,1135282990425284615,2020-02-18 19:31:29,Sicilya Kaza Bela Sokaklar,poi,Happy Moons,Turkey
11780,-80.93452049999998,41.85927150000001,Tony MCLAURIN,1135283064085630976,2020-02-20 20:16:20,,city,"Geneva-on-the-Lake, OH",United States
161,70.629917,30.013514500000003,id ,1135283152757374979,2020-02-26 17:04:16,,city,"Dera Ghazi Khan, Pakistan",Pakistan
26420,-95.4464865,29.838495,Pius,1135283166560866309,2020-02-21 01:31:31,"Houston, TX",city,"Houston, TX",United States
178,27.938714500000003,-26.625156,Lubnaa ,1135283181782011904,2020-02-19 15:15:08,South Africa,city,"Vereeniging, South Africa",South Africa
21,-42.8294125,-22.932913,,1135283381288263681,2020-02-26 01:07:27,outro patamar,city,"Maric, Brasil",Brasil
88,139.76868842,35.69117451,,113528339,2020-02-14 10:35:49,Ike Pouch,city, ,
205,-0.162698,51.499572,,1135283455703638017,2020-02-27 15:58:59,"London, England",poi,Harrods,United Kingdom
205,-2.9233275,53.042139,Helen.....Y,1135283513740144640,2020-03-20 21:15:45,,city,"Pentre Maelor, Wales",United Kingdom
21,-43.296872,-22.644558,LeehMaria,1135283578001133568,2020-02-14 04:23:02,"Jardim Olavo Bilac, So Joo d",city,"Duque de Caxias, Brasil",Brasil
40380,-77.4305,43.2132,Barley69,113528366,2020-02-16 01:09:46,Home of the true Cream Ale,city,"Webster, NY",United States
21,-43.709677500000005,-22.750747,,1135283693617143808,2020-06-04 16:04:32,,city,"Seropdica, Brasil",Brasil
