currentGEOID,lon,lat,name,author_Id,created_at,location,place_type,place_full_name,place_country
41860,-122.43597849999999,37.7706565,Li Jiang,746373226805235713,2020-04-30 15:55:22,"San Francisco, CA, United Stat",city,"San Francisco, CA",United States
19660,-81.068556,29.190223,mikky,746373279393292289,2020-05-30 22:17:07,,city,"Daytona Beach, FL",United States
22660,-105.06394250000001,40.5641905,Leslie,746373279837872129,2020-02-19 06:48:13,"Denver, CO",city,"Fort Collins, CO",United States
19740,-104.9220935,39.713563,Lvense las pinches manos,746373279837872129,2020-03-16 02:38:27,"Denver, CO",city,"Denver, CO",United States
26420,-95.087029,29.497157,rebecca,746373504,2020-02-18 05:55:53,"Texas, USA",city,"League City, TX",United States
35700,-110.9740955,31.469323,42 4C 4D,746373814905249792,2020-06-03 03:34:30,,city,"Rio Rico, AZ",United States
12580,-76.61640799999999,39.28593,Denise Daniels,746373947416018944,2020-02-20 12:10:58,"Washington, DC",poi,Baltimore Convention Center,United States
47900,-76.84886449999998,38.9265495,Denise Daniels,746373947416018944,2020-02-21 15:36:21,"Washington, DC",city,"Glenarden, MD",United States
18140,-82.91453800000001,40.148988,WS Girls BBall,746374058854473728,2020-02-16 04:41:55,"Westerville, OH",city,"Westerville, OH",United States
222,110.3451535,-7.736615,arif,746374201066430465,2020-05-13 16:18:14,,city,"Mlati, Indonesia",Indonesia
117,56.780384999999995,24.299498999999997,Lama Adil,746374750843314176,2020-02-23 03:47:02,"Sohar, Oman",poi,Sohar University |  , 
9,150.931975,-33.848244,Shane Brown,746374904,2020-06-04 08:07:01,Redfern,city,"Sydney, New South Wales",Australia
12420,-97.672732,30.519340500000002,Kim Connor,74637503,2020-03-25 17:00:21,,city,"Round Rock, TX",United States
37980,-75.46205649999999,39.8045805,Zenaida,74637551,2020-02-29 20:59:02,"Philadelphia,Gallifrey ",city,"Claymont, DE",United States
12060,-84.43310600000001,33.7671945,Mantis Toboggan,746375513795493888,2020-02-14 12:21:10,"Atlanta, GA",city,"Atlanta, GA",United States
31140,-85.72234549999999,38.195555,Mantis Toboggan,746375513795493888,2020-03-06 15:53:07,"Atlanta, GA",city,"Louisville, KY",United States
82,88.21768399999999,22.7089855,Sourav Chatterjee,746375605822853120,2020-02-17 14:43:06,"Haora, India",city,"Haora, India",India
37980,-75.117998,40.0048655,phong nguyen,74637583,2020-02-14 01:25:22,philly PA ,city,"Philadelphia, PA",United States
16980,-87.732013,41.8335845,Chanel,746376069813514240,2020-02-14 06:48:23,OutWest,city,"Chicago, IL",United States
88,139.704354,35.660416,,746376135945031680,2020-04-05 05:15:09,,poi,,
21,-46.736930799999996,-23.6364498,Piranha do amor,746376146007265281,2020-04-14 23:52:45,"So Paulo, Brasil",city,"So Paulo, Brasil",Brasil
31080,-118.132071,34.049352,byron,74637619,2020-03-31 02:38:28,United States,city,"Monterey Park, CA",United States
40140,-117.5621525,34.12167,Connor Givens,746376191112687616,2020-02-14 16:19:15,A galaxy far far away.....,city,"Rancho Cucamonga, CA",United States
31080,-117.747173,33.503541999999996,Connor Givens,746376191112687616,2020-02-17 01:13:53,A galaxy far far away.....,poi,Tablerock Beach,United States
40140,-117.5621525,34.12167,Connor Givens,746376191112687616,2020-02-18 06:51:30,A galaxy far far away.....,city,"Rancho Cucamonga, CA",United States
31080,-117.85108899999999,33.842863,Connor Givens,746376191112687616,2020-02-21 01:14:11,A galaxy far far away.....,city,"Anaheim, CA",United States
40140,-117.5621525,34.12167,Connor Givens,746376191112687616,2020-02-21 07:46:36,A galaxy far far away.....,city,"Rancho Cucamonga, CA",United States
46520,-157.799589,21.3199435,Connor Givens,746376191112687616,2020-03-20 00:05:24,A galaxy far far away.....,city,"Honolulu, HI",United States
40140,-117.5621525,34.12167,Connor Givens,746376191112687616,2020-03-24 22:49:07,A galaxy far far away.....,city,"Rancho Cucamonga, CA",United States
31080,-117.874032,33.617638,Connor Givens,746376191112687616,2020-05-09 05:01:53,A galaxy far far away.....,city,"Newport Beach, CA",United States
40140,-117.5621525,34.12167,Connor Givens,746376191112687616,2020-05-12 05:32:02,A galaxy far far away.....,city,"Rancho Cucamonga, CA",United States
31080,-117.9248925,33.8893475,Connor Givens,746376191112687616,2020-05-18 03:05:33,A galaxy far far away.....,city,"Fullerton, CA",United States
40140,-117.204053,34.270702,Connor Givens,746376191112687616,2020-05-19 06:42:14,A galaxy far far away.....,poi,High Grounds,United States
19100,-97.1342085,32.844933000000005,Helen Martin,746376362403868673,2020-02-14 04:25:11,"Bedford, TX",city,"Bedford, TX",United States
31080,-118.21873300000001,34.04265912,,746376372,2020-03-28 04:29:19,  ,city,"Los Angeles, CA",Estados Unidos
205,-0.0601675,51.5476445,Focal UK,746377173079031808,2020-04-07 19:16:41,United Kingdom,city,"Hackney, London",United Kingdom
17140,-84.53981250000002,39.137038,"Juan R Guardia, PhD",746377300225064960,2020-02-14 00:06:13,"Cincinnati, OH",city,"Cincinnati, OH",United States
31080,-118.4119065,34.0207895,"Juan R Guardia, PhD",746377300225064960,2020-03-12 15:33:13,"Cincinnati, OH",city,"Los Angeles, CA",United States
17140,-84.53981250000002,39.137038,"Juan R Guardia, PhD",746377300225064960,2020-03-17 12:50:28,"Cincinnati, OH",city,"Cincinnati, OH",United States
21,-50.95625800000001,-29.890708,Liliane Moraes,74637731,2020-03-15 21:50:10,Rio Grande do Sul - Brasil,city,"Gravata, Brasil",Brasil
16700,-80.17241,32.999978999999996,John Edward,746377446467997696,2020-03-27 12:25:49,"Summerville, SC",city,"Summerville, SC",United States
35620,-74.328959,40.7880615,Genevieve Gramatica,74637763,2020-02-21 20:34:36,"West Orange, NJ",city,"Livingston, NJ",United States
21,-49.21104641,-25.53339301,G,746377731647102977,2020-03-15 18:10:41,"So Jos dos Pinhais, Brasil",city,"So Jos dos Pinhais, Brasil",Brasil
82,84.0916,18.7807,Debasish pattnaik,746377828455702528,2020-02-22 11:31:53,odisha,city,"Parlakhemundi, India",India
38,-74.849933,10.958072999999999,AJVR,746377943287533574,2020-02-15 05:23:33,Barranquilla-Aguachica,city,"Barranquilla, Colombia",Colombia
186,-0.55323,42.56638,Exmarlo,746377988137189376,2020-02-19 12:13:19,"/Miguel Servet5 Huesca, Espaa",city,"Jaca, Espaa",Espaa
88,139.697729,35.696127000000004,U,746378142,2020-02-28 09:58:21,,poi, ,
175,39.8016865,21.389833000000007,     ,746378209294426112,2020-03-01 15:58:24,,city,"Makkah Al Mukarrama, Kingdom of Saudi Arabia",Kingdom of Saudi Arabia
31080,-118.38356399999999,34.090723,Avery Gladstone,746378430,2020-02-15 02:03:33,,poi,Tower Records,United States
88,140.588519,37.76685,,746378460394729473,2020-04-24 12:12:18, ,poi, ,
85,14.38152204,41.04272428,KromLabro FabLab,746378468762488832,2020-05-19 16:50:30,"Maddaloni, Campania",city,"Maddaloni, Campania",Italia
21,-44.080921999999994,-22.524347,nicleyton,746378555764969472,2020-02-15 14:02:55,"Volta Redonda, Brasil",city,"Volta Redonda, Brasil",Brasil
21,-43.1966775,-22.623777,J.,746379498254442497,2020-03-15 01:34:51,Arglia City ,neighborhood,"Parada Anglica, Duque de Caxias",Brasil
28660,-97.4820995,31.077448999999998,Stan Tall,746379668194897920,2020-03-17 19:32:25,United States,city,"Belton, TX",United States
71,7.0833,51.1667,House of Knives,74637972,2020-02-17 16:47:41,"BC, Alberta, and Online",city,"Solingen, Deutschland",Germany
24,-122.99897050000001,49.3539635,House of Knives,74637972,2020-03-14 08:02:20,"BC, Alberta, and Online",city,"North Vancouver, British Columbia",Canada
120,101.696438,2.9312905, ,746379855575453697,2020-03-17 11:46:38,"Putrajaya, Wilayah Persekutuan",city,"Putrajaya, Putrajaya Federal Territory",Malaysia
119,-107.46411,24.803194,Gerardo LLanes,746379876794437632,2020-02-20 04:25:55,Culiacn ,poi,Wingman Wings Beer & Sports,Mxico
88,134.3772345,34.7891625,,746380007887372288,2020-03-10 11:05:15,,city,"Ako-shi, Hyogo",Japan
171,121.01080300000001,14.483414000000002,#DefendPressFreedom,746380301123805185,2020-05-21 04:28:24,,city,"Paranaque City, National Capital Region",Republic of the Philippines
21,-43.441578,-22.911421500000003,ray lira ,746380488948989952,2020-02-14 01:18:50,"Pavuna, Rio de Janeiro",city,"Rio de Janeiro, Brasil",Brasil
12060,-83.99920399999998,33.950635,African_queenely,746380743253843969,2020-02-26 02:43:35,"Atlanta, GA",city,"Lawrenceville, GA",United States
21,-43.567510999999996,-22.892682,,746380852398010368,2020-02-26 04:41:31,"Cosmos, Rio de Janeiro",poi,Vila Magali,Brasil
33660,-88.16155549999998,30.683649,Rho Ridge,746380961714044928,2020-03-27 05:35:02,"Theodore, AL",city,"Mobile, AL",United States
175,46.685077,24.7219435,iBRA     ,746380968555126784,2020-02-14 09:52:04,,city,"Riyadh, Kingdom of Saudi Arabia",Kingdom of Saudi Arabia
44540,-103.205759,40.627351,Eric Johnson @ Home in CO,746381005284605952,2020-02-15 17:01:51,"Johnstown, CO",city,"Sterling, CO",United States
24540,-104.933628,40.320190000000004,Eric Johnson @ Home in CO,746381005284605952,2020-02-16 00:31:30,"Johnstown, CO",city,"Johnstown, CO",United States
19740,-104.9220935,39.713563,Eric Johnson @ Home in CO,746381005284605952,2020-02-22 19:31:14,"Johnstown, CO",city,"Denver, CO",United States
24540,-104.933628,40.320190000000004,Eric Johnson @ Home in CO,746381005284605952,2020-02-23 21:10:15,"Johnstown, CO",city,"Johnstown, CO",United States
12060,-84.4703885,33.6312775,Eric Johnson @ Home in CO,746381005284605952,2020-02-26 16:57:05,"Johnstown, CO",city,"College Park, GA",United States
34980,-86.791549,36.200008000000004,Eric Johnson @ ServerlessDays Nashville,746381005284605952,2020-02-27 12:33:19,"Johnstown, CO",city,"Nashville, TN",United States
19820,-83.376154,42.223741499999996,Eric Johnson @ ServerlessDays Nashville,746381005284605952,2020-02-28 17:01:15,"Johnstown, CO",city,"Romulus, MI",United States
24540,-104.933628,40.320190000000004,Eric Johnson @ Goto Oslo,746381005284605952,2020-02-29 07:59:30,"Johnstown, CO",city,"Johnstown, CO",United States
22660,-105.07490800000001,40.4093735,EJ | #ServerlessForEveryone,746381005284605952,2020-05-20 23:25:17,"Johnstown, CO",city,"Loveland, CO",United States
24540,-104.933628,40.320190000000004,EJ | #ServerlessForEveryone,746381005284605952,2020-05-21 21:47:28,"Johnstown, CO",city,"Johnstown, CO",United States
22660,-105.07490800000001,40.4093735,EJ | #ServerlessForEveryone,746381005284605952,2020-05-26 21:25:22,"Johnstown, CO",city,"Loveland, CO",United States
24540,-104.933628,40.320190000000004,EJ | #ServerlessForEveryone,746381005284605952,2020-05-28 12:49:37,"Johnstown, CO",city,"Johnstown, CO",United States
175,42.533355,18.303816,,746381228023111680,2020-05-03 16:21:36,",   ",city,",   ",  
28140,-94.3782315,38.916093,Corey Willich,746381419035795456,2020-03-08 15:03:47,"Blue Springs, MO",city,"Lee's Summit, MO",United States
23860,-79.052199,33.54781,Corey Willich,746381419035795456,2020-03-20 00:31:06,"Blue Springs, MO",city,"Murrells Inlet, SC",United States
28140,-94.3782315,38.916093,Corey Willich,746381419035795456,2020-06-08 23:03:10,"Blue Springs, MO",city,"Lee's Summit, MO",United States
205,-2.720998,52.8558025,Russfodahh FTLOG,746381443169935360,2020-02-17 08:35:33,"West Midlands, England",city,"Wem, England",United Kingdom
175,47.457722,24.201688,A.,746381516,2020-05-21 04:06:09,,city,",   ",  
37980,-75.167874,39.953453,Jess,746381570,2020-03-14 20:16:25,,poi,Concourse Dance Club,United States
20700,-75.3600215,41.1248985,Jess,746381570,2020-03-15 19:54:49,,city,"Mount Pocono, PA",United States
35620,-73.9685415,40.780709,Jess,746381570,2020-03-15 23:53:48,,city,"Manhattan, NY",United States
20700,-75.3600215,41.1248985,Jess,746381570,2020-03-21 04:17:50,,city,"Mount Pocono, PA",United States
24,-122.99897050000001,49.3539635,UBC Women's Soccer,746381729858871297,2020-02-14 03:39:08,"Vancouver, British Columbia",city,"North Vancouver, British Columbia",Canada
200,29.0052225,41.0213205,merve,746381852072640512,2020-02-19 22:50:29,,city,"stanbul, Trkiye",Trkiye
19100,-96.7617535,32.819858499999995,Bryan Gelbke,746381978,2020-02-14 14:54:23,"Flower Mound, TX",city,"Dallas, TX",United States
36540,-96.053431,41.275721,Gil Balboa,74638214,2020-02-20 19:02:27,,city,"Omaha, NE",United States
175,49.6276765,25.458642, ,746382200795443201,2020-03-04 00:05:48,,city,"Ahsa, Kingdom of Saudi Arabia",Kingdom of Saudi Arabia
21,-51.057101,-29.733833500000003,Luiz Felipe,746383048627884033,2020-04-02 03:22:12,"Novo Hamburgo, Brasil",city,"Novo Hamburgo, Brasil",Brasil
88,137.26191550000001,34.951125000000005,,746383135571480576,2020-03-27 17:25:16,twenty three,city,"Okazaki-shi, Aichi",Japan
17200,-72.3496715,43.363124,Joe Carton,746383227812732929,2020-02-15 00:08:47,"Claremont, NH",city,"Claremont, NH",United States
82,83.56311500000002,25.945049500000003,  ,746383525474099200,2020-03-28 02:21:24,,city,"Mau, India",India
205,-1.3761375,52.5392095,Alileigh,746383529160884225,2020-02-14 20:41:36,"Hinckley, England",city,"Hinckley, England",United Kingdom
200,29.0052225,41.0213205,Burhan Yldrm,746383592004141056,2020-04-26 18:35:24,,city,"stanbul, Trkiye",Turkey
175,39.2541285,21.5857105,,74638378,2020-02-21 12:59:04,Jeddah,city,"Jeddah, Kingdom of Saudi Arabia",Kingdom of Saudi Arabia
175,39.2541285,21.5857105,Student Affairs,746383781343432705,2020-02-25 10:44:04,JEDDAH,city,"Jeddah, Kingdom of Saudi Arabia",Kingdom of Saudi Arabia
65,1.4467,45.140569899999996,AXA S. LAURENSOU,746383924855713792,2020-02-16 20:31:42,"Terrasson-Lavilledieu, France",city,"Saint-Pantalon-de-Larche, France",France
47900,-77.0143985,38.898603,DT,74638395,2020-04-12 04:46:03,"Washington, DC",city,"Washington, DC",United States
88,135.52989501,34.66603897,,746383985157124096,2020-04-24 04:41:40, ,city,  ,
119,-100.196134,25.6766035,Preparatoria IEVYT,746384196210298880,2020-02-19 20:00:35,,city,"Guadalupe, Nuevo Len",Mxico
21,-52.44186600000001,-29.6005305,Otto Tesche,74638424,2020-02-14 12:46:14,Sta. Cruz/RS/Brasil,city,"Santa Cruz do Sul, Brasil",Brasil
41740,-117.10498899999999,32.810012,Hilda Martinez,746384345129058304,2020-03-05 17:59:04,"Chula Vista, CA",city,"San Diego, CA",United States
21,-46.5313,-24.03485,Paranoica ,746384355392618496,2020-05-19 22:03:44,In your heart,city,"Praia Grande, Brasil",Brasil
8,-58.013021499999994,-34.9363185,milena,746384516,2020-03-26 23:07:31,La plata,city,"La Plata, Argentina",Argentina
39,-84.34818299999999,10.095363,#PisosConEstilo,746384544857788416,2020-02-17 11:55:15,Costa Rica,poi,Escuela Sarchi Norte,Costa Rica
21,-51.0952005,-29.918787,Willian,746384557205757952,2020-03-09 23:06:06,"Rio Grande do Sul, Brasil",city,"Cachoeirinha, Brasil",Brasil
29820,-115.17815800000001,36.102748,Reilly,746384661123764224,2020-02-29 02:49:23,,poi,T-Mobile Arena,United States
41860,-122.43597849999999,37.7706565,Reilly,746384661123764224,2020-03-26 14:38:37,,city,"San Francisco, CA",United States
208,-56.235578000000004,-34.867579,Mariapa,746384696595087360,2020-02-28 21:39:47,,poi,Plaza Lafone,Uruguay
86,-5.23056,6.881092,Le AKEB,746384865898135552,2020-02-22 04:43:06,Cte d'Ivoire,poi,INPHB (Centre),Cte d'Ivoire
46060,-110.91557350000001,32.1893905,Daniel,746384906276638720,2020-03-25 22:27:01,,city,"Tucson, AZ",United States
186,-3.7035075,40.4777945,lvaro Ramn Prats,746385127593414656,2020-02-16 12:57:19,"Madrid, Comunidad de Madrid",city,"Madrid, Espaa",Espaa
21,-43.297478999999996,-22.988633,R9 ,746385456183508992,2020-04-27 22:16:08,CPX DO MORRO DO BANCO,poi,Morro do Banco,Brasil
11680,-97.03291800000001,37.0693945,val ,746385491281346560,2020-02-18 03:15:57,,city,"Arkansas City, KS",United States
119,-99.5442,18.36542, haza ,746385498,2020-02-21 06:11:54,Iguala de la Independencia,city,"Iguala de la Independencia, Guerrero",Mxico
11460,-83.5515115,42.158508000000005,Nate Hoffman,746385636031074305,2020-02-22 20:39:06,,city,"Willis, MI",United States
19820,-83.26079449999999,42.146817999999996,Nate Hoffman,746385636031074305,2020-04-23 23:21:18,,city,"Woodhaven, MI",United States
45300,-82.44269399999997,27.9965945,Raeann,746385693727928320,2020-03-01 20:29:25,"Tampa, FL",city,"Tampa, FL",United States
222,110.4050255,-7.712573,blackelegante,74638581,2020-03-13 12:25:05,"Mampang Prapatan, Indonesia",city,"Ngaglik, Indonesia",Indonesia
222,106.83129950000001,-6.332802,  ,74638583,2020-03-28 08:04:56,Indonesia,city,"Jagakarsa, Indonesia",Indonesia
38,-76.67783299999998,3.4212985000000002,Jhon Du,746385898233802752,2020-04-06 22:11:55,"Valle del Cauca, Colombia",city,"Cali, Colombia",Colombia
21,-51.0214005,-30.003961,@ M A R L E Y.zada ,746385900268027908,2020-04-05 22:49:14,Alvorada,city,"Alvorada, Brasil",Brasil
21,-43.53898,-22.1700745,Ruane,746385915308871681,2020-02-14 06:02:09,"Rio das Flores, Brasil",city,"Rio das Flores, Brasil",Brasil
193,100.571395,13.824527,yyy.,746386023555358720,2020-02-25 02:36:55,"Bangkok, Thailand",poi, ( 26),Thailand
119,-99.2480095,19.318042000000002,,746386153,2020-03-16 18:19:25,,city,"lvaro Obregn, Distrito Federal",Mxico
175,39.2541285,21.5857105,a.12,746386209342164992,2020-03-21 07:35:48,,city,",   ",  
203,39.212680999999996,-6.137112,JUMA I. ALLI,746386287687499776,2020-05-27 14:56:24,"Dar es Salaam, Tanzania",poi,Mtoni Marine,Tanzania
41860,-122.0664725,37.715782,Ian Poole,746386376,2020-03-14 04:54:31,"Bay Area, California",city,"Castro Valley, CA",United States
88,139.6262955,35.69816249999999,DEE,746386762725920768,2020-03-14 12:26:04,,city, ,
200,29.0052225,41.0213205,mert,746386867470340096,2020-02-17 15:52:07,seksenbir,city,"stanbul, Trkiye",Turkey
88,139.906019,35.6447025,Folz,74638692,2020-02-19 23:17:00,"Islands District, Hong Kong",city,"Urayasu-shi, Chiba",Japan
45300,-82.7428735,27.7205685,Folz,74638692,2020-05-03 03:03:17,"Tokyo-to, Japan",city,"St Pete Beach, FL",United States
26420,-95.4464865,29.838495,Tischia,746387015898259457,2020-02-19 12:38:03,"Texas, USA",city,"Houston, TX",United States
35620,-74.05779749999998,41.557858,Erica Lupien,746387157988802560,2020-04-09 00:38:36,"Cornwall-on-Hudson, NY",city,"Gardnertown, NY",United States
24140,-78.06150699999999,35.431326,Tikka,746387182143836160,2020-04-22 20:40:28,"Gaylord, MI",poi,Subway,United States
35620,-74.319896,40.786952,Tikka,746387182143836160,2020-06-05 20:09:00,"Gaylord, MI",poi,Livingston Basketball Courts,United States
175,49.684975,26.928042,Pramod Kumar Behera,746387396439248896,2020-03-21 18:36:43,Kingdom of Saudi Arabia,city,"Jubail, Kingdom of Saudi Arabia",Kingdom of Saudi Arabia
65,7.745025999999999,48.578841, ,746387466,2020-06-02 19:15:33,,poi,Le Bistrot des Copains,France
8,-67.020125,-27.664224,Sebastian Vergara,746387851772891136,2020-02-27 00:30:24,,poi,Belen,Argentina
178,18.420039000000003,-33.90462,Queen Ana ,746388000100212736,2020-03-11 06:17:11,"Cape Town, South Africa ",poi,V&A Waterfront,South Africa
205,-0.1277887,51.51965815, ,746388007456907264,2020-02-14 04:44:33,Mxico,city,"Camden Town, London",Reino Unido
119,-103.4847745,20.790657000000003,Lilia,746388223069282312,2020-04-18 09:39:13,,city,"Zapopan, Jalisco",Mexico
222,111.9538255,-6.8853634999999995,mohamadma'ruf,746388684576985092,2020-05-29 15:07:59,Indonesia,city,"Merakurak, Indonesia",Indonesia
33460,-93.39284881,45.16621099,Stacie Leigh,746389104,2020-02-20 00:22:14,,city,"Champlin, MN",United States
31860,-94.01144000000001,44.146570000000004,Stacie Leigh,746389104,2020-03-31 21:31:36,,city,"Mankato, MN",United States
186,-0.956809,37.632515999999995,Mery ,746389346731888640,2020-02-17 15:33:23,"Cartagena, Espaa",city,"Cartagena, Espaa",Espaa
12740,-72.5981195,44.15253213,Verno Mark Pietersen,746389632544284672,2020-03-29 10:41:37,"Stellenbosch, South Africa",city,"Montpelier, VT",United States
175,39.6540485,24.462089000000002, ,746389647295676416,2020-02-17 08:04:11,  ,city," ,   ",  
31080,-117.859826,34.098904,Cruz Anthony Rubio,746389912719495168,2020-02-19 19:01:46,"Orange, CA",poi,Charter Oak High School,United States
82,80.88440750000002,26.8251695, ,746389924740358144,2020-03-09 09:05:35,"Lucknow, India",city,"Lucknow, India",India
27140,-90.16930699999999,32.168308499999995,Lil Nasty,746390107968704512,2020-03-07 00:22:43,"Flowood, MS",city,"Cleary, MS",United States
35620,-73.9487755,40.655138,Harry,746390246066098176,2020-03-05 21:22:23,,city,"Brooklyn, NY",United States
21,-44.938354499999996,-20.9185225,newber ,746390862335188992,2020-03-30 03:47:23,"Santo Antnio do Amparo, Brasil",city,"Santo Antnio do Amparo, Brasil",Brazil
163,-79.37262199999999,9.102783,#locoo,746390923647410176,2020-02-15 21:26:08,Coln ,poi,cabuya,Panam
96,48.053652,29.197883,,746391087523241984,2020-02-15 14:07:05,,city,"Al Wusta, Kuwait",Kuwait
88,137.9336715,35.724376,Yasuko.K,746391095018291201,2020-02-14 10:25:45,,city, ,
31080,-117.824049,33.810159000000006,dumb bitch extraordinare,746391307849895936,2020-02-14 07:44:04,Hell,city,"Orange, CA",United States
88,139.062173,37.883864,peshiro,74639132,2020-04-04 06:29:50,,poi, (),
82,80.91415500000001,25.217892000000003,tomar Kushwaha,746391449848078337,2020-06-02 08:51:50,"Uttar Pradesh, India",city,"Chitrakoot Dham, India",India
35620,-74.15065,41.06831800000001,Austin P. Duke,746391563786391553,2020-02-14 03:36:40,"Charlotte, NC",city,"Mahwah, NJ",United States
47900,-77.0143985,38.898603,Austin P. Duke,746391563786391553,2020-02-15 22:16:28,"Charlotte, NC",city,"Washington, DC",United States
12580,-76.62048200000002,39.284713,Austin P. Duke,746391563786391553,2020-02-15 23:59:46,"Charlotte, NC",city,"Baltimore, MD",United States
37980,-75.75609850000002,39.67909349999999,Austin P. Duke,746391563786391553,2020-02-16 00:49:57,"Charlotte, NC",city,"Newark, DE",United States
35620,-74.15065,41.06831800000001,Austin P. Duke,746391563786391553,2020-02-16 20:43:02,"Charlotte, NC",city,"Mahwah, NJ",United States
41180,-90.517684,38.7930465,Austin P. Duke,746391563786391553,2020-02-22 23:23:35,"Charlotte, NC",city,"St Charles, MO",United States
35620,-74.0960495,40.902759499999995,Austin P. Duke,746391563786391553,2020-02-24 03:48:49,"Charlotte, NC",city,"Saddle Brook, NJ",United States
16740,-80.8467855,35.209059,Austin P. Duke,746391563786391553,2020-03-14 03:11:25,"Charlotte, NC",city,"Charlotte, NC",United States
205,-0.9820305,51.452524,Stef,74639161,2020-03-06 19:50:19,"Reading, England",city,"Reading, England",United Kingdom
19100,-96.7617535,32.819858499999995,lorena,746392020,2020-02-16 05:42:15,Dallas ,city,"Dallas, TX",United States
8,-69.3501444,-32.6100085,Ezee Montaa,746392094005149696,2020-06-04 16:19:14,"Mendoza, Argentina",poi,Uspallata,Argentina
222,110.54700556,-8.00918931,Maz Nung,746392101709983745,2020-06-05 11:26:46,"Yogyakarta, Indonesia",city,"Paliyan, Indonesia",Indonesia
37980,-75.240765,39.876128,Vincent J Carnuccio,746392592506568704,2020-02-18 21:12:10,,poi,Philadelphia International Airport (PHL),United States
82,78.11391549999998,29.8714325,aneesh kumar,746393046024069121,2020-05-31 21:55:52,,city,"Haridwar, India",India
22180,-78.98787850000001,35.1413975,1K4L,746393171681218560,2020-02-17 14:30:26,,city,"Fort Bragg, NC",United States
8,-56.69164,-36.54087,p a b l ,746393468344336384,2020-05-03 20:46:51,Santa Teresita - La Plata,city,"La Costa, Argentina",Argentina
41740,-117.10498899999999,32.810012,Dionne Cheeks,74639350,2020-02-29 21:42:04,Fredericksburg,city,"San Diego, CA",United States
40060,-77.504964,37.6105755,Dionne Cheeks,74639350,2020-03-05 13:29:15,Fredericksburg,city,"Dumbarton, VA",United States
46140,-95.913642,36.1093915,Caroline Lee,746393546,2020-02-14 09:12:55,"Tulsa, OK",city,"Tulsa, OK",United States
186,-5.1201095,37.236882,Mnica Gutirrez,746393736347803648,2020-04-05 21:43:31,"Osuna, Espaa",city,"Osuna, Espaa",Espaa
88,139.641649,35.999559000000005,,74639393,2020-04-01 09:08:49,,city, ,
43340,-93.809434,32.461107,T.L. wit da Drip,746393941205880834,2020-02-14 03:28:35,On Ya Mind,city,"Shreveport, LA",United States
19740,-104.9775855,39.809643,_,746394073880113152,2020-03-02 14:34:55,Estados Unidos,city,"North Washington, CO",Estados Unidos
82,80.88440750000002,26.8251695,Naushad Khan,746394085783642112,2020-04-20 14:29:16,"Lucknow, India",city,"Lucknow, India",India
82,79.46282099999999,11.609983,soundar,746394168,2020-04-18 11:17:24,"Neyveli, India",poi,Sub court,India
205,-4.8346595,50.516178000000004,Lyndalou,746394368412626944,2020-02-28 23:57:03,"Bodmin, England",city,"Wadebridge, England",United Kingdom
88,139.75636450000002,35.68688450000001,,746394428491718656,2020-02-14 05:08:26,,city,"Chiyoda-ku, Tokyo",Japan
175,39.610759,24.468612,,746394482732597248,2020-02-14 14:48:38,,poi,Al-Masjid Al-Nabawi |  ,Kingdom of Saudi Arabia
21,-52.548291000000006,-22.8738385,amanciao,746395020178169857,2020-05-21 13:48:36,,city,"Paranava, Brasil",Brasil
41860,-122.45269850000001,37.67877950000001,Marian Yu,74639520,2020-04-25 17:15:49,,city,"Daly City, CA",United States
175,46.0327485,28.350082500000003, ,746395315343867904,2020-05-24 01:44:34,  ,city," ,   ",  
41700,-98.5406515,29.417501,2 ,746395323304677376,2020-02-19 03:58:33,"San Antonio, TX",city,"San Antonio, TX",United States
88,135.56712249999998,34.6127395,,746395437221851136,2020-06-03 22:15:31,  ,city,  ,
21060,-85.85843819,37.72388919,Tanya Seabrooks,74639593,2020-03-06 04:12:02,Kentucky,city,"Elizabethtown, KY",United States
19740,-104.98360001,39.7391,Puksta Foundation,746395994,2020-03-09 16:41:56,"Denver, CO",city,"Denver, CO",United States
200,36.9317,37.5875,Burhan ARSLAN,746396628,2020-04-02 12:16:05,Kahramanmara Merkez,city,"Kahramanmara, Trkiye",Trkiye
33100,-80.23324400000001,26.624907500000003,Samocnj,746396632036544512,2020-02-21 22:21:51,,city,"Wellington, FL",United States
37980,-74.9465495,40.016739,Samocnj,746396632036544512,2020-05-31 16:45:55,,city,"Delran, NJ",United States
36140,-74.60294499999999,39.25661,Samocnj,746396632036544512,2020-05-31 22:08:04,,city,"Ocean City, NJ",United States
205,0.028732,51.508355,chlo,746396639187836928,2020-02-26 10:41:37,"Sunderland, England",poi,ExCeL London,United Kingdom
222,106.6016645,-6.292148, ,74639694,2020-02-17 01:49:58,South Jakarta,city,"Legok, Indonesia",Indonesia
47900,-77.10199899999999,38.8808445,Luis Maldonado,746397283,2020-03-07 23:08:12,,city,"Arlington, VA",United States
175,46.685077,24.7219435,   ,746397540451483648,2020-02-25 18:33:55,,city,"Riyadh, Kingdom of Saudi Arabia",Kingdom of Saudi Arabia
16980,-87.783253,41.71555,mars,74639779,2020-02-19 19:50:29,,poi,Food Court - Chicago Ridge Mall,United States
8,-58.442643,-34.604315,Luis Moncada (+30% Solidario),74639815,2020-02-14 09:43:16,"Buenos Aires, Argentina",city,"Ciudad Autnoma de Buenos Aires, Argentina",Argentina
21,-46.8823285,-23.5110285,Luis Moncada (+30% Solidario),74639815,2020-02-18 12:32:18,"Buenos Aires, Argentina",city,"Barueri, Brasil",Brazil
8,-58.442643,-34.604315,Luis Moncada (+30% Solidario),74639815,2020-02-23 00:30:55,"Buenos Aires, Argentina",city,"Ciudad Autnoma de Buenos Aires, Argentina",Argentina
35620,-74.37799799999998,40.5387865,Big Boss Zalo ,746398236789907456,2020-02-16 19:17:48,Hell ,city,"Edison, NJ",United States
33100,-80.2333285,25.7823535,Big Boss Zalo ,746398236789907456,2020-03-09 23:05:17,Hell ,city,"Miami, FL",United States
35620,-74.229107,40.693259000000005,Big Boss Zalo ,746398236789907456,2020-03-30 14:26:48,Hell ,city,"Hillside, NJ",United States
21,-36.557327,-8.367769000000001,-,746398604613529600,2020-02-14 00:01:33,"Sanhar, Brasil",city,"Sanhar, Brasil",Brasil
30,113.315836,23.137143,,746399138670010368,2020-05-27 17:12:34,", ",poi,UNIQLO ,
205,-2.4563335000000004,53.044979500000004,Beth Alexander,746399438583758848,2020-02-23 18:07:31,"North West, England",city,"Wybunbury, England",United Kingdom
175,41.687540000000006,27.508333500000003, ,746399450,2020-05-19 23:56:56,"Hail, Kingdom of Saudi Arabia",city,",   ",  
205,-2.366933,51.3796495,Jewel Brigden,746399510432186368,2020-02-14 20:54:27,Bath Somerset,city,"Bath, England",United Kingdom
45940,-74.665028,40.34965,Raeid Saqur,74639968,2020-02-16 03:32:00,"Princeton, NJ",city,"Princeton, NJ",United States
151,3.394647,6.485549,Timmy,746399757799669761,2020-04-27 22:33:12,"Lagos,Nigeria",poi,Third Mainland Bridge,Nigeria
222,106.719417,-6.2665074999999995,Budi Juniarto,74640001,2020-02-23 10:45:56,Indonesia,city,"Pondok Aren, Indonesia",Indonesia
71,8.224111,52.261636,Philipp Richter,746400182594580480,2020-02-19 10:35:42,Osnabrck/Ibbenbren,city,"Bissendorf, Deutschland",Deutschland
205,-0.1937195,51.4516565,,746400455429922816,2020-03-08 21:18:53,South London,city,"Wandsworth, London",United Kingdom
175,43.483932,25.872870000000002,Zayed,746400472660054016,2020-05-27 17:30:27,Qassim,poi,Wings Specialty Coffee,Kingdom of Saudi Arabia
33,-70.60265749999998,-33.454414,Efran Coello,74640081,2020-06-01 20:53:28,"Santiago, Chile",city,"uoa, Chile",Chile
171,120.5884405,16.402279999999998,Dan Tery,746400881659117568,2020-02-15 08:23:36,,city,"Baguio City, Cordillera Admin Region",Republic of the Philippines
71,8.571769999999999,50.1409,Brbel Grade,746400883945148416,2020-03-13 14:13:28,Eschborn,city,"Eschborn, Deutschland",Deutschland
21,-43.441578,-22.911421500000003,Pode sim,746400975322218496,2020-05-26 20:29:01,"Rio de Janeiro, Brasil",city,"Rio de Janeiro, Brazil",Brazil
178,25.318755,-27.186711499999998,Bigboy,746401065206226944,2020-03-03 14:28:32,South Africa,city,"Schweizer-Reneke, South Africa",South Africa
31080,-117.896662,34.0471795,anais,746401272882827264,2020-02-14 03:09:30,with Jordan,city,"West Covina, CA",United States
33,-71.51564599999999,-33.0263575,La Antona,746401327,2020-03-15 01:52:14,"Via del Mar, Chile",city,"Via del Mar, Chile",Chile
24,-113.49261750000001,53.5558195,Dinuka Gunaratne,746401789,2020-05-27 15:39:04,Guelph ON Canada ,city,"Edmonton, Alberta",Canada
119,-91.6332875,18.4528265,ADDA LUZ FERRER G.,746401814,2020-04-16 04:41:23,"Cd. del Carmen, Campeche.",city,"Carmen, Campeche",Mxico
171,121.0627355,14.683012,Ayaannn,746401854,2020-02-23 16:30:12,UP Diliman,city,"Quezon City, National Capital Region",Republic of the Philippines
47900,-77.036562,38.897804,Amazon,746402006349189120,2020-05-31 20:09:07,,poi,The White House,United States
220,28.059028,-14.801829000000001,Chiboni Jr,746402175002238976,2020-03-06 15:39:30,"Lusaka, Zambia",poi,Banani International School,Zambia
16700,-80.17241,32.999978999999996,Amanda Metzger,746402413,2020-02-26 14:53:06,"Summerville, SC",city,"Summerville, SC",United States
36700,-80.89277799999998,33.472833,Amanda Metzger,746402413,2020-05-25 00:06:14,"Summerville, SC",city,"Edisto, SC",United States
16700,-80.17241,32.999978999999996,Amanda Metzger,746402413,2020-05-25 19:03:01,"Summerville, SC",city,"Summerville, SC",United States
175,39.2541285,21.5857105, .,746402850,2020-02-26 09:18:50,,city,",   ",  
31080,-117.7823605,33.689732,danica,746403091486908416,2020-04-29 13:17:03,United States,city,"Irvine, CA",United States
21,-41.681049,-6.6813365000000005,  Cielma sousa  ,746403245430607876,2020-02-14 14:06:27,"Costa Rica, Brasil",city,"Inhuma, Brasil",Brasil
33,-72.021691,-46.119181,Edgar Bair,746403463,2020-03-05 01:56:42,"Rancagua, Chile",poi,Reserva Nacional Cerro Castillo,Chile
200,39.197963,38.667615500000004,Sumeyye Aytekin,746403553342791680,2020-03-13 12:30:38,,city,"Elaz, Trkiye",Trkiye
31080,-118.5032585,34.415631,Doug LeBow,74640360,2020-03-18 04:01:27,"Santa Clarita, CA, USA",city,"Santa Clarita, CA",United States
161,74.3584865,31.5318195,Muhammad Asif,74640379,2020-04-07 15:18:42,Pakistan,city,"Lahore, Pakistan",Pakistan
42200,-120.088,34.6119,Tyson Venegas,746404112942522369,2020-05-14 06:15:53,,city,"Santa Ynez, CA",United States
175,46.685077,24.7219435,,746404253552476160,2020-05-20 09:28:22,,city,",   ",  
16980,-88.330488,41.8412275,Reilly Corken,746404314319585280,2020-03-10 01:48:52,"Batavia, IL",city,"Batavia, IL",United States
120,103.838094,1.5254035,Tasya,746404411,2020-02-15 17:46:35,Malaysia,city,"Plentong, Johor",Malaysia
152,6.565489,52.991241,Henriette Annita Tischler van Sleen,746404666481741824,2020-03-04 12:14:37,"Assen, Nederland",neighborhood,"Overcingel, Assen",Nederland
38,-74.24367099999999,4.2622835,.,746405012591484929,2020-03-16 16:44:02,,city,"Bogot, D.C., Colombia",Colombia
171,123.846722,10.3748325,rey labra,746405238,2020-05-14 05:16:44,philippines,city,"Cebu City, Central Visayas",Republic of the Philippines
19660,-81.28779750000002,28.930184999999998,Ricardo Melendez,746405287,2020-03-18 13:23:38,"DeLand, FL",city,"Orange City, FL",United States
71,8.780887499999999,50.092196,Brko ,746405629372207104,2020-02-18 21:20:59,"Offenbach am Main, Germany",city,"Offenbach am Main, Deutschland",Deutschland
33,-70.6667,-33.45,RENUNCIA PIERA,74640616,2020-02-17 11:40:54,Winterfell,city,"Santiago, Chile",Chile
222,105.266667,-5.45,Tri Riya Anggraini,746406186,2020-04-07 13:38:48,Palembang,city,"Teluk Betung Selatan, Indonesia",Indonesia
175,46.685077,24.7219435,SB,746406214569984000,2020-02-25 20:07:10,Riyadh,city,"Riyadh, Kingdom of Saudi Arabia",Kingdom of Saudi Arabia
205,0.665429,51.352605,Claire Fox,746406763038027779,2020-04-17 19:40:30,"West Essex, UK",city,"Newington, England",United Kingdom
42660,-122.3306025,47.614816999999995,Nkknn,746407044308041728,2020-02-18 06:29:57,"Seattle, WA",city,"Seattle, WA",United States
85,9.3043875,45.442339,Patricia Daenne Capuchino ,746407088,2020-02-14 18:41:11,,city,"Peschiera Borromeo, Lombardia",Italy
120,101.73234349,2.97206082,K A M A,746407146246418432,2020-03-06 04:53:49,"Johor Bahru, Johor",city,"Dengkil, Selangor",Malaysia
19100,-96.961483,32.863917,Alejo ,746407333748576258,2020-03-31 05:06:19,"Irving, TX",city,"Irving, TX",United States
175,46.705975,24.817367,Az.,746407424,2020-03-05 06:14:39,   ,poi,College of Economics and Administrative Sciences |    ,  
242,121.561476,25.085756,Pop Pop Pop,746407450262278145,2020-02-14 09:33:14,"#garderie, #6clan #package",city,"Ville de Taipei, Tawan",Tawan
16980,-88.1613215,41.748496,Andy Hollinger,746407518222458880,2020-03-23 15:39:10,"Chicago, IL",city,"Naperville, IL",United States
206,35.061321,48.475425,Anastasia Beznos,746408057027059713,2020-05-07 01:01:36,Ukraine,poi,  / Dnipro River,
21,-38.51989,-3.789768,Evelinne Monteiro,746408505553358848,2020-02-29 11:24:11,Berirgre Contabilidade ,city,"Fortaleza, Brasil",Brasil
10740,-106.632718,35.117002500000005,Tyller Kate,746408850,2020-02-14 14:11:46,,city,"Albuquerque, NM",United States
11460,-83.7560765,42.4227085,Tyller Kate,746408850,2020-06-03 21:36:55,NM,city,"Whitmore Lake, MI",United States
19100,-97.2859135,32.7799665,Tyller Kate,746408850,2020-06-07 21:03:11,NM,city,"Fort Worth, TX",United States
11060,-100.21424449999999,34.4252215,Tyller Kate,746408850,2020-06-08 17:07:20,NM,city,"Childress, TX",United States
10740,-106.632718,35.117002500000005,Tyller Kate,746408850,2020-06-09 00:04:15,NM,city,"Albuquerque, NM",United States
171,120.88334672,14.17515932,Dulce Hermoso,74640890,2020-04-12 22:56:18,"Cavite, Philippines",city,"Indang, Calabarzon",Republic of the Philippines
47900,-77.0143985,38.898603,$$,746409234590474240,2020-06-02 19:50:43,,city,"Washington, DC",United States
222,100.35513,-1.162491,Yol,746409241,2020-03-01 11:21:26,padang,poi,Pamutusan Island,Indonesia
21,-48.9664745,-26.261689500000003,c,746409428333649921,2020-04-23 14:11:55,provavelmente em casa - /crf,city,"Joinville, Brasil",Brasil
21,-38.51989,-3.789768,,746409462764867588,2020-02-14 00:03:58,"Fortaleza, Brasil",city,"Fortaleza, Brasil",Brasil
82,78.49953149999999,17.31057818,Madhireddy Harinathreddy,746409500744126464,2020-05-22 15:56:41,"Hyderabad, India",city,"Hayathnagar, India",India
82,72.91801,19.377516500000002,Sukhnani /~/!|\|,746409777475911680,2020-04-11 11:12:59,"Maharashtra, India",city,"Thane, India",India
12060,-84.51898963,34.09969748,Gordon Mosley,746410501878407168,2020-02-15 17:21:55,"Woodstock, GA",city,"Woodstock, GA",United States
36420,-97.61671750000001,35.52791000000001,EconoTracker,74641089,2020-04-22 05:17:33,"DFW, USA",city,"Warr Acres, OK",United States
16620,-81.63641,38.348859999999995,Duck City Music,746410998144335872,2020-02-24 13:20:11,"Charleston, WV",city,"Charleston, WV",United States
175,39.6540485,24.462089000000002,lYl,746411222090784770,2020-02-14 00:32:02,",   ",city," ,   ",  
28140,-94.4345195,39.2396655,Dan Cowell  \(_o)/ ,74641136,2020-03-11 17:17:19,"Kansas City, MO",city,"Liberty, MO",United States
96,48.0452355,29.2948815,,746411677567033344,2020-03-09 01:33:36,  ,city,"Bayan, Kuwait",Kuwait
205,-2.8070665,56.3363135,surinq,746411788183306240,2020-02-15 02:59:27,"Scotland, United Kingdom",city,"Saint Andrews, Scotland",United Kingdom
24,-79.2996725,43.8806945,Kristin,746411866436448256,2020-02-15 18:12:38,,city,"Markham, Ontario",Canada
21,-53.4121855,-33.649514999999994,Leil@,746412153800822785,2020-03-23 15:51:17,,city,"Chu, Brasil",Brasil
208,-53.546654000000004,-34.039276,Leil@,746412153800822785,2020-05-16 20:00:42,,poi,Playa de Punta Del Diablo,Uruguay
21,-53.4121855,-33.649514999999994,Leil@,746412153800822785,2020-05-19 13:05:04,,city,"Chu, Brasil",Brasil
96,48.02252093,29.31332414,dee,746412176232046592,2020-02-16 09:33:29,Kuwait,city,"Al Jabriyah, Kuwait",Kuwait
41700,-98.607403,29.383425000000006,Y I A Y I A ,746412248554344448,2020-03-07 14:19:29,in my head often.,city,"Lackland Air Force Base, TX",United States
24500,-111.1960355,47.5086385,Y I A Y I A ,746412248554344448,2020-03-28 01:07:40,in my head often.,city,"Malmstrom Air Force Base, MT",United States
8,-58.013021499999994,-34.9363185,abril calmada,746412268892594179,2020-02-14 17:07:19,"Mar del Plata, Argentina",city,"La Plata, Argentina",Argentina
205,-0.7640635,52.03356700000001,Derek Armstrong,746412553312571392,2020-04-21 10:24:23,"Milton Keynes, England",city,"Milton Keynes, England",United Kingdom
82,70.17590899999999,23.0126345, ,746412649177485312,2020-02-14 14:40:52,Deoria U.P.,city,"Kandla, India",India
31420,-83.65407950000001,32.8488175,will,746412843247927297,2020-02-14 12:05:28,Fl,city,"Macon, GA",United States
37260,-81.6673005,29.647083,will,746412843247927297,2020-04-18 04:43:44,Fl,city,"Palatka, FL",United States
8,-68.849751,-32.9301425,Matias ,746413208823443457,2020-02-15 12:28:51,"Las Heras, Argentina",city,"Godoy Cruz, Argentina",Argentina
205,-3.9428,51.6247,Ian,746413406027157504,2020-02-23 20:34:57,"Swansea, Wales",city,"Swansea, Wales",United Kingdom
33860,-86.24472850000002,32.364145,JayCook,746413711863222272,2020-03-11 15:17:51,"Montgomery, AL",city,"Montgomery, AL",United States
242,121.561476,25.085756,  Taiji,746413766955327489,2020-03-02 15:42:14,,city,"Taipei City, Taiwan",Taiwan
22500,-79.78030799999998,34.182661499999995,Michael Donald,746413881849872384,2020-05-15 00:00:20,"Florence, SC",city,"Florence, SC",United States
205,-2.915427,53.4198785,Anthony Mccann,746414073802334208,2020-06-06 10:48:44,"Liverpool, England",city,"Liverpool, England",United Kingdom
205,-1.13067,52.6262635,Kulsum Hafeji,746414089627271168,2020-02-21 21:52:59,"Leicester, England",city,"Leicester, England",United Kingdom
186,1.88095336,41.84227278,BielikStudio,746414286939906048,2020-04-06 11:10:31,"d, Polska",city,"Balsareny, Espaa",Espaa
162,19.0,52.0,BielikStudio,746414286939906048,2020-04-08 17:37:00,"d, Polska",city,"Wartkowice, Polska",Polska
40140,-117.195485,34.492627,VIXEN,746414363922202625,2020-02-26 18:13:35,"Apple Valley, CA",city,"Apple Valley, CA",United States
11220,-74.190621,42.948039,lethy,746414423045246976,2020-05-31 03:12:13,Bsb,city,"Amsterdam, NY",Estados Unidos
21,-46.5955455,-23.682803,Jlia Garcia,746414598459293696,2020-03-02 00:58:58,"So Paulo, Brazil",city,"Sao Paulo, Brazil",Brazil
38,-74.24367099999999,4.2622835,Frey Marin,746414604868259840,2020-02-14 21:26:32,"Bogot, D.C., Colombia",city,"Bogot, D.C., Colombia",Colombia
41740,-117.10498899999999,32.810012,MarielenaCastellanos,746414682,2020-04-16 20:55:12,"Tijuana/SanDiego/LosAngeles, CA",city,"San Diego, CA",United States
128,5.0149925,51.075661,,746414935366766592,2020-02-25 19:36:17,"Leopoldsburg, Belgi",city,"Laakdal, Belgi",Belgium
21,-55.842543000000006,-15.455176500000002,lana sofia,746414966639570944,2020-02-19 13:17:51,"Cuiab, Brasil",city,"Cuiab, Brasil",Brasil
222,106.809173,-6.2445845,Q,74641505,2020-05-04 04:16:36,"DKI Jakarta, Indonesia",city,"Kebayoran Baru, Indonesia",Indonesia
222,107.29825600000001,-6.330608,Chachachacha,746415067495866368,2020-03-20 06:13:54,Duniaku,poi,Maestro Gelato Karawang,Indonesia
119,-99.153366,19.432835999999998,Ozzmosis,74641511,2020-02-18 21:16:11,"Distrito Federal, Mxico",city,"Cuauhtmoc, Distrito Federal",Mxico
222,106.80414039,-6.22463006,Henche Sujanto,74641527,2020-02-24 05:31:25,,city,"Kebayoran Lama, Indonesia",Indonesia
65,3.8315525000000004,50.2037435,,746415270445584384,2020-02-14 12:57:28,,city,"Aulnoye-Aymeries, France",France
34980,-87.20488399999999,35.548190999999996,mpmsvpa_dance,746415575765659650,2020-02-28 03:58:44,"Mount Pleasant, TN",poi,Mt. Pleasant Middle School,United States
38940,-80.242742,27.200081,J,746416061357006849,2020-05-14 02:49:40,"Miami, FL",poi,Martin Memorial Hospital,United States
82,85.385683,23.3604345,Rajendra kumar,746416123910860804,2020-03-06 17:51:11,,city,"Ranchi, India",India
200,27.006511,38.4079305,Cihangir SAIR ,746416435312877568,2020-02-23 09:02:52,"zmir, Trkiye",city,"zmir, Trkiye",Trkiye
33460,-93.2620465,44.9706105,Jason Mitzo,746416688,2020-02-26 17:59:45,Minneapolis | San Francisco ,city,"Minneapolis, MN",United States
33180,-83.2063995,37.265809999999995,hp,746416719581720576,2020-03-21 06:09:11,"Kentucky, USA",city,"Hazard, KY",United States
21,-46.5955455,-23.682803,wodson santos ,74641679,2020-02-15 20:18:44,sao paulo,city,"Sao Paulo, Brazil",Brazil
82,72.87424399999999,19.174139999999998,Bhagwatrushi,74641706,2020-02-15 04:15:52,amd,city,"Mumbai, India",India
65,1.4329005,43.600757,Gabsyy,746417076726730752,2020-03-16 10:30:37,,city,"Toulouse, France",France
173,39.236036,51.6793275,  ,746417155256659968,2020-03-05 18:56:24," , ",city,", ",
175,46.685077,24.7219435, ,746417601077743620,2020-02-14 11:08:24,,city,",   ",  
26420,-95.3268995,29.5478845,Bean,746417674431799296,2020-06-09 07:21:10,,city,"Pearland, TX",United States
39740,-75.9400262,40.33367379999999,LUIS MONTALVO,746417834,2020-02-14 20:57:20,"Reading, PA",city,"West Reading, PA",United States
9,152.99577,-27.98777,,74641789,2020-03-08 00:47:03,,city,"Beaudesert, Queensland",Australia
88,139.70216507,35.68698229,,74641789,2020-03-28 03:13:06,,city, ,
160,-77.75921,-10.75331,Marcia Paola,746418006,2020-03-21 17:10:57,Peru,city,"Barranca, Peru",Peru
119,-96.941567,19.586820499999998,Omar Daz,746418086966747136,2020-02-19 06:38:12,"Xalapa, Veracruz de Ignacio de la Llave",city,"Banderilla, Veracruz de Ignacio de la Llave",Mxico
42540,-75.8877115,41.2654325, . ,74641813,2020-03-20 18:02:24,"Brooklyn, NY",city,"Kingston, PA",United States
35620,-73.9487755,40.655138,KB ANSARI,74641813,2020-04-10 01:27:50,"Brooklyn, NY",city,"Brooklyn, NY",United States
205,-0.14893599999999999,51.500091999999995,,746418445994991616,2020-02-21 22:01:09,  ,city,"London, England",United Kingdom
47900,-76.934487,38.9969705,Rylan Flint,746418575863222272,2020-02-14 16:41:49,"College Park, MD",city,"College Park, MD",United States
12060,-84.43310600000001,33.7671945,Rylan Flint,746418575863222272,2020-02-29 20:06:25,"College Park, MD",city,"Atlanta, GA",United States
47900,-76.934487,38.9969705,Rylan Flint,746418575863222272,2020-03-02 04:06:57,"College Park, MD",city,"College Park, MD",United States
21,-50.95625800000001,-29.890708,Alexandre Sampert,74641858,2020-02-28 12:08:48,Chaveiro de Porto Alegre,city,"Gravata, Brasil",Brasil
200,31.104407000000002,36.918026,Ahmet Gler,746418697355526144,2020-03-25 11:53:36,"Antalya, Trkiye",poi,Gler Baklava,Trkiye
26420,-95.4464865,29.838495,Chuck Miller,746418730528186368,2020-03-06 00:51:29,,city,"Houston, TX",United States
19740,-104.9220935,39.713563,N,746418769229033472,2020-02-21 03:39:56,Noneya,city,"Denver, CO",United States
37980,-75.40201250000001,40.1482955,Zach Blane,746418935097077760,2020-06-11 03:31:44,"Norristown, PA",city,"Trooper, PA",United States
160,-77.0353,-12.0611,Jaki CS,74641920,2020-02-16 12:56:20,Buenos Aires,city,"Lima, Peru",Peru
58,14.4215,50.0876,Jaki CS,74641920,2020-02-24 00:53:27,Buenos Aires,city,"Praga, Repblica Checa",Repblica Checa
160,-75.76416963,-14.08784773,Jaki CS,74641920,2020-02-25 13:53:57,Buenos Aires,city,"Ica, Peru",Peru
33,-70.6667,-33.45,Jaki CS,74641920,2020-02-27 13:59:45,Buenos Aires,city,"Santiago, Chile",Chile
119,-99.19482531,19.42466465,Jaki CS,74641920,2020-02-28 00:24:30,Buenos Aires,city,"Miguel Hidalgo, Distrito Federal",Mxico
35620,-73.68826290000001,40.770210299999995,Jaki CS,74641920,2020-03-02 19:06:20,Buenos Aires,city,"North Hills, NY",Estados Unidos
160,-77.0353,-12.0611,Jaki CS,74641920,2020-03-04 17:03:08,Buenos Aires,city,"Lima, Peru",Peru
8,-58.526559999999996,-34.63028,Jaki CS,74641920,2020-03-09 10:53:56,Buenos Aires,city,"Ciudad Autnoma de Buenos Aires, Argentina",Argentina
119,-102.2964,21.8801,Jaki CS,74641920,2020-03-11 13:39:53,Buenos Aires,city,"Aguascalientes, Mxico",Mxico
8,-68.331787,-34.615595,Jaki CS,74641920,2020-03-25 13:37:31,Buenos Aires,city,"San Rafael, Argentina",Argentina
85,10.399460000000001,43.709959999999995,Jaki CS,74641920,2020-04-03 13:58:19,Buenos Aires,city,"Pisa, Toscana",Italia
8,-71.35197,-40.1537,Jaki CS,74641920,2020-05-03 14:12:42,Buenos Aires,city,"San Martn de los Andes, Argentina",Argentina
200,28.978144,41.007932000000004,Jaki CS,74641920,2020-06-09 13:02:29,Buenos Aires,city,"stanbul, Trkiye",Turqua
8,-58.4636,-34.6308,Jaki CS,74641920,2020-06-10 01:23:23,Buenos Aires,city,"Villa Soldati, Argentina",Argentina
200,30.707702500000003,41.10064800000001,Bigot Yavuzyigit,746419434072477696,2020-02-14 11:59:19,,city,"Karasu, Trkiye",Trkiye
200,32.812733,39.918357,C',746419451113914369,2020-02-15 23:07:21,Nazilli,poi,AT,Trkiye
40060,-77.3971595,37.2654925,Norbert Ewick,746419497083379713,2020-05-24 00:12:10,"Virginia, USA",city,"Colonial Heights, VA",United States
8,-58.61175550000001,-34.646236,biki,746419510639468544,2020-02-15 17:55:47,"Haedo, Buenos Aires",city,"Morn, Argentina",Argentina
171,120.34024699999999,14.85885,zin,746419825,2020-02-14 02:15:03,Riverdale,city,"Olongapo City, Central Luzon",Republic of the Philippines
38300,-80.0517365,41.06155800000001,kaitlyn,746419902,2020-02-17 17:54:10,"Pittsburgh, PA",city,"Slippery Rock, PA",United States
12420,-97.60701949999999,30.460444,Faith Cummings,746419952219873281,2020-03-17 14:06:00,,city,"Pflugerville, TX",United States
205,-3.0656115,56.1598315,Aaron Kane  IndyRef2,746420087721234432,2020-02-14 00:07:04,"Kirkcaldy, Scotland",city,"East Wemyss, Scotland",United Kingdom
151,3.41264,6.42256,Amplifi Music,746420104439562240,2020-03-01 21:26:23,,city,"Victoria Island, Nigeria",Nigeria
24,-123.123581,49.257639000000005,Felix Liu,746420645030920192,2020-04-07 15:48:40,"Vancouver, British Columbia",city,"Vancouver, British Columbia",Canada
8,-58.440695,-34.615953999999995,Enderson Narvez,74642097,2020-04-22 00:25:34,"Buenos Aires, Argentina",city,"Ciudad Autnoma de Buenos Aires, Argentina",Argentina
211,-72.2519,8.03778,Enderson Narvez,74642097,2020-04-24 01:14:46,"Buenos Aires, Argentina",city,"Coln, Venezuela",Venezuela
8,-58.39284897,-34.59963797,Enderson Narvez,74642097,2020-05-03 19:40:17,"Buenos Aires, Argentina",city,"Ciudad Autnoma de Buenos Aires, Argentina",Argentina
21,-43.441578,-22.911421500000003,c ,746421083570642944,2020-04-16 05:01:26,Recreio dos Bandeirantes,city,"Rio de Janeiro, Brasil",Brasil
205,-0.7640635,52.03356700000001,Max Griffin,746421505454661632,2020-03-29 10:17:36,"Milton Keynes, England",city,"Milton Keynes, England",United Kingdom
82,72.8764,19.0627,Rj saurabh,746421554993631232,2020-04-12 10:03:32,"Mumbai, India",city,"Mumbai, India",India
205,-1.79718165,51.58780507,Tracey O'Nions,746421833843482624,2020-03-07 22:59:13,"Royal Wootton Bassett, England",city,"Swindon, England",United Kingdom
117,58.4641695,23.549159000000003,DEEMA ,746422317979406336,2020-02-24 06:53:21,In my palace. ,city,"Muscat, Oman",Oman
40140,-117.294096,34.134925,Rico Suave ,746422577086631937,2020-03-24 06:26:17,,city,"San Bernardino, CA",United States
41500,-121.64126850000001,36.6891495,Rogelio Gonzalez,746422606551670784,2020-02-17 04:41:40,toy casado ,city,"Salinas, CA",United States
38060,-112.1246765,33.5528625,Leah,746422844045746176,2020-04-17 22:44:14,"San Diego, CA",city,"Phoenix, AZ",United States
41740,-117.10498899999999,32.810012,Leah,746422844045746176,2020-04-22 02:06:44,"San Diego, CA",city,"San Diego, CA",United States
8,-58.5641745,-34.544659,K!ara,746422852862246915,2020-02-14 03:35:51,,city,"Ciudad del Libertador General San Martn, Argentina",Argentina
16980,-87.632496,41.883221999999996,BigLeaguePins,746423154378084353,2020-02-15 00:08:41,,city,"Chicago, IL",United States
21,-46.5955455,-23.682803,Rafael alcantara (12k),746423164943556609,2020-02-17 02:40:59,"So Paulo, Brasil",city,"So Paulo, Brasil",Brasil
160,-77.034885,-12.1007775,pablo yarmuch,746423476140019714,2020-03-26 21:42:15,,city,"San isidro, Peru",Peru
43340,-93.809434,32.461107,Maranda Whittington,746423609258696704,2020-02-14 17:31:49,"Shreveport, LA",city,"Shreveport, LA",United States
32220,-94.3484515,32.531603000000004,Maranda Whittington,746423609258696704,2020-04-20 22:39:57,"Shreveport, LA",city,"Marshall, TX",United States
43340,-93.809434,32.461107,Maranda Whittington,746423609258696704,2020-04-21 07:26:34,"Shreveport, LA",city,"Shreveport, LA",United States
21,-46.5955455,-23.682803,Fabio Silva,746423687742656513,2020-04-10 15:58:21,So paulo,city,"So Paulo, Brasil",Brasil
205,-0.14893599999999999,51.500091999999995,UK BTS ARMY ,746424331220115456,2020-02-18 09:02:37,United Kingdom,city,"London, England",United Kingdom
24,-79.18681687,43.78420673,Leanne Toshiko Simpson,746424391303475200,2020-03-05 02:05:37,"Toronto, Ontario",city,"Toronto, Ontario",Canada
119,-98.82431600000001,19.2400535,JUAN DANIEL ,746424558308057088,2020-03-08 14:37:16,Estado de Mxico,city,"Chalco, Mxico",Mxico
35620,-73.9685415,40.780709,Lauren Flanagan,74642456,2020-04-09 23:23:09,"T: 40.7391855,-73.9900399",city,"Manhattan, NY",United States
17460,-81.63233296,41.288544099999996,Patrick Pisano | NMLS 1509308,746424796892696580,2020-02-28 22:37:19,"Brecksville, OH",city,"Brecksville, OH",United States
35620,-73.9685415,40.780709,Bino Rideaux,746424971837116416,2020-03-12 20:04:04,"California, USA",city,"Manhattan, NY",United States
31080,-118.4119065,34.0207895,Bino Rideaux,746424971837116416,2020-03-14 06:57:02,"California, USA",city,"Los Angeles, CA",United States
222,106.8233,-6.1803,Ardas Hakiim,746425028,2020-03-16 07:45:21,,city,"Tanah Abang, Indonesia",Indonesia
31080,-118.0549085,34.1031895,Daman Singh,746425350192668672,2020-03-02 21:50:11,United States,city,"Temple City, CA",United States
35620,-73.8311875,40.6708795,Julissa Martinez,746425507948933121,2020-02-15 22:16:58,"Queens, NY",city,"Queens, NY",United States
31080,-117.78011599999999,33.689128000000004,JorgeDelgado,746425536,2020-03-05 17:35:27,"Guayaquil, Ecuador",poi,The Ranch,United States
205,-2.1064075,52.592257999999994,Samantha Butler,746425556133122048,2020-03-10 20:38:00,,city,"Wednesfield, England",United Kingdom
82,77.5564225,13.075209,Mohammed Khalid Saifullah,746425821024256000,2020-05-07 08:07:09,"Bengaluru, India",city,"Bengaluru, India",India
21,-43.441578,-22.911421500000003,LuCria ,746426395421618177,2020-03-03 15:18:04,Rio Centro,city,"Rio de Janeiro, Brasil",Brasil
175,46.685077,24.7219435,Ahmed,746426420,2020-03-01 18:13:07,"Riyadh, Kingdom of Saudi Arabia",city,",   ",  
200,26.335081,38.3161435,yimser43,746426542272679936,2020-06-06 02:58:39,,city,"eme, Trkiye",Trkiye
175,39.2541285,21.5857105,m.s ,746426623,2020-02-18 13:06:00,,city,",   ",  
19740,-104.9220935,39.713563,Grant,74642683,2020-06-03 02:42:32,Moscow ID,city,"Denver, CO",United States
28940,-84.132237,36.3569765,Coty Wallace,746427314,2020-02-18 00:19:39,"La Follette, TN",city,"La Follette, TN",United States
42940,-83.76864549999998,35.8771845,Coty Wallace,746427314,2020-03-12 19:27:30,"La Follette, TN",city,"Seymour, TN",United States
28940,-84.132237,36.3569765,Coty Wallace,746427314,2020-03-13 22:26:35,"La Follette, TN",city,"La Follette, TN",United States
42940,-83.76864549999998,35.8771845,Coty Wallace,746427314,2020-03-14 20:18:28,"La Follette, TN",city,"Seymour, TN",United States
28940,-83.9638415,35.982470500000005,Coty Wallace,746427314,2020-03-16 18:33:38,"La Follette, TN",city,"Knoxville, TN",United States
42940,-83.76864549999998,35.8771845,Coty Wallace,746427314,2020-03-23 14:03:12,"La Follette, TN",city,"Seymour, TN",United States
28940,-84.132237,36.3569765,Coty Wallace,746427314,2020-03-24 15:11:56,"La Follette, TN",city,"La Follette, TN",United States
42940,-83.76864549999998,35.8771845,Coty Wallace,746427314,2020-03-31 16:16:46,"La Follette, TN",city,"Seymour, TN",United States
28940,-84.132237,36.3569765,Coty Wallace,746427314,2020-04-02 23:02:56,"La Follette, TN",city,"La Follette, TN",United States
42940,-83.76864549999998,35.8771845,Coty Wallace,746427314,2020-04-04 16:53:23,"La Follette, TN",city,"Seymour, TN",United States
28940,-83.9638415,35.982470500000005,Coty Wallace,746427314,2020-04-04 17:04:49,"La Follette, TN",city,"Knoxville, TN",United States
200,29.0052225,41.0213205,Senem Demircioglu,746427404181176320,2020-03-05 09:22:25,,city,"stanbul, Trkiye",Turkey
88,140.939941,41.859722,,746427432,2020-03-13 05:58:31,,city, ,
42340,-81.0563195,31.929099,David Brownman,74642748,2020-02-15 00:56:39,"A Van, USA",city,"Skidaway Island, GA",United States
35620,-73.78832249999998,40.6433005,David Brownman,74642748,2020-02-17 18:11:20,"A Van, USA",neighborhood,"John F. Kennedy International Airport, Queens",United States
42340,-81.0563195,31.929099,David Brownman,74642748,2020-02-21 23:22:21,"A Van, USA",city,"Skidaway Island, GA",United States
12060,-84.43310600000001,33.7671945,David Brownman,74642748,2020-02-24 03:29:15,"A Van, USA",city,"Atlanta, GA",United States
16860,-85.242564,35.0919545,David Brownman,74642748,2020-03-03 18:24:53,"A Van, USA",city,"Chattanooga, TN",United States
41860,-122.36121200000001,37.5554355,David Brownman,74642748,2020-03-20 00:03:31,"A Van, USA",city,"Hillsborough, CA",United States
12420,-97.63588399999999,30.134587,Migdalia Sanfeliz,746427849171570688,2020-02-23 21:32:55,,poi,Circuit of The Americas,United States
205,-3.2696155,51.6025805,Mark Wilkins,746427863482523648,2020-05-24 10:24:04,Abertridwr,city,"Abertridwr, Wales",United Kingdom
21,-49.36348115,-25.38059672,Daiane Repula,74642826,2020-03-13 03:26:56,Curiitiba ,city,"Campo Magro, Brasil",Brasil
193,102.08574,14.967381, | Por ,74642827,2020-02-14 07:32:59,,city,", ",
32580,-98.201868,26.265632,gaby banda,746428417,2020-02-29 21:45:06,,poi,Green Ceviche,Estados Unidos
120,101.9330834,2.7312091,Sasha,74642842,2020-06-05 10:18:31,Earth,city,"Bandar Seremban, Negri Sembilan",Malaysia
160,-76.79597,-12.48419,Erick V. Cordova Huaranga,746428453826629634,2020-03-02 03:55:28,"Villa Maria del Triunfo, Peru",city,"Pucusana, Peru",Peru
38,-74.24367099999999,4.2622835,Javier Ernesto Socha,746428630251745280,2020-03-06 13:46:00,"Bogot, D.C., Colombia",city,"Bogot, D.C., Colombia",Colombia
82,85.601673,21.6369585,Sarthak,746428647108554752,2020-04-26 07:15:38,"Bhubaneshwar, India",city,"Kendujhar, India",India
40380,-77.45473249999999,43.2320245,Jon-Paul Dyson,746429263994228736,2020-03-05 01:48:04,"Rochester, NY",city,"Webster, NY",United States
161,62.32636850000001,25.125856,Danish Daad,746429414548791297,2020-03-02 04:33:34,Gwadar Balochistan,city,"Gwadar, Pakistan",Pakistan
17460,-81.82555251,41.41829685,BOSS Pro-Karting,746429496312487936,2020-03-13 17:23:17,"Cleveland, OH",city,"Brook Park, OH",United States
26420,-95.085679,30.3469555,fer ,746429574481772544,2020-02-18 00:56:38,"Cleveland, TX",city,"Cleveland, TX",United States
119,-99.18988900000001,19.431623000000002,Donovan Morales,746429593343537156,2020-02-16 01:01:08,Mxico,poi,Hotel Habita,Mxico
173,43.8505055,56.2847355,min min  ,746430014699114497,2020-02-16 15:34:50,,city," , ",
205,-1.3668675,53.433003500000005,Gail Smith,746430052720611329,2020-03-31 19:39:16,"Rotherham, England",city,"Rotherham, England",United Kingdom
21,-53.824203000000004,-29.753085,Kauane Rezende ,746430251278860288,2020-05-13 03:40:01,ONDE O GRMIO ESTIVER,city,"Santa Maria, Brasil",Brasil
186,-3.632675,40.398465,Pablo Rojo,746430348481880064,2020-03-25 19:53:57,Burgos - Madrid,neighborhood,"Pavones, Madrid",Espaa
41740,-117.10498899999999,32.810012,Rick Keil,74643036,2020-02-17 04:30:14,Seattle,city,"San Diego, CA",United States
42660,-122.3306025,47.614816999999995,Rick Keil,74643036,2020-03-03 18:20:57,Seattle,city,"Seattle, WA",United States
16740,-81.2277335,34.9963755,Kaiden,746430459077337089,2020-03-04 17:52:44,"South Carolina, USA",city,"York, SC",United States
175,46.685077,24.7219435,    ,746430637326766080,2020-03-07 05:49:52,",   ",city,",   ",  
173,142.67015,47.01475, ,746430846,2020-02-14 05:41:43,Far East,city,"-, ",
42340,-81.10191499999998,31.955347999999997,Lynn Rachels,746431020103270400,2020-02-14 21:00:35,"Savannah, GA",city,"Montgomery, GA",United States
25940,-80.748747,32.1898025,Lynn Rachels,746431020103270400,2020-02-22 16:43:18,"Savannah, GA",city,"Hilton Head Island, SC",United States
42340,-81.1096165,32.017284499999995,Lynn Rachels,746431020103270400,2020-02-23 00:08:30,"Savannah, GA",city,"Savannah, GA",United States
41860,-122.281278,37.964937,gabi ,746431028093288454,2020-02-16 09:35:31,yay area,city,"El Sobrante, CA",United States
40900,-121.739163,38.558553499999995,gabi ,746431028093288454,2020-02-20 03:03:20,yay area,city,"Davis, CA",United States
41860,-122.281278,37.964937,gabi ,746431028093288454,2020-02-29 00:32:39,yay area,city,"El Sobrante, CA",United States
46700,-122.04297450000001,38.233362,gabi ,746431028093288454,2020-03-02 02:30:35,yay area,city,"Fairfield, CA",United States
40900,-121.739163,38.558553499999995,gabi ,746431028093288454,2020-03-02 17:00:01,yay area,city,"Davis, CA",United States
41860,-122.281278,37.964937,gabi ,746431028093288454,2020-03-07 16:46:37,yay area,city,"El Sobrante, CA",United States
40900,-121.739163,38.558553499999995,gabi ,746431028093288454,2020-03-11 06:16:30,yay area,city,"Davis, CA",United States
41860,-122.281278,37.964937,gabi ,746431028093288454,2020-03-16 07:30:51,yay area,city,"El Sobrante, CA",United States
22780,-92.11898000000001,37.7444385, ,746431298651168768,2020-02-27 17:20:01,"Belvidere, IL",city,"Fort Leonard Wood, MO",United States
17980,-84.930903,32.396232, ,746431298651168768,2020-02-28 07:50:56,"Belvidere, IL",poi,Fort Benning Main Gate,United States
22180,-78.98787850000001,35.1413975, ,746431298651168768,2020-03-31 15:02:21,"Fort Bragg, NC",city,"Fort Bragg, NC",United States
19100,-97.129545,33.092712500000005,Sheldon Gilbert,746431398974676992,2020-03-23 16:12:47,"Texas, USA",city,"Lantana, TX",United States
152,4.3063955,52.07686800000001,Petra Smulders,746431506554355712,2020-05-13 07:23:15,,city,"The Hague, The Netherlands",The Netherlands
33,-70.6596155,-33.4521615,Darwin J Quezada A,74643184,2020-04-06 22:25:27,"Santiago, Chile",city,"Santiago, Chile",Chile
41700,-98.5406515,29.417501,Lynette Vega,746431892,2020-03-13 02:46:51,"San Antonio, TX",city,"San Antonio, TX",United States
151,6.674241499999999,12.1716825,Idris Ibrahim,746432019496722432,2020-03-27 13:26:09,Nigeria,city,"Gusau, Nigeria",Nigeria
200,28.986075,41.029068,Cengiz Deniz,746432275546578944,2020-06-09 23:01:37,"stanbul, Trkiye",poi,Dominik Cumhuriyeti Fahri Konsolosluu,Trkiye
35620,-74.337379,41.277158,Liz Corcoran,746432398737317888,2020-04-07 22:34:06,"Chester, NY",city,"Warwick, NY",United States
205,-1.6458650000000001,54.12490749999999,James Pate,746432439174594562,2020-02-19 17:07:30,"Ripon, England",city,"Grantley, England",United Kingdom
38060,-111.5605185,33.1982355,Melissa Larson Busby,746432540,2020-03-15 05:28:37,"Queen Creek, AZ",city,"San Tan Valley, AZ",United States
175,39.2541285,21.5857105,-  .,746432618019889153,2020-02-14 18:20:08,",   ",city,"Jeddah, Kingdom of Saudi Arabia",Kingdom of Saudi Arabia
175,39.8016865,21.389833000000007, ,746432751235104768,2020-02-29 07:22:06,,city," ,   ",  
160,-74.12241,-7.9074705,Deykie,746433116,2020-02-16 07:15:52,,city,"Calleria, Peru",Peru
16980,-88.3118,41.8857,Bethany Thompson,746433121134927872,2020-04-01 03:21:50,"Illinois, USA",city,"Geneva, IL",United States
41860,-122.295229,37.5162205,@danny-se ,746433142467104768,2020-03-14 02:05:56,United States,city,"Belmont, CA",United States
10100,-98.4643365,45.461543,Its Spelt R-E-I-L-Y,746433202177204224,2020-03-13 15:30:56,,city,"Aberdeen, SD",United States
31080,-118.38251422,34.08352529,Taylor Gregory,746433247874166784,2020-03-02 16:41:22,"Mississippi, USA",city,"West Hollywood, CA",United States
40060,-77.4371,37.5373,Farm to Family,74643344,2020-02-19 22:22:47,"Richmond, VA USA",city,"Richmond, VA",United States
47900,-76.99647,38.88642,Farm to Family,74643344,2020-02-28 17:44:21,"Richmond, VA USA",city,"Washington, DC",United States
40060,-77.40446247,37.56407851,Farm to Family,74643344,2020-03-11 20:28:20,"Richmond, VA USA",city,"East Highland Park, VA",United States
47900,-76.99647,38.88642,Farm to Family,74643344,2020-04-07 21:33:33,"Richmond, VA USA",city,"Washington, DC",United States
40060,-77.40446247,37.56407851,Farm to Family,74643344,2020-04-09 21:13:57,"Richmond, VA USA",city,"East Highland Park, VA",United States
47900,-76.99055389,38.88830525,Farm to Family,74643344,2020-04-16 00:05:43,"Richmond, VA USA",city,"Washington, DC",United States
40060,-77.40446247,37.56407851,Farm to Family,74643344,2020-04-17 21:21:27,"Richmond, VA USA",city,"East Highland Park, VA",United States
44420,-79.07129088,38.14909386,Farm to Family,74643344,2020-05-05 22:08:21,"Richmond, VA USA",city,"Staunton, VA",United States
40060,-77.40446247,37.56407851,Farm to Family,74643344,2020-05-05 22:28:49,"Richmond, VA USA",city,"East Highland Park, VA",United States
175,50.083138,26.430429999999998,Ju ,746434063519592448,2020-04-23 19:34:05,,poi,  ,Kingdom of Saudi Arabia
152,4.904053500000001,52.354728,Gamze Kara,746434180918181888,2020-03-07 09:53:11,"stanbul, Trkiye",city,"Amsterdam, The Netherlands",The Netherlands
65,2.347003,48.8588335,Gamze Kara,746434180918181888,2020-03-08 22:33:30,"stanbul, Trkiye",city,"Paris, France",France
128,3.2221634999999997,51.260733,Gamze Kara,746434180918181888,2020-03-12 12:52:29,"stanbul, Trkiye",city,"Bruges, Belgium",Belgium
73,23.946424,37.936523,Gamze Kara,746434180918181888,2020-03-14 16:07:01,"stanbul, Trkiye",poi,Athens International Airport Eleftherios Venizelos (ATH)     ,Hellas
200,29.0052225,41.0213205,Gamze Kara,746434180918181888,2020-03-16 19:54:31,"stanbul, Trkiye",city,"stanbul, Trkiye",Turkey
51,-8.645068499999999,54.193422,Ryan Feehily,746434353517969408,2020-04-08 11:58:54,Irland,city,"Sligo, Ireland",Ireland
205,-0.159403,51.5424365,Christina,746434781920038913,2020-02-18 23:30:05,,city,"Camden Town, London",United Kingdom
205,-2.574512,53.47500600000001,Ser Beardfac ,746435783620341761,2020-05-01 18:20:07,"Wigan, England",city,"Golborne, England",United Kingdom
159,-57.60601750000001,-25.300264000000002,Israel Acevedo,746435792218775552,2020-02-14 12:15:06,,city,"Asuncion, Paraguay",Paraguay
21540,-87.086285,45.754922,Cory Kuchenberg,746435970136838145,2020-02-25 16:39:09,"Michigan, USA",city,"Escanaba, MI",United States
21,-51.0952005,-29.918787,bi sex uau 1903 ,746436294469877761,2020-02-14 00:04:59,"Cachoeirinha, RS. ",city,"Cachoeirinha, Brasil",Brasil
164,-9.17854158,38.70256769,OneChelOfAnAdventure,746436328582057985,2020-02-18 13:53:27,"Austin, TX",city,"Lisbon, Portugal",Portugal
12420,-97.7475,30.2677,OneChelOfAnAdventure,746436328582057985,2020-02-20 13:56:28,"Austin, TX",city,"Austin, TX",United States
65,2.3508,48.8567,OneChelOfAnAdventure,746436328582057985,2020-02-21 21:46:34,"Austin, TX",city,"Paris, France",France
12420,-97.7475,30.2677,OneChelOfAnAdventure,746436328582057985,2020-02-22 14:41:47,"Austin, TX",city,"Austin, TX",United States
65,7.26306,43.69495,OneChelOfAnAdventure,746436328582057985,2020-02-27 13:48:34,"Austin, TX",city,"Nice, France",France
119,-87.09103631,20.60888568,OneChelOfAnAdventure,746436328582057985,2020-03-06 14:01:11,"Austin, TX",city,"Solidaridad, Quintana Roo",Mexico
12420,-97.7475,30.2677,OneChelOfAnAdventure,746436328582057985,2020-03-10 13:00:39,"Austin, TX",city,"Austin, TX",United States
186,-3.68333,40.4,OneChelOfAnAdventure,746436328582057985,2020-03-12 12:53:33,"Austin, TX",city,"Madrid, Spain",Spain
119,-87.2835661,20.44700833,OneChelOfAnAdventure,746436328582057985,2020-03-21 16:32:44,"Austin, TX",city,"Solidaridad, Quintana Roo",Mexico
12420,-97.7475,30.2677,OneChelOfAnAdventure,746436328582057985,2020-03-24 13:02:47,"Austin, TX",city,"Austin, TX",United States
14460,-71.0565,42.3577,OneChelOfAnAdventure,746436328582057985,2020-03-25 12:59:02,"Austin, TX",city,"Boston, MA",United States
12420,-97.7475,30.2677,OneChelOfAnAdventure,746436328582057985,2020-03-26 16:39:50,"Austin, TX",city,"Austin, TX",United States
65,7.2663,43.7034,OneChelOfAnAdventure,746436328582057985,2020-03-28 16:21:11,"Austin, TX",city,"Nice, France",France
12420,-97.7475,30.2677,OneChelOfAnAdventure,746436328582057985,2020-03-29 17:51:40,"Austin, TX",city,"Austin, TX",United States
119,-86.76426691,21.11057301,OneChelOfAnAdventure,746436328582057985,2020-04-04 22:42:29,"Austin, TX",city,"Benito Jurez, Quintana Roo",Mexico
12420,-97.7475,30.2677,OneChelOfAnAdventure,746436328582057985,2020-04-05 22:29:49,"Austin, TX",city,"Austin, TX",United States
119,-102.366667,23.316667000000002,OneChelOfAnAdventure,746436328582057985,2020-04-07 12:43:15,"Austin, TX",city,"Villa de Cos, Zacatecas",Mexico
12420,-97.79664064,30.35115139,OneChelOfAnAdventure,746436328582057985,2020-04-13 12:55:06,"Austin, TX",city,"Austin, TX",United States
65,7.2663,43.7034,OneChelOfAnAdventure,746436328582057985,2020-04-27 12:40:07,"Austin, TX",city,"Nice, France",France
12420,-97.7475,30.2677,OneChelOfAnAdventure,746436328582057985,2020-04-28 12:40:42,"Austin, TX",city,"Austin, TX",United States
164,-8.6799,37.1006,OneChelOfAnAdventure,746436328582057985,2020-05-01 00:49:53,"Austin, TX",city,"Lagos, Portugal",Portugal
12420,-97.7475,30.2677,OneChelOfAnAdventure,746436328582057985,2020-05-04 01:20:20,"Austin, TX",city,"Austin, TX",United States
164,-9.42007957,38.69674227,OneChelOfAnAdventure,746436328582057985,2020-05-07 12:46:46,"Austin, TX",city,"Cascais, Portugal",Portugal
12420,-97.7475,30.2677,OneChelOfAnAdventure,746436328582057985,2020-05-08 13:03:27,"Austin, TX",city,"Austin, TX",United States
41940,-121.8737305,37.331159,Noticias14,74643663,2020-02-23 16:15:03,"San Francisco, California",city,"San Jose, CA",United States
175,42.547694,20.002276,,746436864647782400,2020-04-15 21:51:57,",   ",city,"Bisha, Kingdom of Saudi Arabia",Kingdom of Saudi Arabia
82,77.5584485,12.9231145,Ajitesh Gupta,746437329309446144,2020-03-06 05:04:00,"Aligarh, India",city,"Bengaluru South, India",India
40740,-104.536514,33.3663375,chloee ,746437355712577536,2020-02-19 06:38:29,new mex ,city,"Roswell, NM",United States
16100,-104.2193515,32.452409499999995,chloee ,746437355712577536,2020-02-22 05:48:21,new mex ,city,"La Huerta, NM",United States
40740,-104.536514,33.3663375,chloee ,746437355712577536,2020-02-24 07:17:30,new mex ,city,"Roswell, NM",United States
16100,-104.23947700000001,32.3879025,chloee ,746437355712577536,2020-03-24 00:25:21,new mex ,city,"Carlsbad, NM",United States
21,-41.807008,-22.392943, ,746437408539951105,2020-02-16 21:45:32,"RJ,bsj",poi,Di Santinni - Shopping Plaza Maca,Brasil
119,-102.712837,20.818671,TanniuX ,746437422922162176,2020-02-14 01:57:53,"Tepatitln de Morelos, Jalisco",city,"Tepatitln de Morelos, Jalisco",Mxico
28140,-94.721509,38.957119,Hector,74643748,2020-03-21 19:09:27,"Overland Park, KS",poi,Sprint Store,United States
26420,-95.4464865,29.838495,Mr. Smith,746437494674063360,2020-03-01 00:58:37,Tomball High School,city,"Houston, TX",United States
14860,-73.41594599999999,41.406883,Nicholas Valentin,746437529583357952,2020-03-09 15:15:34,"Connecticut, USA",poi,Sprint,United States
35620,-73.70594150000001,41.60604,Nicholas Valentin,746437529583357952,2020-04-10 23:39:03,"Connecticut, USA",city,"Beekman, NY",United States
14860,-73.47297850000002,41.4081195,Nicholas Valentin,746437529583357952,2020-04-11 18:17:12,"Connecticut, USA",city,"Danbury, CT",United States
35620,-73.70594150000001,41.60604,Nicholas Valentin,746437529583357952,2020-04-12 14:51:05,"Connecticut, USA",city,"Beekman, NY",United States
14860,-73.47297850000002,41.4081195,Nicholas Valentin,746437529583357952,2020-04-17 17:16:38,"Connecticut, USA",city,"Danbury, CT",United States
35620,-73.70594150000001,41.60604,Nicholas Valentin,746437529583357952,2020-04-19 00:52:37,"Connecticut, USA",city,"Beekman, NY",United States
14860,-73.27814649999998,41.174648499999996,Nicholas Valentin,746437529583357952,2020-05-08 14:08:20,"Connecticut, USA",city,"Fairfield, CT",United States
35620,-73.70594150000001,41.60604,Nicholas Valentin,746437529583357952,2020-05-18 22:35:20,"Connecticut, USA",city,"Beekman, NY",United States
82,72.82782467,19.09144999,T,74643756,2020-02-26 07:13:29,"Mumbai, India",city,"Mumbai, India",India
191,8.54346511,47.37310175,T,74643756,2020-02-27 04:17:19,"Mumbai, India",city,"Zurich, Switzerland",Switzerland
82,72.8764,19.0627,T,74643756,2020-02-29 02:14:59,"Mumbai, India",city,"Mumbai, India",India
12420,-97.7082,30.309140000000003,HOPE Prayer Room,746437567889891328,2020-03-01 02:01:08,"Austin, TX",city,"Austin, TX",United States
175,49.556000000000004,27.127908, ,746437622524944384,2020-03-03 18:42:06,  ,city,"  ,   ",  
205,-2.1168695,53.54286550000001,em says stream wobble! | 12.4.20,746437649456599040,2020-04-19 21:15:00,el .. ..,city,"Oldham, England",United Kingdom
21,-43.192736,-22.987920000000003,' 18/03 ,746438192790970368,2020-03-15 18:51:22, PASSIVA,poi,Praia do Arpoador,Brasil
82,72.1161995,21.809607,Amiras,746438209,2020-03-25 16:36:59,Bhavnagar(Gujrat),city,"Bhavnagar, India",India
200,28.978665999999997,41.064894,Sefa Kalfa,746438377,2020-05-16 20:31:06,Trkiye/stanbul,poi,Halk Sigorta Genel Mdrl,Trkiye
41940,-122.0238405,37.378397,niels,746438493329448960,2020-04-12 21:56:06,"Sunnyvale, CA",city,"Sunnyvale, CA",United States
46700,-122.23022250000001,38.114777,niels,746438493329448960,2020-04-29 18:31:39,"Sunnyvale, CA",city,"Vallejo, CA",United States
41940,-122.0238405,37.378397,niels,746438493329448960,2020-05-05 22:31:01,"Sunnyvale, CA",city,"Sunnyvale, CA",United States
205,0.206629,51.4402245,Katy Davis,746438497825886208,2020-03-26 16:53:36,"South East, England",city,"Dartford, South East",United Kingdom
21,-45.396803999999996,-22.436122,Binho dj jpa,746438730,2020-02-14 00:40:46,Rio de janeiro /Brasil ,city,"Itajub, Brasil",Brasil
65,6.0387955,49.184753,Rdv,746439010197848066,2020-03-21 16:27:55,Winterfel,city,"Saint-Privat-la-Montagne, France",France
21,-50.6213465,-21.142682500000003,Dmila,746439511266238464,2020-02-14 03:05:55,"Araatuba, Brasil",city,"Araatuba, Brasil",Brasil
151,7.4833,9.0667,WHATSUPBLOG9JA,746439661535510528,2020-03-31 12:44:09,Nigeria,city,"Abuja, Nigeria",Nigeria
25060,-89.0439,30.3817,Whatsupblog9ja,746439661535510528,2020-04-14 07:11:51,Nigeria,city,"Gulfport, MS",United States
151,8.5167,12.0,Whatsupblog9ja,746439661535510528,2020-04-21 17:35:46,Nigeria,city,"Kano, Nigeria",Nigeria
164,-9.206593,38.764578,Paulofernandoteixeir,746439741621604352,2020-02-29 21:44:53,"Amadora, Portugal",poi,Hua Ta Li,Portugal
88,139.8539435,35.75395949999999,kazuball,746439809367867392,2020-02-14 05:30:54,,city, ,
35620,-74.15394699999997,40.57237600000001,NYPD Facilities,746440311417765889,2020-03-22 23:46:18,"New York, USA",city,"Staten Island, NY",United States
21,-51.2208,-30.0291,Adorvel Rotina,746440337170792453,2020-02-14 14:48:46,"Porto Alegre, Brasil",city,"Porto Alegre, Brasil",Brasil
178,28.187516,-25.745008,Mmasebotsana,746440353776025600,2020-05-06 07:25:27,South Africa,poi,Pretoria High Court,South Africa
24,-122.958344,49.239653499999996,Raiaan Sadeed,746440515994824704,2020-02-14 01:41:47,"Burnaby, British Columbia",city,"Burnaby, British Columbia",Canada
8,-58.0296079,-31.382141600000004,aL3Xs-r0H,746440765,2020-02-14 01:29:15,"Paran, Brasil",city,"Concordia, Argentina",Argentina
47900,-77.18325,38.8125,aL3Xs-r0H,746440765,2020-03-01 14:28:05,"Paran, Brasil",city,"Annandale, VA",Estados Unidos
8,-60.5333,-31.7333,aL3Xs-r0H,746440765,2020-03-10 03:00:53,"Paran, Brasil",city,"Paran, Argentina",Argentina
211,-66.9029841,10.497060300000001,aL3Xs-r0H,746440765,2020-03-22 14:51:23,"Paran, Brasil",city,"Caracas, Venezuela",Venezuela
8,-58.0296079,-31.382141600000004,aL3Xs-r0H,746440765,2020-04-09 04:54:29,"Paran, Brasil",city,"Concordia, Argentina",Argentina
205,-3.757594,51.5757465,Ross Hookings,746440852378161152,2020-03-13 21:17:14,"Port Talbot, Wales",city,"Margam, Wales",United Kingdom
88,136.853138,35.1371575,,746441123468435457,2020-02-15 11:38:02, ,city,"Nagoya-shi Nakagawa-ku, Aichi",Japan
39900,-119.78153999999999,39.474361,Just another white boy,746441331992518656,2020-02-22 05:29:53,Most Likely Scheels,poi,Build-A-Bear Workshop,United States
41860,-122.2426,37.7644,Stephen Low-c,74644186,2020-04-29 15:15:40,"San Francisco, CA",city,"Alameda, CA",United States
38,-75.5496355,10.3904485,Cleyton Arruda,74644237,2020-03-18 04:09:11,"Santiago, Chile",city,"Cartagena, Colombia",Colombia
33,-70.6596155,-33.4521615,Cleyton Arruda,74644237,2020-03-20 23:12:45,"Santiago, Chile",city,"Santiago, Chile",Chile
33460,-93.21759,44.74362,Emily Goerdt,746442396,2020-05-22 05:38:01,Minnesota,city,"Apple Valley, MN",United States
16980,-87.732013,41.8335845,Marquita Jones,746442652531384324,2020-06-06 22:14:01,United States,city,"Chicago, IL",United States
71,12.8345975,53.106857999999995,Tonje Haugland,746443009412243457,2020-03-22 11:43:32,Berlin,city,"Rheinsberg, Deutschland",Deutschland
25540,-72.255515,41.806430999999996,kevin,746443279,2020-02-28 23:26:18,Away,poi,UConn Student Recreation Facility,United States
205,-2.915427,53.4198785,Morgana,746443306419228672,2020-03-17 16:52:54,"Liverpool, England",city,"Liverpool, England",United Kingdom
38,-74.6578315,10.900633500000001,Jose David:.,74644334,2020-02-17 22:09:37,Envigado-Medellin-Barranquila,city,"Sitionuevo, Colombia",Colombia
175,41.654885,27.477232,  ,746443621,2020-02-29 18:23:41,",   ",poi,Alnugrah District|  ,  
45300,-82.74685099999998,28.0858635,Mr Henderson,74644369,2020-04-23 22:42:17,Tampa Bay,city,"Palm Harbor, FL",United States
21,-43.441578,-22.911421500000003,cu.,746443711857442820,2020-02-14 22:12:13,,city,"Rio de Janeiro, Brasil",Brasil
151,13.1491605,11.8495435,ARC MUHAT KABIR,746443794107744256,2020-05-13 18:25:31,Kaduna/Maiduguri/Adamawa,city,"Maiduguri, Nigeria",Nigeria
30980,-94.8615755,32.389559000000006,Bobby Catt,746443879,2020-02-18 22:54:28,"Texas, USA",city,"Kilgore, TX",United States
19100,-97.1356375,32.70185,britt ,746444128284663808,2020-04-07 07:42:03,hillbilly hell,city,"Arlington, TX",United States
21,-53.0,-11.0,Mauro Vianzed,74644419,2020-04-20 00:40:57,Brasil,city,"So Flix do Araguaia, Brasil",Brasil
186,-4.691652,37.305052,Andrea Tanzi,7464442,2020-02-14 14:00:46,"San Jose, Costa Rica",city,"Badolatosa, Espaa",Spain
39,-84.08085299999998,9.9303,Andrea Tanzi,7464442,2020-03-08 14:49:53,"San Jose, Costa Rica",city,"San Jose, Costa Rica",Costa Rica
38300,-80.078201,40.6935755,Gus Light,746444257691582464,2020-05-08 23:06:44,"Mars, PA",city,"Seven Fields, PA",United States
88,140.6166665,36.597301,,746444342563217408,2020-02-19 15:38:41, ,city, ,
65,2.329826,48.6599125,Usubame,746444437635506176,2020-02-16 01:53:55,"Essonne, Ile-de-France",city,"Villemoisson-sur-Orge, France",France
16980,-87.632496,41.883221999999996,julie wilmore,74644456,2020-04-03 01:49:09,Chicago,city,"Chicago, IL",United States
119,-99.0444445,19.568279999999998,Victorh,746444592,2020-02-15 03:22:50,,city,"Ecatepec de Morelos, Mxico",Mxico
222,107.012009,-6.1846525,Afdhalulbasyar,746445383774068737,2020-02-23 14:36:02,"Nangro Aceh Darussalam, Indone",city,"Bekasi Utara, Indonesia",Indonesia
26420,-94.80176071,29.28092709,,746445396,2020-05-18 21:51:41,,city,"Galveston, TX",United States
24,-114.087851,51.027664,Melissa R,746445627576320000,2020-02-20 19:27:47,"Alberta, Canada",city,"Calgary, Alberta",Canada
33,-70.679614,-33.384291999999995,Karoll Concha,746445644970209280,2020-02-26 00:11:28,"Neuqun, Argentina",city,"Conchal, Chile",Chile
151,4.584993,8.486111,edreez khalifa,746445718366228480,2020-03-27 21:49:05,Nigeria kwara state,poi,Sound Bar,Nigeria
178,28.1908773,-25.74781169,Lance,746445841,2020-03-08 16:18:42,Pretoria,city,"Pretoria, South Africa",South Africa
12580,-76.7415,39.261002000000005,bitty,746445894535372801,2020-02-14 03:16:16,,city,"Catonsville, MD",United States
47900,-77.017853,39.0083495,bitty,746445894535372801,2020-02-21 23:02:49,,city,"Silver Spring, MD",United States
12580,-76.7415,39.261002000000005,bitty,746445894535372801,2020-02-25 21:55:10,,city,"Catonsville, MD",United States
47900,-77.017853,39.0083495,bitty,746445894535372801,2020-02-29 00:34:14,,city,"Silver Spring, MD",United States
12580,-76.7415,39.261002000000005,bitty,746445894535372801,2020-03-01 22:54:58,,city,"Catonsville, MD",United States
47900,-77.017853,39.0083495,bitty,746445894535372801,2020-03-14 22:59:47,,city,"Silver Spring, MD",United States
120,101.519374,3.072641,   ,74644623,2020-02-17 02:02:46,"T: 3.0734136,101.5188467",city,"Petaling Jaya, Selangor",Malaysia
205,0.7365904999999999,52.0385845,Victoria Clayton,746446717311135744,2020-02-17 19:00:50,"East, England",city,"Sudbury, East",United Kingdom
88,135.4993445,34.657384,,746446740,2020-04-07 02:17:22,  ,city,  ,
21,-50.9833,-29.95,Alexandre Ribeiro,746446767793803264,2020-05-01 21:54:54,"Gravata, Brasil",city,"Gravata, Brasil",Brasil
151,8.577638499999999,12.03154,Aminu Halilu,746447301481226240,2020-02-16 22:34:28,,city,"Dakata, Nigeria",Nigeria
96,48.083079999999995,29.1867245,Eng.AlAnsari,746448002068381697,2020-02-14 15:20:59,"West Virginia, USA",city,"Mubarak Al Kabeer, Kuwait",Kuwait
88,135.761146,35.003448999999996,,746448054,2020-02-15 11:07:24, ,city,  ,
41740,-117.10498899999999,32.810012,Andrew Tepp,746448134935445505,2020-02-21 04:42:44,Lazy Town,city,"San Diego, CA",United States
186,-4.634938,40.6565935,Luis Filipe Photographer,746448257556029440,2020-02-22 10:32:58,Espaa,city,"vila, Espaa",Espaa
169,26.261604,47.6638515,Radu Bondar,746448731386437632,2020-02-16 10:24:14,"Houston, TX",city,"Suceava, Romnia",Romania
26420,-95.4464865,29.838495,Radu Bondar,746448731386437632,2020-02-26 17:07:00,"Houston, TX",city,"Houston, TX",United States
31080,-118.4119065,34.0207895,Radu Bondar,746448731386437632,2020-02-29 21:53:23,"Houston, TX",city,"Los Angeles, CA",United States
26420,-95.4464865,29.838495,Radu Bondar,746448731386437632,2020-03-03 19:44:54,"Houston, TX",city,"Houston, TX",United States
205,-0.018734,51.5992555,ay d!os m!o,746449276713177089,2020-06-03 22:26:09,Ilford ,city,"Walthamstow, London",United Kingdom
82,74.5107235,26.4454915,Deepak Jain,74644969,2020-03-28 12:19:51,India,city,"Ajmer, India",India
35840,-82.51939899999998,27.3701375,SeniorsBlueBookSWFL,746449937068613633,2020-03-09 19:19:06,"Sarasota, FL",city,"North Sarasota, FL",United States
24,-79.27256949999999,43.629311,Progress Church,746449939622989824,2020-05-10 01:47:15,"Toronto, Ontario",city,"Toronto, Ontario",Canada
119,-99.1614805,19.380613,Ivan Robles,74645006,2020-03-01 01:27:06,Mexique; Spotify: incubus66677,city,"Benito Jurez, Distrito Federal",Mxico
41180,-90.4495815,38.593522,Tommy,74645025,2020-02-16 14:37:56,"Missouri, USA",city,"Des Peres, MO",United States
28140,-94.3483714,39.0391279,Tommy,74645025,2020-02-21 02:31:21,"Missouri, USA",city,"Independence, MO",United States
41180,-90.44360999999999,38.60354,Tommy,74645025,2020-02-26 05:38:06,"Missouri, USA",city,"Des Peres, MO",United States
21,-64.52161749999999,-8.984888,Gregory,74645036,2020-04-12 01:56:26,Porto Velho Ro Brasil,city,"Porto Velho, Brasil",Brasil
163,-82.429736,8.428182000000001,5 Noticias y un Comentario,746450496433487872,2020-05-23 16:04:41,Panam,poi,Municipio de David,Panam
24,-80.4764035,43.430240000000005,Dalia ibrahim,746450965407080449,2020-02-14 12:07:50,,city,"Kitchener, Ontario",Canada
21,-43.441578,-22.911421500000003,as vezes isa as vezes bela,746451052979970048,2020-02-14 00:33:59,021/zonasul ,city,"Rio de Janeiro, Brasil",Brasil
39220,-110.79758799999999,39.607031,ty,746451120965332992,2020-03-13 15:45:26,"Price, UT",poi,Carbon High School,United States
21,-49.6142935,-25.2664865,Fabizinha,746451460825702401,2020-02-14 00:06:45,"Campo Largo, Brasil",city,"Campo Largo, Brasil",Brasil
38,-72.26707449999999,5.2085745,Adri,746451557491802112,2020-03-05 22:29:00,,city,"Yopal, Colombia",Colombia
120,100.310926,5.416457,zaidhasan,746451741814587392,2020-02-20 07:26:53,"Kedah, Malaysia",poi,Penang General Hospital (Hospital Pulau Pinang),Malaysia
160,-76.9814185,-12.1265765,Luis Meja,746451827558879232,2020-03-17 11:56:28,"Lima, Peru",city,"Santiago de Surco, Peru",Peru
41740,-117.07058,32.801615000000005,ONSCENE.TV,74645202,2020-04-07 23:18:55,United States,city,"San Diego, CA",United States
31080,-118.24874042,34.03742524,ONSCENE.TV,74645202,2020-05-17 21:55:59,United States,city,"Los Angeles, CA",United States
175,39.2541285,21.5857105,,746452071155666944,2020-03-01 16:37:28,Westros,city,"Jeddah, Kingdom of Saudi Arabia",Kingdom of Saudi Arabia
21,-51.1593095,-30.099836,Gabriel Henrique ,746452235098390528,2020-02-14 00:12:01,"Porto Alegre, Brasil",city,"Porto Alegre, Brasil",Brasil
33,-71.53746081,-34.11002912,TomyZiller,746452246569820160,2020-02-15 02:56:00,"Santiago, Chile",city,"La Estrella, Chile",Chile
222,111.4054705,-7.495309,Lustyanto,74645246,2020-04-23 12:05:39,"ngawi,Indonesia",city,"Geneng, Indonesia",Indonesia
14460,-71.21368249999999,42.3253925,Megan Hondl,746452970,2020-02-26 00:45:56,"Brookline, MA",city,"Newton, MA",United States
8,-62.2667,-38.7167,,746452983144132610,2020-03-07 23:34:32,,city,"Baha Blanca, Argentina",Argentina
42660,-122.149768,47.5978565,SEABASS,74645355,2020-02-27 08:16:11,YB House,city,"Bellevue, WA",United States
96,47.97452,29.224902,  .,746453654182498306,2020-02-24 14:06:48,Kuwait City,city,"Airport Area, Kuwait",Kuwait
38,-75.6187,6.152188,NIKO,746453761040744448,2020-05-24 15:10:17,"Medelln, Colombia",poi,Sabaneta,Colombia
65,3.0943970000000003,46.98638,Lu,746454161391255556,2020-02-28 14:54:57,"Nivre, Bourgogne",city,"Marzy, France",France
41940,-121.896165,37.431473,Phani Cherukuri,746454719913091072,2020-05-22 09:23:48,"San Jose, CA",city,"Milpitas, CA",United States
88,139.405773,35.348688,,746454836,2020-03-24 13:47:27,,city, ,
88,127.834345,26.364866999999997,,746455261,2020-03-30 10:52:41,,city, ,
175,49.9945455,26.353591499999997, ,746455366515499008,2020-03-17 10:01:19,,city,"Dammam, Kingdom of Saudi Arabia",Kingdom of Saudi Arabia
26420,-95.53985250000001,30.1812515,  ,746455541262622720,2020-03-26 18:39:48,not much longer,city,"The Woodlands, TX",United States
88,139.7091805,35.701657,Koki Miyachi,74645586,2020-04-08 13:16:00,,city, ,
161,68.338914,25.410685,Kashif Hussain Vistro,746455903952568321,2020-03-25 15:54:18,"Karachi, Pakistan",poi,Qasimabad Hyderabad,Pakistan
32380,-93.6365855,43.2586675,Jason Bruckhoff,746456341,2020-02-29 01:51:41,,city,"Forest City, IA",United States
80,19.129828,47.4812305,Dr. Fridrik Larsen,746456751990505472,2020-03-13 08:46:34,Iceland,city,"Budapest, Hungary",Hungary
205,-0.9994226999999999,50.934488200000004,Emma Roberts,746456785716936704,2020-04-03 08:10:21,,city,"Clanfield, England",United Kingdom
205,-1.0803,53.9583,AnLasair,746456902255677440,2020-02-28 19:10:19,"York, England",city,"York, England",United Kingdom
153,25.85758167,69.47120333,AnLasair,746456902255677440,2020-03-15 22:07:37,"York, England",city,"Karasjok, Norge",Norway
60,24.9375,60.1708,AnLasair,746456902255677440,2020-03-20 05:59:34,"York, England",city,"Helsinki, Finland",Finland
205,-0.1291,51.525,AnLasair,746456902255677440,2020-03-21 11:25:08,"York, England",city,"Camden Town, London",United Kingdom
36740,-81.393653,28.664803499999998,Petrova,746456904541552640,2020-02-26 20:14:55,,city,"Altamonte Springs, FL",United States
200,27.981934000000006,41.301428,Mcahit Eydemir,746457096951046144,2020-03-25 12:56:35,,city,"erkezky, Trkiye",Trkiye
160,-77.07859599999999,-12.061247,Lizbeth,746457248289808384,2020-04-22 14:27:36,"Lima, Peru",poi,Perufarma Distribuidores,Peru
16580,-88.200334,40.115085,Aris Karnavas,746457249028145152,2020-03-05 19:17:18,"Chicago, IL",city,"Urbana, IL",United States
222,109.52069791,-7.60908683,Dedi Priyanto,746457381261844480,2020-04-02 09:52:14,"Gombong, Indonesia",city,"Gombong, Indonesia",Indonesia
21,-43.441578,-22.911421500000003,filha do homem ,746457540087668742,2020-03-12 13:37:32,mundo verde ,city,"Rio de Janeiro, Brasil",Brasil
205,-0.0991635,51.645275500000004,Saray Karakus,746458022319390720,2020-04-05 23:27:59,United Kingdom,city,"Enfield, London",United Kingdom
31080,-117.86481850000001,33.926652000000004,Brea Downtown,74645876,2020-03-24 20:24:20,"Brea, CA",city,"Brea, CA",United States
88,139.71509400000002,35.7291085,,746458767135387648,2020-05-30 12:45:19,,city, ,
38060,-112.063929,33.506598, From Power983  ,746459120308363266,2020-03-18 19:40:00,Phoenix AZ ,poi,Power 98.3,United States
65,5.149453,43.6721835,Guidufox387,746459417323966465,2020-04-23 09:29:50,,city,"Aurons, France",Francia
35380,-91.02681899999999,29.947029999999998,C L A I R E,746459699751464960,2020-05-30 01:44:21,quoting tik toks,poi,Assumption High School,United States
119,-99.23399599999999,18.918043,Chabely Castaeda,74645980,2020-03-05 15:35:17,,poi,IMSS Clnica 20,Mxico
200,32.567358,39.9647495,Sibelyilmazer,746459917717016576,2020-03-09 08:10:38,,city,"Sincan, Trkiye",Trkiye
49,-78.2838235,0.059561,Gabriel Olmedo,746460217,2020-03-17 23:39:06,GAD Municipal de Pedro Moncayo,city,"Pedro Moncayo, Ecuador",Ecuador
186,-16.337785500000006,28.5089105,Alanis ,746460722041851905,2020-02-14 13:26:08,"Santa Cruz de Tenerife, Espaa",city,"San Cristbal de la Laguna, Espaa",Espaa
82,77.66100168,13.01186475,Recruise India Consulting,74646104,2020-03-10 10:46:49,Bangalore,city,"Bengaluru South, India",India
19100,-97.2859135,32.7799665,Kris Carnes,74646112,2020-03-13 21:51:53,"Glen Rose, TX",city,"Fort Worth, TX",United States
186,-1.1177955,37.916841,Pepe pistols,746461182425440256,2020-02-14 09:58:28,,city,"Murcia, Spain",Spain
28140,-94.5592815,39.1000485,Staley Falcon Club,746461661037420544,2020-02-19 00:14:10,"Kansas City, MO",city,"Kansas City, MO",United States
21,-45.917442,-23.061418,N,746461882136006656,2020-02-14 16:39:31,"So Jos dos Campos, Brasil",city,"So Jos dos Campos, Brasil",Brazil
16980,-87.732013,41.8335845,Barbara,746462089191907329,2020-03-03 02:47:43,"Texas, USA",city,"Chicago, IL",United States
26420,-95.3778145,30.0635145,Barbara,746462089191907329,2020-03-11 16:15:32,"Texas, USA",city,"Spring, TX",United States
24,-79.6748465,44.371263,good boy danny,746462455,2020-03-31 04:32:47,Chrontario,city,"Barrie, Ontario",Canada
31080,-118.132071,34.049352,CHP eastlosangeles,746462568013664257,2020-04-24 22:34:24,"East Los Angeles, CA",city,"Monterey Park, CA",United States
31140,-85.680001,38.138382,Kaley Lucas,746462733126733824,2020-02-23 03:34:07,"Louisville, KY",poi,Applebee's Grill + Bar,United States
48620,-97.29514300000001,37.715790999999996,Mamarazzi Magazine,74646281,2020-03-29 19:57:33,"Wichita, Kansas",poi,Wichita State University - Coleman Tennis Complex,United States
128,3.8939735,50.383439,Annick VANDYSTADT,746462815607750656,2020-02-26 22:26:12,Belgique,city,"Frameries, Belgique",Belgique
21,-43.353033,-22.836377,Ana Clara ,746463483705892864,2020-05-28 00:57:40,"Rio de Janeiro, Brasil",poi,Centro Mdico Rocha Miranda,Brasil
21,-39.3951185,-8.154984500000001,Daniel Cruz,746464137077727232,2020-05-09 01:35:15,,city,"Terra Nova, Brasil",Brasil
205,-4.0816175,51.069904,Best of North Devon,746464325821407232,2020-02-26 17:13:17,"South West, England",city,"Bickington, England",United Kingdom
21,-48.05638889,-15.83333333,Alcio Nunes,74646443,2020-04-25 22:37:21,Brasilia/Brasil,city,"Braslia, Brasil",Brasil
222,107.29926999999999,-6.3918870000000005,Makmur Nawawi,74646489,2020-02-23 04:36:19,Karawang,city,"Telukjambe, Indonesia",Indonesia
119,-103.4847745,20.790657000000003,Pepe Reynozo D Jesus,746465015562002432,2020-02-23 05:03:31,"Zapopan, Jalisco",city,"Zapopan, Jalisco",Mxico
151,3.3524415000000003,7.154428,olubiyi bheeyor,746465523450380288,2020-02-14 16:46:16,"Abeokuta, Nigeria",city,"Abeokuta, Nigeria",Nigeria
151,3.3386055,6.4931125000000005,Socket Of Lagos #AfrovibeAfrica,746465705348972544,2020-02-26 20:39:57,"Lagos, Nigeria",city,"Lagos, Nigeria",Nigeria
47900,-77.3141525,39.395430499999996,ALEX DEAN,746466256488964097,2020-05-06 15:57:02,,city,"Linganore, MD",United States
186,-3.8640894999999995,43.4097545,JBedoya,746467307468263424,2020-04-15 09:38:07,"Santander, Espaa",city,"Camargo, Espaa",Espaa
-9999,-34.550309000000006,-4.8747985,Neydja Silva,746467358571659264,2020-05-13 00:35:02,,city,"Natal, Brasil",Brasil
222,106.25826299999999,-6.364407,NGACO INSTITUTE,746467782,2020-04-10 18:36:43,Depan Rumah Beut,poi,Saung Beut (saung bermanfaat),Indonesia
41420,-123.029,44.9311,Bobbi Quitoriano,74646826,2020-02-18 23:11:25,Some where in a rainy state.,city,"Salem, OR",United States
21,-35.003737,-8.1485835,Gleison Batista,746468623162671104,2020-02-24 00:18:30,"Pernambuco, Brasil",city,"Jaboato dos Guararapes, Brasil",Brasil
65,-4.10477925,47.99401674,Hamza ,746468792604233729,2020-02-19 17:49:05,"Garges-ls-Gonesse, France",city,"Quimper, France",France
41860,-122.41479,37.779315000000004,Samantha Doerr,746469066,2020-03-07 06:02:39,"Seattle, WA",poi,Orpheum Theatre,United States
42660,-122.3306025,47.614816999999995,Samantha Doerr,746469066,2020-03-09 20:23:25,"Seattle, WA",city,"Seattle, WA",United States
14740,-122.65579450000001,47.4939445,Samantha Doerr,746469066,2020-03-31 04:02:04,"Seattle, WA",city,"Port Orchard, WA",United States
222,106.8284905,-6.36695106,UniversitasIndonesia,74646907,2020-02-14 09:55:28,Depok,city,"Beji, Indonesia",Indonesia
31080,-117.85108899999999,33.842863,Aaron Daniel Jacob,74646924,2020-02-14 20:01:23,Los Angeles,city,"Anaheim, CA",United States
200,27.4067505,38.6239745,Osman    AHN,746469559805313024,2020-03-28 09:45:09,,city,"Manisa, Trkiye",Trkiye
26900,-86.1429225,39.7795625,chas,746470228335464448,2020-03-19 23:00:50,"Indianapolis, IN",city,"Indianapolis, IN",United States
26420,-95.4464865,29.838495,Cynthia Lopez,746470343942905856,2020-03-13 00:49:18,"Houston, TX",city,"Houston, TX",United States
171,121.047707,14.573936999999999,,746470368,2020-03-08 02:53:57,Philippines,poi,ACTS Dance and Arts Academy,Republic of the Philippines
21,-49.3794,-20.8102,M Tosta,74647052,2020-02-28 17:34:37,"So Paulo, Brasil",city,"So Jos do Rio Preto, Brasil",Brasil
200,31.0403565,38.700575,MEHMETORAL,746470761095888896,2020-05-20 23:45:51,ESKEHR ve AFYON,city,"Bolvadin, Trkiye",Trkiye
45300,-82.67290299999998,27.7957195,Nick Anderson,746471035,2020-04-16 16:50:54,,city,"St Petersburg, FL",United States
21220,-115.62091950000001,40.7612345,Marti Fierbach,746471208670003200,2020-03-26 23:53:32,Nevada,city,"Spring Creek, NV",United States
41860,-122.2329345,37.4972935,Shannon Lucas,74647135,2020-03-03 21:09:21,San Francisco,city,"Redwood City, CA",United States
33100,-80.10551426,26.11999216,Mike,746471496,2020-03-04 01:11:56,"Buffalo, NY",city,"Fort Lauderdale, FL",United States
21,-43.5243665,-22.696528, ,746471507841458176,2020-02-14 00:12:04,CARIOCA RAIZ ,city,"Nova Iguau, Brasil",Brasil
120,101.770181,2.9490515,aripkor,746471630017200128,2020-02-19 16:52:19,Malaysia,city,"Kajang, Selangor",Malaysia
21,-43.271739000000004,-22.878739000000003,P,746471812364640259,2020-03-02 21:40:54,"Rio de Janeiro, Brasil",poi,Shopping Nova Amrica,Brasil
173,39.236036,51.6793275, .,746471926898507776,2020-02-14 04:06:27,", ",city,", ",
44700,-121.3004255,37.980826,Isacc Phong ,746472108079800320,2020-02-18 02:18:28,In my bag,city,"Stockton, CA",United States
40900,-121.469664,38.561721999999996,Isacc Phong ,746472108079800320,2020-03-14 23:59:12,In my bag,city,"Sacramento, CA",United States
44700,-121.3004255,37.980826,Isacc Phong ,746472108079800320,2020-03-17 03:49:56,In my bag,city,"Stockton, CA",United States
71,6.9827785,49.2435635,"Sara Molinari, PhD",746472540449607680,2020-02-14 09:40:16,"Houston, TX",city,"Saarbrcken, Germany",Germany
65,2.347003,48.8588335,"Sara Molinari, PhD",746472540449607680,2020-02-14 21:04:54,"Houston, TX",city,"Paris, France",France
26420,-95.4464865,29.838495,"Sara Molinari, PhD",746472540449607680,2020-03-04 00:25:38,"Houston, TX",city,"Houston, TX",United States
16980,-87.4788145,41.6381905,David,746472737166659584,2020-02-14 04:53:49,Pluto,city,"Hammond, IN",United States
26900,-86.14782650000002,39.7855175,David,746472737166659584,2020-03-21 02:28:14,Pluto,neighborhood,"Old Northside, Indianapolis",United States
39300,-70.938921,41.668286,Isaac Garcia,746472943,2020-03-22 02:36:53,"New Bedford, MA",city,"New Bedford, MA",United States
40140,-117.5621525,34.12167,Isaac Garcia,746472943,2020-05-20 07:06:15,"New Bedford, MA",city,"Rancho Cucamonga, CA",United States
39300,-70.938921,41.668286,Isaac Garcia,746472943,2020-05-24 01:56:32,"New Bedford, MA",city,"New Bedford, MA",United States
88,132.888797,32.829184999999995,IBURI CURRY,746473305054404608,2020-02-14 00:01:24, ,city, ,
222,106.73540200000001,-6.1866010000000005,Syambas Effendi,74647336,2020-02-17 10:11:12,,poi,Rumah Sakit Pondok Indah Puri Indah (RSPI),Indonesia
35620,-73.9685415,40.780709,Dale Ducko,746473537779695617,2020-02-14 01:33:15,,city,"Manhattan, NY",United States
31080,-118.4119065,34.0207895,Daniel LeonCrssd Festival SD2020,746473725067829248,2020-02-14 20:38:27,"Long Beach, CA",city,"Los Angeles, CA",United States
35620,-74.0064,40.7142,Daniel LeonCorinaV-19LA ,746473725067829248,2020-05-14 16:33:23,"Long Beach, CA",city,"Manhattan, NY",United States
31080,-118.1567105,33.809171500000005,Daniel LeonCorinaV-19LA ,746473725067829248,2020-05-23 05:34:40,"Long Beach, CA",city,"Long Beach, CA",United States
222,119.40822,-5.13518,Fadli M Nur,74647384,2020-03-03 14:34:22,Baker Street 221B,city,"Ujungpandang, Indonesia",Indonesia
33100,-80.4632,25.706249,Carmen Lobaina,746473976055074816,2020-05-22 15:47:54,"Florida, USA",city,"Kendall West, FL",United States
34980,-86.3214935,36.207541,Tyson Kelley,746474013690576896,2020-03-12 20:44:01,"Tennessee, USA",city,"Lebanon, TN",United States
26420,-95.4464865,29.838495,VT,746474658304659458,2020-05-08 06:14:03,"Texas, USA",city,"Houston, TX",United States
117,58.4641695,23.549159000000003, ,746474690,2020-02-14 04:05:49,,city,",  ", 
178,28.217089,-25.9975615,Xolisani Malindi,746474732099350528,2020-02-16 14:46:19,"Mthatha, South Africa",city,"Tembisa, South Africa",South Africa
31080,-117.99873249999999,33.692541999999996,v. ,74647495,2020-02-18 00:28:25,,city,"Huntington Beach, CA",United States
96,48.099239000000004,29.135459,,746475066062422017,2020-02-16 07:54:45,,poi,    ,Kuwait
88,137.3669115,36.568288,kazu,746475264968785920,2020-06-06 10:42:21, ,city, ,
49,-79.90571074,-2.11140947,ajoan429,746475288,2020-05-10 02:12:03,Guayaquil,city,"Guayaquil, Ecuador",Ecuador
21,-48.159725,-10.313967,Joao Manuca,746475550395469824,2020-05-20 16:15:40,"Palmas, Brasil",poi,Praa Maracape,Brasil
21,-43.018208,-22.821465,Nany,746475648206635008,2020-02-26 21:09:55,,city,"So Gonalo, Brasil",Brasil
175,44.3223565,17.5818875,  ,746475777408045056,2020-03-06 06:46:04,",   ",city,"Najran, Kingdom of Saudi Arabia",Kingdom of Saudi Arabia
35380,-90.1786295,30.001244,Eponymous,746476345815760896,2020-02-19 19:38:54,In bae,city,"Metairie, LA",United States
222,106.9116645,-6.6781454999999985,Meong~,74647635,2020-04-06 07:21:54,"Jakarta Selatan, DKI Jakarta",city,"Megamendung, Indonesia",Indonesia
30,104.116895,30.607888,&,746476865322377216,2020-04-07 08:45:54,,poi,China Construction Bank (CCB) ,
48,-68.623478,18.725815,Michael Banica,746476921,2020-03-09 22:51:06,Punta Cana-Rep Dom,city,"Higey, Dominican Republic",Dominican Republic
205,0.317777,51.4864855,REA,746476987707973633,2020-05-11 16:31:10,Essex,city,"Grays, East",United Kingdom
9,147.33042749999998,-42.8652511,Olivia Hicks,74647710,2020-03-01 07:43:40,"Hobart, TAS",city,"Hobart, Tasmania",Australia
171,120.784936,15.759882500000002,Duztine-Metawin ,746477730,2020-05-22 02:17:28,"Dubai, United Arab Emirates",city,"Talugtug, Central Luzon",Republic of the Philippines
119,-100.3189,25.6714,Gabriel Guzman,74647807,2020-04-19 00:04:16,"Monterrey, MX",city,"Monterrey, Nuevo Len",Mexico
21,-43.441578,-22.911421500000003,Caio Farias,746478207315095552,2020-02-29 04:57:40,"Recreio dos Bandeirantes, Rio ",city,"Rio de Janeiro, Brazil",Brazil
21,-42.043358000000005,-22.7372245,Teeuz ,746478409753169920,2020-02-14 03:50:40,D.Caxias,city,"Cabo Frio, Brasil",Brasil
19100,-96.69960400000001,33.1946515,OKN,746478535,2020-02-15 11:27:45,,city,"McKinney, TX",United States
82,72.834621,19.079339,Allen Claudius,746478560,2020-02-16 12:03:52,Mumbai,city,"Mumbai, India",India
9,153.07012834,-27.44044946,Allen Claudius,746478560,2020-03-13 07:54:38,Mumbai,city,"Brisbane, Queensland",Australia
82,72.8764,19.0627,Allen Claudius,746478560,2020-03-26 09:19:27,Mumbai,city,"Mumbai, India",India
9,153.0673182,-27.438595199999998,Allen Claudius,746478560,2020-03-29 06:43:21,Mumbai,city,"Brisbane, Queensland",Australia
82,72.83058532,19.07154357,Allen Claudius,746478560,2020-03-30 12:45:02,Mumbai,city,"Mumbai, India",India
9,153.06303,-27.397920000000003,Allen Claudius,746478560,2020-04-02 06:15:12,Mumbai,city,"Brisbane, Queensland",Australia
82,72.83085339,19.06568852,Allen Claudius,746478560,2020-04-03 11:43:27,Mumbai,city,"Mumbai, India",India
119,-99.17525649999999,19.3990453,Timothy Gutierrez,746478924910059520,2020-03-12 03:01:52,,city,"Miguel Hidalgo, Distrito Federal",Mxico
82,76.59674150000002,28.892771999999997,Amitesh kumar,746479165344452608,2020-03-03 07:16:59,good,city,"Rohtak, India",India
96,47.713665999999996,29.318407500000003,,746479303278403588,2020-02-16 20:09:50,,city,"Saad Al Abdullah, Kuwait",Kuwait
26420,-95.19268000000001,29.972668,LaToya Glenn,746479518940958720,2020-02-26 18:36:48,"Houston, TX",city,"Atascocita, TX",United States
19100,-96.6021425,32.7749375,daisy woods,746479602952863744,2020-02-15 19:39:27,"Dallas, TX",city,"Mesquite, TX",United States
222,119.93179350000001,-0.8720855000000001,Rio Andi Baso,74647964,2020-03-14 16:02:48,\666/,city,"East Palu, Indonesia",Indonesia
21,-44.1754915,-22.487255,Ian,746479695500353536,2020-02-14 01:18:24,"Rio de Janeiro, Brasil",city,"Barra Mansa, Brasil",Brasil
24,-79.820465,43.381396, ,746479722,2020-02-14 18:46:32,"Hamilton, Ontario",city,"Burlington, Ontario",Canada
82,77.21728,28.630959999999998, MILAN SONI,746479726403923972,2020-03-20 04:09:14,nawajaipur palamau jharkhand,city,"New Delhi, India",India
21,-49.5377245,-27.4446145,Vini,746479889751117828,2020-05-28 00:57:54,"Ituporanga, Brasil",city,"Ituporanga, Brasil",Brasil
15980,-81.8215395,26.472810499999998,Holly Covey,746480047838609409,2020-05-29 16:03:34,"San Carlos Park, FL",city,"San Carlos Park, FL",United States
35620,-73.9685415,40.780709,Maya Litovsky,74648019,2020-02-18 16:40:50,,city,"Manhattan, NY",United States
21,-40.99205,-3.7286099999999998,Daniel de S Aguiar,74648020,2020-05-16 03:19:51,Tiangu,city,"Tiangu, Brasil",Brasil
