currentGEOID,lon,lat,name,author_Id,created_at,location,place_type,place_full_name,place_country
171,120.75853049999999,14.0227145,MARIA FRELICA,1176197995584319488,2020-03-08 12:51:42,"Balayan, Calabarzon",city,"Tuy, Calabarzon",Republic of the Philippines
175,39.2541285,21.5857105,"75;!,9",1176198000768667650,2020-02-21 10:10:56,"Cairo, GA",city,"Jeddah, Kingdom of Saudi Arabia",Kingdom of Saudi Arabia
193,100.5986965,13.7787605,NSWSN,1176198132322799616,2020-03-06 15:02:32,,city,", ",
65,6.486637,48.1639345,gena falchi,1176198140296404998,2020-02-25 15:51:28,,city,"Epinal, France",France
17460,-81.650364,41.466581,,1176198149058236418,2020-03-20 17:13:42,,poi,game of skate,United States
82,75.6319395,31.410515999999998,Bikul (shanky),1176198470626992128,2020-03-19 18:21:08,,city,"Jalandhar, India",India
82,75.96818400000002,22.6714825,Jeet Mahal,1176198510024306693,2020-05-08 18:23:15,,city,"Indore, India",India
82,78.2695835,17.741809,DEBENDRA MAJHI,1176198569629347841,2020-04-21 13:09:21,,city,"Narsapur, India",India
189,22.2299115,65.691135,Djdonle1,1176198659593179136,2020-03-18 13:58:16,"Stockholm, Sweden",city,"Lule, Sverige",Sweden
33340,-88.49767885,43.11050573,Sweet P's Pantry,1176199057,2020-02-14 13:33:04,"Oconomowoc, WI",city,"Oconomowoc, WI",United States
222,105.1252135,-5.3919535000000005,tingkah nya bikin garukk pala,1176199087344869376,2020-04-25 13:23:19,"Lampung, Indonesia",city,"Gedung Tataan, Indonesia",Indonesia
119,-98.5945715,18.2836225,Emmanuel,1176199147793321985,2020-04-10 01:50:32,,city,"Chiautla, Puebla",Mxico
222,106.84579950000001,-6.3031929,Edi iglesias,1176199197126586375,2020-03-17 11:45:35,"DKI Jakarta, Indonesia",city,"Pasar Minggu, Indonesia",Indonesia
151,8.549453999999999,12.036443499999999, - ,1176199242626535424,2020-02-14 08:23:32,"Kano, Nigeria",city,"Tudun Wada, Nigeria",Nigeria
23420,-119.7824645,36.786042,Rene Gonzales,117619937,2020-02-29 20:07:14,California ,city,"Fresno, CA",United States
21,-43.959822499999994,-19.918692,Preta ,1176199526970994691,2020-03-19 01:47:35,,city,"Belo Horizonte, Brasil",Brasil
24,-52.94571227,47.52018766,Jacob Kavanagh,1176199582218371072,2020-04-23 20:02:10,"Newfoundland and Labrador, Can",city,"Conception Bay South, Newfoundland and Labrador",Canada
21,-43.430726,-22.761722,Insta: @BarbosaBreh,1176199711176503298,2020-05-29 16:57:27,Camorim,poi,Mangaratiba,Brasil
16740,-80.8467855,35.209059,IB 4PF,1176199750728765443,2020-05-07 19:49:53,"Charlotte, NC",city,"Charlotte, NC",United States
48,-70.64156550000001,19.3911255,Andres,1176199901983776769,2020-04-08 01:40:23,,city,"Pual, Dominican Republic",Dominican Republic
205,0.6291475000000001,52.9025515,Mr Kingston 99,1176199902218588160,2020-03-06 13:43:18,,city,"Docking, England",United Kingdom
88,139.619,35.14,,117619993,2020-02-15 10:41:49, ,city, ,
38,-73.09641350000003,7.063666499999999,bucalladoxxx,1176199993507688450,2020-02-16 12:51:49,,city,"Floridablanca, Colombia",Colombia
171,121.074381,14.555925,A,1176200181366157319,2020-02-23 12:02:05,,poi,Silang Cavite,Republic of the Philippines
119,-116.929102,32.332876500000005,Richard Hernandez,1176200271342366722,2020-02-19 04:49:08,,city,"Tijuana, Baja California",Mxico
200,29.0052225,41.0213205,mustafa 476334,1176200418306809863,2020-02-23 20:34:16,"stanbul, Trkiye",city,"stanbul, Trkiye",Turkey
175,39.2541285,21.5857105, E ,1176200586162778113,2020-05-17 16:47:29,,city,",   ",  
82,81.71142449999998,19.1230615,Smt Babli Pathak,1176200612758740994,2020-04-24 18:31:46,,city,"Jagdalpur, India",India
16980,-87.875045,42.2401645,Chicago Humanists,1176200632396636162,2020-02-25 20:00:47,"Chicago, IL",city,"Lake Forest, IL",United States
222,100.37271899999999,-0.6932119999999999,Heri Erpela,1176200808947281922,2020-02-14 01:07:15,"Padang Pariaman, Indonesia",city,"Sintuk Toboh Gadang, Indonesia",Indonesia
82,81.8644645,21.2814035,Nagehs,1176200812030095361,2020-03-11 09:34:35,,city,"Raipur, India",India
178,18.676047,-33.980289,Reward,1176200835786858496,2020-02-23 14:53:54,"Cape Town, South Africa",city,"Blue Downs, South Africa",South Africa
225,55.131761,25.076857999999998,Ramy khater,1176200877448814593,2020-02-25 20:55:36,,poi,The Walk at JBR /    ,United Arab Emirates
38,-74.24367099999999,4.2622835,christina castillo,1176200958180769792,2020-02-20 19:09:35,,city,"Bogot, D.C., Colombia",Colombia
128,5.081928,51.0505975,,1176201040548507653,2020-04-03 17:22:38,honeymoon fades,city,"Tessenderlo, Belgi",Belgium
21,-43.165083,-22.956035,branquela,1176201231582322688,2020-02-26 15:30:27,,poi,Crculo Militar da Praia Vermelha,Brasil
49,-78.5566815,-0.16657049999999998,Orlando Moya,1176201935411720195,2020-02-19 01:41:50,,city,"Quito, Ecuador",Ecuador
82,77.550599,28.499759,Abhishek Dubey,1176202198952247296,2020-02-14 17:54:48,"New Delhi, India",city,"Greater Noida, India",India
26420,-95.4464865,29.838495,Oddities_Productions,1176202263070674945,2020-02-25 01:29:08,,city,"Houston, TX",United States
19100,-96.7617535,32.819858499999995,Oddities_Productions,1176202263070674945,2020-03-04 04:31:08,,city,"Dallas, TX",United States
200,29.0052225,41.0213205,Hsniye karin,1176202281206910988,2020-02-16 20:03:20,,city,"stanbul, Trkiye",Trkiye
222,119.71695,-1.03472,onank17_,1176202355185868800,2020-03-03 12:14:22,"Sulawesi Tengah, Indonesia",city,"Marawola, Indonesia",Indonesia
45300,-82.67290299999998,27.7957195,Coquina Key Soccer Club,1176202539672510464,2020-05-17 18:45:34,"St. Petersburg, Florida",city,"St Petersburg, FL",United States
82,79.32537500000002,10.422313,Reegan_AKR,1176202656395796484,2020-04-03 04:32:58,pattukkottai,city,"Pattukkottai, India",India
200,29.0052225,41.0213205,Ayla Moray,1176202675404324865,2020-05-05 05:11:57,,city,"stanbul, Trkiye",Trkiye
151,6.902878,4.8922225,queen_b,1176202767372865537,2020-03-01 21:50:36,Nigeria,city,"Choba, Nigeria",Nigeria
24660,-79.85736349999998,36.090397,UNCG Bands and Orchestras,1176202909127589888,2020-04-26 02:32:50,"Greensboro, NC",city,"Greensboro, NC",United States
21,-48.771081,-26.9669185,__Laurentino__,1176203435655553024,2020-02-15 01:38:50,"Itaja, Brasil",city,"Itaja, Brasil",Brasil
21,-43.376828,-22.728707999999997,Dj C.R Da CDD,1176203654958915585,2020-02-16 13:34:50,,city,"Belford Roxo, Brasil",Brasil
188,31.5925765,4.8437685,South Sudan Youths,1176203733035864065,2020-05-24 19:25:45,South Sudan,city,Juba,
33,-70.66389752,-33.66321338,Rodrigo Oviedo Carri,117620377,2020-03-07 19:59:38,Chile,city,"Buin, Chile",Chile
65,2.347003,48.8588335,Raphlam,1176203908315852802,2020-02-29 11:29:26,,city,"Paris, France",France
88,130.35853899999998,33.583067,Love,1176204030910947328,2020-03-05 15:02:38,,poi, ,Japan
82,74.5717205,30.8326305,Niket Pandey,1176204569702887424,2020-04-24 07:14:22,,city,"Firozpur, India",India
19060,-78.8151785,39.6456895,Marissa Vance,1176204868505296903,2020-03-15 17:04:03,"Pennsylvania, USA",city,"La Vale, MD",United States
33860,-86.24472850000002,32.364145,QueenB,1176204980304470018,2020-02-22 01:35:11,"Montgomery, AL",city,"Montgomery, AL",United States
8,-58.256091000000005,-34.824998,Matias,1176204981478797320,2020-04-17 17:52:04,"Buenos Aires, Argentina",city,"Florencio Varela, Argentina",Argentina
186,-5.6333345,37.434505,Dani Yubero,1176205063846584320,2020-06-06 14:56:47,"Sevilla, Espaa",city,"Carmona, Espaa",Espaa
46060,-111.03230900000001,32.342708,TBD,1176205129042653187,2020-03-21 05:07:24,,city,"Casas Adobes, AZ",United States
175,50.20176100000001,26.307814,"Ziad with an "" i """,1176205250140618753,2020-03-13 15:45:01,Al Khobar,city,"Al Khobar, Kingdom of Saudi Arabia",Kingdom of Saudi Arabia
27260,-81.43646899999999,30.638803000000003,eddie wagaman2,117620539,2020-02-26 11:47:33,"Yulee, FL",poi,slider's tiki bar,United States
65,-0.5888542,47.4707753,Bidet Jean Francois,1176205406529626114,2020-03-04 18:21:45,,city,"Angers, France",France
119,-102.699807,21.9115345,,1176205468546609159,2020-04-15 00:01:54,On your mind,city,"Calvillo, Aguascalientes",Mexico
119,-99.655794,19.289341,Mad Waves Records Official ,1176205567221620736,2020-02-23 20:55:40,"Toluca, Mxico",city,"Toluca, Mxico",Mxico
21,-43.441578,-22.911421500000003,Kelly Fernanda.,1176206026674180098,2020-02-16 06:51:17,Lorena,city,"Rio de Janeiro, Brasil",Brasil
18140,-83.017816,39.995072,Ohio State Wexner Medical Center Family Medicine,1176206266877632513,2020-02-19 05:11:29,"Columbus, OH",poi,Ohio State University Wexner Medical Center,United States
33100,-80.285189,26.0781705,Barbie Banxxx,1176206327334522888,2020-02-15 00:45:18,,city,"Davie, FL",United States
19820,-83.265121,42.312628,abdul aoun,1176206481286262784,2020-04-28 06:43:39,,city,"Dearborn Heights, MI",United States
25620,-89.338039,31.310637,Gary K.,1176206732164587527,2020-04-16 14:34:34,"Hattiesburg, MS",city,"Hattiesburg, MS",United States
38,-74.06610950000002,9.77238,CesMen90,1176206749881126912,2020-03-04 00:11:54,"Barrancabermeja, Colombia",city,"Ariguan, Colombia",Colombia
222,110.418504,-6.958597999999999,agus setiawan,1176206842885591040,2020-04-08 06:22:01,"Semarang Utara 1, Indonesia",city,"Semarang Utara 1, Indonesia",Indonesia
82,80.3460625,26.405874,Abhishek Mishra,1176207023215710210,2020-02-18 18:10:48,,city,"Kanpur, India",India
8,-60.3219985,-36.8979045,Virginia ,117620708,2020-04-21 04:20:21,"Buenos Aires, Argentina",city,"Olavarra, Argentina",Argentina
50,31.375261,29.841459000000004,  ,1176207086243471360,2020-03-15 18:53:20,,poi,15th May Traffic Unit,
82,74.812737,13.3271155,Girish Ss Power,1176207328619556867,2020-04-27 02:58:02,Dvg,city,"Udupi, India",India
119,-106.568008,31.452274000000006,Jess Otero,1176207390888382466,2020-03-18 15:02:18,,city,"Jurez, Chihuahua",Mxico
21,-49.0189405,-20.109346,toile,1176207713497485318,2020-04-13 05:21:11,              ,city,"Frutal, Brasil",Brasil
82,73.246024,19.1601335,Jitendra Singh,1176207794308935681,2020-05-17 18:38:26,"Mumbai, India",city,"Ulhasnagar, India",India
24,-106.63128400000001,52.136965000000004,BioXAS Imaging,1176207912949178369,2020-02-27 13:59:06,"Saskatoon, Canada",poi,Canadian Light Source Inc.,Canada
21,-59.9803255,-2.572425,Adventistas Do 7 Dia Movimento De Reforma-Brasil,1176207923938246657,2020-02-16 00:59:48,Brasil,city,"Manaus, Brasil",Brasil
175,40.4908105,21.38543,Reas,1176208201412423681,2020-05-14 07:23:31,BUSHRA,city,"Taif, Kingdom of Saudi Arabia",Kingdom of Saudi Arabia
178,28.136140500000003,-25.860881,Chef Zizi,1176208694150909959,2020-02-24 11:20:17,"Centurion, South Africa",city,"Centurion, South Africa",South Africa
82,75.96818400000002,22.6714825,Ratnesh Mendola,1176208719761141761,2020-02-14 04:45:24,"Indore, India",city,"Indore, India",India
65,4.835099,45.75782150000001,EIKICHI AMARU,1176208828867784709,2020-02-14 01:04:38,MERCEDE$REC.,city,"Lyon, France",France
21,-43.892911,-20.0758735,judith,1176208909205430273,2020-04-26 19:49:50,,city,"Nova Lima, Brasil",Brazil
40900,-121.469664,38.561721999999996,Jordan Panana Carbajal,1176209030340964352,2020-02-18 05:00:49,"Sacramento, CA",city,"Sacramento, CA",United States
200,32.86133,39.874503999999995,iek Arkan,1176209274130837505,2020-02-25 14:26:15,"Ankara, Trkiye",city,"Ankara, Trkiye",Trkiye
151,7.424094,9.073663999999999,cakeessence,1176209296889171968,2020-02-19 05:46:58,"Abuja, Nigeria",city,"Abuja, Nigeria",Nigeria
222,112.6107005,-7.943314999999999,lekule,117620940,2020-02-18 05:01:09,Indonesia,city,"Lowokwaru, Indonesia",Indonesia
21,-45.7673245,-21.2902275,Aline Mesquita,1176209437587136513,2020-02-14 16:41:14,"Campos Gerais, Brasil",city,"Campos Gerais, Brasil",Brazil
31080,-117.94938700000002,34.035340999999995,Richard Leal,1176209495690792961,2020-03-31 21:35:18,"California, USA",poi,Margarita Jones,United States
178,18.7271075,-33.8233185,@fortunatechidz1,1176209553068908544,2020-02-22 12:25:21,,city,"Kraaifontein, South Africa",South Africa
65,4.1616909999999985,44.161742499999995,ha2m,1176209563072323586,2020-02-17 12:52:15,"Baltimore, MD",city,"Salindres, France",France
14460,-70.927265,42.464533,Dancingman80,1176209601274011648,2020-03-29 17:06:42,"Boston, MA",poi,Lynn Beach,United States
119,-100.2935915,25.6417185,Centro Civitas,1176209752214237184,2020-03-03 20:25:43,"Washington 902, Monterrey N.L.",city,"Monterrey, Nuevo Len",Mexico
205,-1.8906405,52.493966500000006,,1176209852391202816,2020-02-29 15:09:49,"Manchester, England",city,"Birmingham, England",United Kingdom
47900,-77.1185025,38.981337,Andy Nieb,1176209885496848386,2020-03-30 01:52:50,,city,"Bethesda, MD",United States
65,2.326254,48.757369,vanessaboheme,1176210024240209921,2020-03-17 19:29:37,,city,"Fresnes, France",France
186,-3.7711835,40.7886965,irene,1176210094306054144,2020-05-14 12:09:26,"Madrid, Spain",city,"Miraflores de la Sierra, Espaa",Spain
175,46.673805,24.851020000000002,,1176210592606183424,2020-06-11 09:21:11, ,poi,,Kingdom of Saudi Arabia
21,-40.37516700000001,-20.427329500000003,Restrito I,1176210605776232448,2020-03-24 07:54:53,,city,"Vila Velha, Brasil",Brasil
200,32.8183815,39.8889765,,1176210629671215106,2020-03-10 19:45:45,Hatay\ Kahramanmara,city,"Ankara, Trkiye",Trkiye
222,110.40544969999999,-7.122953599999999,oyok,1176210637824786434,2020-02-23 06:22:31,smg,city,"Ungaran, Indonesia",Indonesia
82,78.3852855,17.3950375,Gopi,1176210738546970624,2020-06-02 11:33:12,,city,"Rajendra Nagar, India",India
88,139.33887149999998,35.898232500000006,,1176210792,2020-02-25 22:51:28,,city, ,
193,104.180576,14.663635000000001,LINDY,1176210895376023552,2020-03-10 07:59:22,,city,"Huai Tai, Thailand",Thailand
119,-103.335882,20.676652,M A,1176210961130237953,2020-02-18 23:34:03,,city,"Guadalajara, Jalisco",Mexico
200,28.966390000000004,41.016536,Tuba Yldrm,1176211174553214978,2020-06-04 15:27:02,,poi,Kubbe-i Ak,Trkiye
65,4.685047,49.028065999999995,Yan Eche,1176211188289613825,2020-02-27 06:16:47,"Auve, France",city,"Auve, France",France
43780,-86.290863,41.6796555,ashhole,117621120,2020-02-24 03:03:15,"Indiana, USA",city,"South Bend, IN",United States
21,-52.4014195,-26.1605745,Biiifiorentin,1176211221206437889,2020-02-14 20:04:58,,city,"Honrio Serpa, Brasil",Brasil
206,30.709985999999997,46.396954,Bizhunet,1176211314512945165,2020-05-13 23:41:24," , 29, ",poi,Alexey Expert Google Maps,
45060,-76.221104,43.1630775,Smart Discount Tires & Wheels,1176211439595507715,2020-02-29 16:19:01,"Syracuse, NY",city,"Clay, NY",United States
160,-77.046762,-12.080478,Angie,117621145,2020-02-16 01:41:41,Lima-Per,city,"Jess Maria, Peru",Peru
21,-55.1948825,-2.669053,henrique meola,1176211844165525505,2020-04-02 20:51:03,,city,"Santarm, Brasil",Brazil
21,-68.2654835,-9.9997665,babyzinha ,1176212090350112773,2020-03-11 03:35:47,"Acre, Brasil",city,"Rio Branco, Brasil",Brasil
83,59.577757999999996,36.288214,  ,1176212153675784193,2020-04-26 07:07:08,  ,poi, | Alandasht,  
82,85.10203849999998,25.569474,  ,1176212400959156224,2020-03-09 08:43:54,,city,"Patna, India",India
82,80.1621765,12.9394605,_viki_,1176212536741388288,2020-04-23 15:52:37,Chromepet chennai,city,"Sholinganallur, India",India
82,77.292836,28.6105,JITENDER KUMAR,1176212637719453696,2020-03-29 07:00:25,,poi,"Acharya Niketan, Mayur Vihar",India
88,139.65488393,35.85931419,,117621265,2020-02-15 09:36:10,,city,  ,
222,112.743,-7.2653,Syahiful Sulung,117621281,2020-02-26 10:07:52,Surabaya,city,"Genteng, Indonesia",Indonesia
186,-6.536768,39.983801,Mara Arvalo,1176212970235412481,2020-02-15 18:46:55,ubcate nena,poi,Parte Antigua De Coria,Espaa
88,139.749344,35.75005,,1176212991252975616,2020-04-07 14:59:57, ,poi, ,Japan
24,-123.033278,49.269149,john,1176213119502151680,2020-06-06 02:40:25,,poi,Chevron,Canada
222,106.872974,-6.18222,Morepick,1176213223936147456,2020-03-27 18:34:40,Indonesia,poi,Red zone,Indonesia
21,-43.376828,-22.728707999999997,Nusinha ,1176213281889038336,2020-02-14 04:54:33,"Rio de Janeiro, Brasil",city,"Belford Roxo, Brasil",Brasil
14460,-71.1839105,42.2445985,Emily Yakushev,1176213631274573824,2020-03-06 13:52:52,"New York, NY",city,"Dedham, MA",United States
120,103.42251,2.03365,Syaq,117621365,2020-02-15 08:04:46,Johor,city,"Keluang, Johore",Malaysia
205,-1.940065,52.0928855,@CotswoldTaste,1176213651520442368,2020-03-18 21:11:15,The Cotswolds,city,"Evesham, England",United Kingdom
35620,-74.184848,40.734494,jordan,1176213660882100225,2020-05-11 19:35:48,"New Jersey, USA",city,"Newark, NJ",Estados Unidos
82,72.87424399999999,19.174139999999998,santosh medhekar,1176213729324593152,2020-02-17 11:53:39,"Mumbai, India",city,"Mumbai, India",India
35620,-73.88846742,40.7107965,Lenny(ButtaB)Smith,117621392,2020-02-14 13:34:46,"Cambria Heights, Queens",city,"Queens, NY",United States
200,37.375733000000004,37.061236,Kbra Kzg,1176214219274051584,2020-05-19 21:51:19,,poi,Kadir Usta Kebap ve Lahmacun Salonu,Trkiye
222,106.72113799999998,-6.220018,Indonesia Most Viral,1176214357631324160,2020-03-15 07:50:29,,city,"Ciledug, Indonesia",Indonesia
10,50.62599,26.269669,,1176214578394476545,2020-03-02 06:03:07,.,poi,Bahrain International Airport (BAH) |   ,Bahrain
200,29.0052225,41.0213205,,1176214578394476545,2020-03-02 15:11:16,.,city,"stanbul, Trkiye",Turkey
175,46.685077,24.7219435,shohad_ ,1176214619402190848,2020-04-23 22:26:55,,city,"Riyadh, Kingdom of Saudi Arabia",Kingdom of Saudi Arabia
37980,-75.16559583,39.9542158,ChillFizz,1176214624624156672,2020-02-14 14:01:51,"Philadelphia, PA",city,"Philadelphia, PA",United States
10900,-75.4773,40.6017,ChillFizz,1176214624624156672,2020-04-25 21:08:31,"Philadelphia, PA",city,"Allentown, PA",United States
37980,-74.9189,40.1774,ChillFizz,1176214624624156672,2020-05-05 22:32:04,"Philadelphia, PA",city,"Langhorne, PA",United States
35620,-74.0272,40.1527,ChillFizz,1176214624624156672,2020-05-18 18:06:22,"Philadelphia, PA",city,"Spring Lake, NJ",United States
37980,-75.14230818,39.95275334,ChillFizz,1176214624624156672,2020-05-21 20:49:04,"Philadelphia, PA",city,"Philadelphia, PA",United States
35620,-74.0353,40.1328,ChillFizz,1176214624624156672,2020-05-22 16:36:47,"Philadelphia, PA",city,"Sea Girt, NJ",United States
37980,-75.1651,39.9527,ChillFizz,1176214624624156672,2020-06-05 21:46:24,"Philadelphia, PA",city,"Philadelphia, PA",United States
173,30.328698,59.934148,AntonZyuzin,1176214748947451905,2020-02-15 20:39:04,"-, ",city,"-, ",
21,-43.296872,-22.644558,Flavio,1176214751401127939,2020-02-14 12:17:48,"Duque de Caxias, Brasil",city,"Duque de Caxias, Brasil",Brasil
200,28.835668,41.053987,Emre Tan,1176214991546007552,2020-02-20 17:18:00,"stanbul, Trkiye",poi,Kubbe-i Hadra Cafe & Nargile,Trkiye
171,121.818032,16.904543,Boss.eds,1176215219627937792,2020-03-19 13:32:44,"Cauayan, Isabela ",city,"Cauayan City, Cagayan Valley",Republic of the Philippines
65,6.046991,48.922077,Nico Z.,1176215268147773440,2020-02-25 06:55:46,"Meurthe-et-Moselle, Lorraine",city,"Pont--Mousson, France",France
119,-99.1614805,19.380613,Monse Ortiz,117621534,2020-02-17 16:58:23,mxico,city,"Benito Jurez, Distrito Federal",Mxico
205,-1.8906405,52.493966500000006,,1176215383071764482,2020-03-01 13:59:59,United Kingdom,city,"Birmingham, England",United Kingdom
152,4.684829,52.3004295,,1176215383071764482,2020-04-06 07:47:31,United Kingdom,city,"Haarlemmermeer, Nederland",Nederland
30,117.224852,31.801174,,1176215383071764482,2020-05-04 11:21:41,United Kingdom,poi, Mixc,
21,-43.441578,-22.911421500000003,Dj Leo,1176215491754496001,2020-03-07 01:35:04,,city,"Rio de Janeiro, Brasil",Brasil
82,72.87424399999999,19.174139999999998,Mohammad Sahil mansuri,1176215722327887872,2020-04-04 14:10:57,,city,"Mumbai, India",India
82,77.095086,28.638489500000002,Gourav Jaiswal,1176215785695408129,2020-03-07 20:13:14,,city,"New Delhi, India",India
88,139.697753,35.688002000000004,,117621591,2020-03-25 06:01:37,,poi,,
38300,-80.012591,40.446114,Dominic Campbell,1176215936,2020-05-16 22:41:12,,poi,Stage AE,United States
21,-46.614932,-23.698692,,1176215963357855750,2020-02-19 16:36:03,"Diadema, Brasil",city,"Diadema, Brasil",Brazil
171,120.98077846,14.51456775,,117621600,2020-02-16 07:42:39,The Kingdom of Sindria,city,"Paranaque City, National Capital Region",Republic of the Philippines
33,-70.5189175,-33.425400499999995,Cristian...,117621627,2020-03-07 20:47:23,,city,"Las Condes, Chile",Chile
21,-43.018208,-22.821465,Samara Barbosa,1176216396847562752,2020-02-21 11:40:30,"Rio de Janeiro, Brasil",city,"So Gonalo, Brasil",Brasil
21,-43.441578,-22.911421500000003,Vale ,1176216429626044417,2020-02-14 06:35:39,"Ro de Janeiro, Brasil",city,"Rio de Janeiro, Brazil",Brazil
12580,-76.62048200000002,39.284713,Nay,1176216435250671618,2020-05-31 19:27:42,"Baltimore, MD",city,"Baltimore, MD",United States
65,2.347003,48.8588335,",",1176216453558784000,2020-03-01 10:30:59,,city,"Paris, France",France
119,-99.16764021,19.42707868,Hector Garcia,117621649,2020-02-16 19:27:29,"Cuauhtmoc, CDMX. Mxico",city,"Cuauhtmoc, Distrito Federal",Mexico
88,139.46367,35.505657,,1176216649801748480,2020-03-31 12:32:11,,poi,  ,
151,6.94428,4.79575,Franklyn Soye,1176216738888900611,2020-06-10 07:12:35,Nigeria,poi,Aveon Offshore,Nigeria
38,-75.560285,5.056934,Ignacio Uribe Vlez,1176216922574196737,2020-05-19 14:40:27,,city,"Manizales, Colombia",Colombia
205,-1.8713520000000001,52.49716899999999,Chairman Netero,1176217468546813952,2020-05-14 12:07:39,Yorknew City,poi,Wing Yip,United Kingdom
205,-0.023097,52.0514875,Thomas Smith,1176217572079017986,2020-03-19 07:24:29,"Royston, England",city,"Royston, England",United Kingdom
40060,-77.33236149999998,37.25175,Damola Daniel,1176217618472214528,2020-02-23 01:28:26,"Texas, USA",city,"Fort Lee, VA",United States
60,23.1517065,62.926382,Hannu Saarela,1176217751372861440,2020-03-12 20:24:31,"Lapua, Suomi",city,"Lapua, Suomi",Finland
214,-64.774551,18.351031,Neel Muni,1176217868742090752,2020-06-02 18:50:44,,poi,Trunk Bay,"Virgin Islands, U.S."
9,138.601,-34.929,Teresa,117621793,2020-04-29 05:03:26,"Adelaide, SA",city,"Adelaide, South Australia",Australia
21,-43.19529358,-22.95108479,Carlos Batuque na Cozinha,1176217946231922688,2020-03-06 12:51:40,"Rio de Janeiro, Brasil",city,"Rio de Janeiro, Brasil",Brasil
205,-2.61391972,51.48624457,All About YOUth,1176218072346181637,2020-02-14 17:59:06,Shine Community Sports Hall,city,"Bristol, England",United Kingdom
119,-98.745506,19.303511,MONT'S,117621818,2020-03-26 08:47:55,"Puebla, Mxico.",poi,Carretera a puebla,Mxico
19820,-83.76451800000001,42.63381,Hartland HS Choirs,1176218194773757952,2020-03-01 23:58:11,,poi,Old Hartland High School,United States
171,120.0679005,15.5395715,Toyotomi,1176218200503021568,2020-02-21 17:55:26,,city,"Masinloc, Central Luzon",Republic of the Philippines
82,73.88438199999999,18.520764,Prajwal N.,1176218231016583168,2020-02-25 18:53:23,"Pune, India",city,"Pune, India",India
91,36.583846,-0.982171,David Somian,1176218333718491137,2020-03-30 04:32:01,,city,"Mai Mahiu, Kenya",Kenya
193,98.381466,7.877708, ,1176218355876777985,2020-02-14 12:52:36,", ",city,", ",
186,-1.987711,43.2778715,Juan Muguruza,1176218557904019458,2020-04-26 13:36:07,"San Sebastin, Espaa",city,"San Sebastin, Espaa",Espaa
151,5.641287999999999,6.3349545,Cecilia Otuakpa,1176218791145037825,2020-03-01 22:06:51,Nigeria,city,"Benin-City, Nigeria",Nigeria
31080,-118.482331,34.084989,Larizza Limjuco Woodruff,1176218792986210304,2020-02-16 21:31:24,"Portland, OR",poi,Mount Saint Mary's University,United States
38900,-122.34063799999998,45.58249,Larizza Limjuco Woodruff,1176218792986210304,2020-05-07 17:22:23,"Portland, OR",city,"Washougal, WA",United States
186,3.1337415,42.1271215,Maura,1176218793980379139,2020-05-27 21:54:36,"Gerona, ESPAA",city,"L'Escala, Espaa",Espaa
186,2.0746740000000004,41.355198,pericoibz21,1176218810061414404,2020-03-31 13:24:58,,city,"Cornell de Llobregat, Espaa",Espaa
21,-43.441578,-22.911421500000003,Gabriel Jamal,1176219195719213056,2020-02-19 01:53:22,,city,"Rio de Janeiro, Brasil",Brasil
186,-5.923545000000002,37.38319799999999,,1176219210520965122,2020-02-14 00:04:44,,city,"Sevilla, Espaa",Espaa
82,78.85045099999998,18.100824499999998,Surya Dev,1176219256611987456,2020-06-02 18:47:37,"Hyderabad, India",city,"Siddipet, India",India
222,110.840698,-7.536934,HobiTypo,1176219478369026048,2020-04-14 11:48:15,,poi,Indomaret,Indonesia
186,2.4358584999999997,42.318513,Pere Colomer Bergada,1176219628303003650,2020-03-11 09:04:56,"Camprodon, catalunya",city,"Camprodon, Espanya",Espanya
65,4.5082625,45.468659499999994,O'dog,1176219704979021825,2020-05-23 15:27:28,42,city,"Saint-Chamond, France",France
38,-74.24367099999999,4.2622835,JOHN ROMERO,1176219761644097536,2020-02-14 00:25:45,"Bogot, D.C., Colombia",city,"Bogot, D.C., Colombia",Colombia
164,-8.621914,41.162141999999996,Gaboqsosa,1176219806,2020-03-07 12:05:45,"Porto, Portugal",city,"Oporto, Portugal",Portugal
186,-5.891210500000001,37.60301850000001,Jomadibo,1176220017140084736,2020-02-19 19:38:04,"Sevilla, Andaluca",city,"Villaverde del Ro, Espaa",Espaa
12060,-84.43310600000001,33.7671945,Kuzon,1176220049889288194,2020-06-02 22:36:44,,city,"Atlanta, GA",United States
35620,-74.006724,40.712415,Kuzon,1176220049889288194,2020-06-09 21:23:15,,poi,City Hall Park,United States
222,106.897349,-6.1710080000000005,carlosdeoo,1176220120483414016,2020-05-14 11:32:26,"Kelapa Gading, Indonesia",poi,Summarecon kelapa gading,Indonesia
200,29.0052225,41.0213205,Passionate Passenger,1176220193074364416,2020-02-19 17:14:07,"stanbul, Trkiye",city,"stanbul, Trkiye",Trkiye
21,-44.2186585,-2.5139425,JunielMaia,1176220404865744896,2020-04-15 02:57:31,"So Lus, Brasil",neighborhood,"Turu, So Lus",Brasil
120,101.57849499999999,3.1565125,Rogayah A Razak,1176220474470060032,2020-02-15 01:09:35,"Kuala Lumpur, Malaysia",city,"Sungai Buloh, Selangor",Malaysia
82,78.46509449999998,17.3886495,Bharat s Parihar,1176220506233532418,2020-02-16 02:53:33,,city,"Hyderabad, India",India
222,108.5475945,-6.7441059999999995,Wahyu andika,1176220634071760898,2020-03-30 10:14:27,"Cirebon, Jawa Barat",city,"Kesambi, Indonesia",Indonesia
21,-40.137712,-19.7833365,G A B R I E L,1176220706419478530,2020-04-28 12:51:59,"Esprito Santo, Brasil",city,"Aracruz, Brasil",Brasil
33860,-86.24472850000002,32.364145,Supa Mareo King Supa,1176220801806282753,2020-04-18 04:49:59,"Montgomery, AL",city,"Montgomery, AL",United States
31080,-117.7063095,33.529449,Fast M3,1176221160,2020-06-04 19:07:01,FNF Label,city,"Laguna Niguel, CA",United States
161,67.0421945,24.9050755,Zohaib Khursheed,1176221222633431041,2020-06-05 17:59:34,"Karachi, Pakistan",city,"Karachi, Pakistan",Pakistan
21,-43.9254645,-19.843678,Raquelzinha ,1176221245211328514,2020-04-22 15:50:59,"Belo Horizonte, Brasil",neighborhood,"Guarani, Belo Horizonte",Brazil
36660,-92.04572850000001,30.990308000000002,"Chris ""Tucker"" Fields",1176221599164506112,2020-02-16 08:13:59,,city,"Cottonport, LA",United States
10780,-92.0637515,31.1168465,"Chris ""Tucker"" Fields",1176221599164506112,2020-02-25 22:40:12,,city,"Marksville, LA",United States
36660,-92.04572850000001,30.990308000000002,"Chris ""Tucker"" Fields",1176221599164506112,2020-02-27 01:21:18,,city,"Cottonport, LA",United States
10780,-92.0637515,31.1168465,"Chris ""Tucker"" Fields",1176221599164506112,2020-03-01 23:51:19,,city,"Marksville, LA",United States
36660,-92.04572850000001,30.990308000000002,"Chris ""Tucker"" Fields",1176221599164506112,2020-03-02 08:27:22,,city,"Cottonport, LA",United States
10780,-92.0637515,31.1168465,"Chris ""Tucker"" Fields",1176221599164506112,2020-03-02 20:28:25,,city,"Marksville, LA",United States
36660,-92.04572850000001,30.990308000000002,"Chris ""Tucker"" Fields",1176221599164506112,2020-03-03 07:09:38,,city,"Cottonport, LA",United States
10780,-92.0637515,31.1168465,"Chris ""Tucker"" Fields",1176221599164506112,2020-03-03 22:46:13,,city,"Marksville, LA",United States
36660,-92.04572850000001,30.990308000000002,"Chris ""Tucker"" Fields",1176221599164506112,2020-03-04 04:43:14,,city,"Cottonport, LA",United States
10780,-92.0637515,31.1168465,"Chris ""Tucker"" Fields",1176221599164506112,2020-03-07 00:47:17,,city,"Marksville, LA",United States
36660,-92.04572850000001,30.990308000000002,"Chris ""Tucker"" Fields",1176221599164506112,2020-03-07 06:15:55,,city,"Cottonport, LA",United States
10780,-92.0637515,31.1168465,"Chris ""Tucker"" Fields",1176221599164506112,2020-03-11 02:49:05,,city,"Marksville, LA",United States
36660,-92.04572850000001,30.990308000000002,"Chris ""Tucker"" Fields",1176221599164506112,2020-03-11 15:56:05,,city,"Cottonport, LA",United States
10780,-92.0637515,31.1168465,"Chris ""Tucker"" Fields",1176221599164506112,2020-04-25 22:21:20,,city,"Marksville, LA",United States
36660,-92.04572850000001,30.990308000000002,"Chris ""Tucker"" Fields",1176221599164506112,2020-04-28 05:15:32,,city,"Cottonport, LA",United States
10780,-92.0637515,31.1168465,"Chris ""Tucker"" Fields",1176221599164506112,2020-05-01 17:46:39,,city,"Marksville, LA",United States
36660,-92.04572850000001,30.990308000000002,"Chris ""Tucker"" Fields",1176221599164506112,2020-05-03 03:48:37,,city,"Cottonport, LA",United States
10780,-92.0637515,31.1168465,"Chris ""Tucker"" Fields",1176221599164506112,2020-05-03 20:53:50,,city,"Marksville, LA",United States
36660,-92.04572850000001,30.990308000000002,"Chris ""Tucker"" Fields",1176221599164506112,2020-05-09 03:56:56,,city,"Cottonport, LA",United States
10780,-92.0637515,31.1168465,"Chris ""Tucker"" Fields",1176221599164506112,2020-05-09 20:05:29,,city,"Marksville, LA",United States
36660,-92.04572850000001,30.990308000000002,"Chris ""Tucker"" Fields",1176221599164506112,2020-05-11 05:16:56,,city,"Cottonport, LA",United States
10780,-92.0637515,31.1168465,"Chris ""Tucker"" Fields",1176221599164506112,2020-05-18 18:41:17,,city,"Marksville, LA",United States
36660,-92.04572850000001,30.990308000000002,"Chris ""Tucker"" Fields",1176221599164506112,2020-05-19 03:57:05,,city,"Cottonport, LA",United States
10780,-92.0637515,31.1168465,"Chris ""Tucker"" Fields",1176221599164506112,2020-05-24 15:34:07,,city,"Marksville, LA",United States
36660,-92.04572850000001,30.990308000000002,"Chris ""Tucker"" Fields",1176221599164506112,2020-05-26 02:49:14,,city,"Cottonport, LA",United States
10780,-92.0637515,31.1168465,"Chris ""Tucker"" Fields",1176221599164506112,2020-05-30 23:36:56,,city,"Marksville, LA",United States
36660,-92.04572850000001,30.990308000000002,"Chris ""Tucker"" Fields",1176221599164506112,2020-06-01 03:11:02,,city,"Cottonport, LA",United States
10780,-92.0637515,31.1168465,"Chris ""Tucker"" Fields",1176221599164506112,2020-06-01 17:10:54,,city,"Marksville, LA",United States
36660,-92.04572850000001,30.990308000000002,"Chris ""Tucker"" Fields",1176221599164506112,2020-06-02 03:44:21,,city,"Cottonport, LA",United States
151,7.0312755000000005,4.82463,Ujuamaka Spicy,1176221645566074880,2020-05-16 23:29:54,portharcourt,city,"Port Harcourt, Nigeria",Nigeria
21,-41.941329,-22.470358500000003,Clayson Figueiredo,1176221675488251904,2020-04-01 02:18:24,Rio das Ostras/RJ,city,"Rio das Ostras, Brasil",Brasil
24,-79.383308,43.662239,Alanna Chu,1176221916354318337,2020-02-21 19:14:09,,poi,Courtyard by Marriott Hot Tub,Canada
205,-0.882951,52.238853999999996,YT-OFFICIALHY1,1176221965687934981,2020-03-22 18:43:10,Your mums yard,city,"Northampton, England",United Kingdom
41940,-121.967821,37.370990000000006,ThetorchBe@rr,1176222523970605056,2020-02-26 04:20:31,,city,"Santa Clara, CA",United States
38,-75.263478,2.9454569999999998,Erika Velasquez,1176222554589147136,2020-06-02 13:08:21,,poi,Conjunto Cerrado Parque Residencial El Tesoro II,Colombia
175,40.4908105,21.38543, ,1176222746117922816,2020-02-21 08:07:05,,city,"Taif, Kingdom of Saudi Arabia",Kingdom of Saudi Arabia
222,112.02624499999999,-7.8242199999999995,.,1176222812073185280,2020-03-29 17:06:41,,poi,Ronde Depan Waras Jaya,Indonesia
38,-77.02148199999998,2.140346,@dyyeybruner,1176223047025594369,2020-04-30 10:33:18,"Valle del Guamuez, Colombia",city,"Pata, Colombia",Colombia
175,39.2541285,21.5857105,Fahad..,1176223092382863360,2020-03-02 13:16:15,  ,city,",   ",  
200,29.1205295,40.202796000000006,Timsah Soanl,1176223109017419776,2020-02-24 15:52:54,,city,"Bursa, Trkiye",Trkiye
205,-2.1270404999999997,57.16055600000001,Megan Copland,1176223385765994496,2020-04-06 01:04:28,"Aberdeen, Scotland",city,"Aberdeen, Scotland",United Kingdom
65,2.4521965,51.0458495,JogaBonito FC,1176223429218975744,2020-02-17 22:50:35,"Rio de Janeiro, Brsil",city,"Leffrinckoucke, France",France
24,-78.0082785,44.338062,Jason W,1176223506582974469,2020-05-18 14:54:26,"Belleville, Ontario",city,"Asphodel-Norwood, Ontario",Canada
38060,-111.8583985,33.639340000000004,Dane Allen,1176223531,2020-04-15 03:00:29,,city,"Scottsdale, AZ",United States
42220,-122.7529205,38.508209,Trent Helton,1176223933881868288,2020-04-08 10:05:10,,city,"Larkfield, CA",United States
41860,-122.51560149999999,38.1159235,Trent Helton,1176223933881868288,2020-05-20 02:43:32,,city,"Black Point, CA",United States
42220,-122.7529205,38.508209,Trent Helton,1176223933881868288,2020-05-20 07:33:43,,city,"Larkfield, CA",United States
151,6.906845,4.888539,Port Harcourt cake plug,1176224172088991745,2020-05-22 07:32:33,Port Harcourt,poi,University of Port harcourt,Nigeria
188,32.5450035,15.5244125,RaedelMinYawe24,1176224420018491392,2020-03-16 06:39:04,"Beni Suef, Egypt",city,Khartoum,
16980,-87.732013,41.8335845,The Law Office of the Cook County Public Defender,1176224425026478090,2020-02-24 19:27:42,"Cook County, Illinois",city,"Chicago, IL",United States
205,-0.18919,51.5037865,Son Bossi,1176224596686704643,2020-02-14 07:27:37,"London, England",city,"Kensington, London",United Kingdom
21,-41.431886,-21.6578495,Junior Allmeida,1176224597454336002,2020-03-29 21:16:17,,city,"Campos dos Goytacazes, Brasil",Brasil
200,29.0052225,41.0213205,Ayten dalkl1,1176224749367771143,2020-06-03 13:50:19,,city,"stanbul, Trkiye",Trkiye
222,107.01098300000001,-6.232789,Sri jayanti,117622491,2020-03-02 01:43:55,"Bekasi Timur, Indonesia",poi,RS Mekar Sari Bekasi,Indonesia
200,40.735214500000005,37.3188315,Egemizbasketbol,1176224965961687040,2020-03-18 10:52:06,"Mardin, Trkiye",city,"Mardin, Trkiye",Trkiye
175,39.240241999999995,21.48966,.,1176225016867950595,2020-02-24 07:13:57,Jeddah,poi,KAU | Building 9,Kingdom of Saudi Arabia
83,48.876195,32.050153,  ,1176225305775808513,2020-04-30 21:05:34,khuzestan,poi,  ,  
222,124.8433095,1.460042,kerasukan freon di toko bunga,1176225327921553408,2020-02-22 09:46:32,,city,"Sario, Indonesia",Indonesia
205,-4.2417515,55.85830249999999,Scott Cunningham,1176225331,2020-02-18 19:28:40,"Glasgow, Scotland",city,"Glasgow, Scotland",United Kingdom
16980,-87.63344000000001,41.89136,Noah,117622534,2020-02-22 20:42:01,Chicago,city,"Chicago, IL",United States
48620,-97.343915,37.6838965,Misty Allen,117622545,2020-02-19 21:36:13,,city,"Wichita, KS",United States
175,39.6540485,24.462089000000002, ,1176225513389666305,2020-03-14 13:35:03, ,city,"Al Madinah Al Munawwarah, Kingdom of Saudi Arabia",Kingdom of Saudi Arabia
119,-100.44059449999999,20.7152745,Maggie Grk,117622578,2020-03-08 22:39:25,Queretarock,city,"Quertaro, Quertaro Arteaga",Mxico
19100,-96.7617535,32.819858499999995,becky,1176226004307795968,2020-04-03 13:59:16,,city,"Dallas, TX",United States
21,-44.173204,-2.5480099999999997,tudoe10lanches,1176226137057452033,2020-03-21 17:44:25,,poi,Conjunto Maiobao,Brazil
16980,-88.09467473,42.0051808,Bien Chido Schaumburg,1176226229957091328,2020-03-14 18:22:38,,city,"Schaumburg, IL",United States
160,-76.9626835,-12.1578435,Hctor,1176226342565744641,2020-04-04 23:46:31,,city,"San Juan de Miraflores, Peru",Peru
119,-98.1542665,19.0322295,Emilia Palmer,1176226343958261760,2020-02-14 00:18:56,"Cuernavaca, Morelos",city,"Puebla, Mxico",Mxico
49,-77.95912849999998,-0.715727,EliecerAguinda85,1176226458311806976,2020-03-20 21:20:12,,city,"Archidona, Ecuador",Ecuador
200,33.982565,38.330093,Hakan Src,1176226649177767937,2020-05-01 18:10:53,,poi,Aksaray niversitesi,Trkiye
26900,-85.9500505,39.96376100000001,Kevin Bonewitz,1176226887166812160,2020-03-16 01:25:16,,city,"Fishers, IN",United States
88,136.78230449999998,35.44726900000001,AKIRA YAMASHITA ,117622709,2020-02-15 03:03:43, ,city, ,
186,-0.074653,39.887305,El Sastre De Tarzn,1176227128557363200,2020-04-04 08:45:26,,city,"Burriana, Espaa",Espaa
151,8.53845,11.984126,Haress,1176227222597881856,2020-03-18 23:51:34,"Yobe, Nigeria",poi,Office Of The Head Of Civil Service Kano State,
171,121.108852,14.188623000000002,May Cathereen,1176227462373507073,2020-05-04 08:25:01,"Calabarzon, Republic of the Ph",city,"Calamba City, Calabarzon",Republic of the Philippines
69,-1.612222,6.693627,Trouble Man,1176227473341714434,2020-03-08 21:15:08,,city,"Kumasi, Ghana",Ghana
65,2.8548555,49.4014545,Mauvais Djo ,1176227543520829441,2020-03-19 17:43:58,Je sais meme plus ,city,"Compigne, France",France
178,18.4961165,-33.823411,FEARLESS HQ,1176227959641903104,2020-03-15 20:17:47,"Cape Town, South Africa",city,"Milnerton, South Africa",South Africa
119,-98.433464,18.890701999999997,Leonardo Tiro Ortega,1176227983461441537,2020-05-28 03:39:36,"Atlixco, Puebla",poi,Fraccionamiento Residencial Val De Cristo,Mxico
10420,-81.255709,41.160524,chi,1176228120548057089,2020-04-02 03:14:59,i love u m,poi,Hell,United States
49660,-80.8172445,41.2353315,chi,1176228120548057089,2020-04-02 03:21:25,i love u m,city,"Warren, OH",United States
186,-1.8383555,43.2685295,Egii,1176228262793682944,2020-06-03 23:09:13,,city,"Oiartzun, Espaa",Spain
39300,-71.472126,42.016396,lila,1176228416514904064,2020-05-27 21:25:22,the Salvatore school ,poi,Burlington,United States
205,-2.4349525,53.5841845,TalkEnglishBolton,1176228420482678785,2020-03-04 15:14:33,,city,"Bolton, England",United Kingdom
2,-0.63545,35.703083,Bouabdellah,1176228643628101635,2020-04-25 06:28:39,,poi,La Victoire,Algrie
8,-58.515277000000005,-34.711185, ,1176228721096892416,2020-02-17 22:52:02,Ciudad Autnoma de Buenos Aire,poi,Sociedad De Fomento aldo bonzi,Argentina
8,-68.0957225,-38.9528875,Yagozz,1176228804882292736,2020-03-01 04:50:57,,city,"Neuqun, Argentina",Argentina
33,-70.63852399999998,-33.3663795,Karen Arancibia,117622885,2020-03-23 01:39:48,,city,"Huechuraba, Chile",Chile
119,-109.84178999999999,27.7136525,Sergio CHINO Lee,117622915,2020-02-14 01:19:39,"CIUDAD OBREGON, SONORA",city,"Cajeme, Sonora",Mxico
21,-43.446886000000006,-22.8025775,Anny,1176229391417958401,2020-02-14 01:31:33,,city,"Mesquita, Brasil",Brasil
119,-91.6332875,18.4528265,Angelito Mendez,1176229472225431552,2020-05-06 02:03:40,"Carmen, Campeche",city,"Carmen, Campeche",Mxico
46060,-110.78819299999999,32.443436,yana,1176229473554878465,2020-04-19 16:30:03,az,poi,Mount Lemmon,United States
162,14.4296215,53.919716,Bartek,1176229484305010694,2020-05-16 11:40:33,,city,"Miedzyzdroje, Poland",Poland
188,32.5450035,15.5244125,  ,1176229589070286848,2020-03-08 06:48:13,,city,Khartoum,
69,-1.612222,6.693627,Nana Ampadu,1176229819589304320,2020-03-23 12:13:34,"Accra, Ghana",city,"Kumasi, Ghana",Ghana
71,11.461905,48.1524915,Jule-2009,1176229848358051840,2020-05-12 18:54:32,,neighborhood,"Pasing-Obermenzing, Mnchen",Germany
175,43.521744500000004,25.887142,,1176229915865354241,2020-02-24 22:21:34,,city,"Al Ras, Kingdom of Saudi Arabia",Kingdom of Saudi Arabia
12060,-83.996909,33.8545135,your FairyGodMother,1176230037567221760,2020-06-04 05:58:34,"Tokyo-to, Japan",city,"Snellville, GA",United States
24,-79.820465,43.381396,Halton Police Board,1176230146598166528,2020-02-20 00:58:07,Halton ,city,"Burlington, Ontario",Canada
21,-43.959822499999994,-19.918692, ,1176230373984034817,2020-02-17 20:43:03,"Belo Horizonte, Brasil",city,"Belo Horizonte, Brasil",Brasil
42660,-122.327767,47.598007,Claire Phillips,1176230685276639232,2020-03-07 20:06:58,"Seattle, WA",poi,Hood Famous Cafe + Bar,United States
65,0.704385,47.284639500000004,Aloe Vera by Isa,1176230693640318984,2020-04-14 10:36:47,"Indre-et-Loire, Centre",city,"Montbazon, France",France
200,37.387009000000006,37.062044,pek Hal Yikama,1176230704314769409,2020-04-12 19:26:07,,city,"Gaziantep, Trkiye",Trkiye
19740,-104.9220228,39.74747954,DJKP Aka FrankBandz,117623078,2020-06-03 11:32:25,"Denver, CO / 9th Ward",city,"Denver, CO",United States
26420,-95.4464865,29.838495,Sophia Palma ,1176230922225627138,2020-03-15 04:52:29,"Houston, TX",city,"Houston, TX",United States
21,-46.5955455,-23.682803,fer,1176230938231148545,2020-02-14 00:45:24,"So Paulo, Brasil",city,"Sao Paulo, Brazil",Brazil
175,49.9945455,26.353591499999997, ,1176231065448603649,2020-04-23 23:26:46,  ,city,"Dammam, Kingdom of Saudi Arabia",Kingdom of Saudi Arabia
200,26.625246,40.8567225,ilkan,1176231136248369153,2020-03-28 19:30:41,Kean ,city,"Kean, Trkiye",Turkey
117,58.15478450000001,23.650904999999998,shms ,1176231342268436480,2020-03-12 14:49:42,Oman,city,"Al Seeb, Oman",Oman
21,-49.261299,-16.642782500000003,QueriaMorta,1176231397004062720,2020-03-19 18:07:13,Brasil,city,"Goinia, Brasil",Brasil
200,32.510724,37.870034,Yamur Akda,1176231506223816716,2020-03-14 15:37:03,,city,"Konya, Trkiye",Turkey
40140,-117.55161399999999,33.976012,Karen Stephanie B.,1176231518156382208,2020-02-15 06:08:55,"Anaheim, CA",poi,Regal Edwards Eastvale Gateway,United States
31080,-117.98784199999999,33.729506,Karen Stephanie B.,1176231518156382208,2020-03-11 22:31:52,"Anaheim, CA",poi,Academy of Radio & Broadcasting,United States
40140,-117.39761599999999,33.935821999999995,Karen Stephanie B.,1176231518156382208,2020-03-13 04:31:02,"Anaheim, CA",city,"Riverside, CA",United States
95,128.13038999999998,37.03354,(),1176231757567291392,2020-02-27 12:19:37,,city, ,
71,10.719043,52.4619915,OrdnerVfL,1176231784046092288,2020-02-14 18:58:25,"Weyhausen, Deutschland",city,"Weyhausen, Deutschland",Deutschland
175,39.2541285,21.5857105,Noor,1176232048345931776,2020-02-14 18:27:59,,city,",   ",  
205,-0.172198,51.496545000000005,Sophie Westlake,1176232070068285442,2020-02-25 21:06:48,"Newcastle Upon Tyne, England",poi,Victoria and Albert Museum (V&A),United Kingdom
40780,-92.839613,35.12771,Gunner Kendrick,1176232124422205441,2020-05-22 20:49:23,"Arkansas, USA",poi,Petit Jean Mountain,United States
30780,-92.746611,35.1589915,Gunner Kendrick,1176232124422205441,2020-05-23 23:13:38,"Arkansas, USA",city,"Morrilton, AR",United States
40780,-93.165335,35.2224455,Gunner Kendrick,1176232124422205441,2020-05-26 15:55:30,"Arkansas, USA",city,"Dardanelle, AR",United States
30780,-92.746611,35.1589915,Gunner Kendrick,1176232124422205441,2020-06-07 15:10:43,"Arkansas, USA",city,"Morrilton, AR",United States
40780,-93.131458,35.27858000000001,Gunner Kendrick,1176232124422205441,2020-06-10 16:34:32,"Arkansas, USA",city,"Russellville, AR",United States
8,-58.446241,-34.659632,RomagnoliFn,1176232182530105345,2020-03-25 06:58:11,"Buenos Aires, Argentina",city,"Villa Soldati, Argentina",Argentina
21,-43.081199,-22.901870000000002,Jhow ,1176232330362523648,2020-03-03 23:32:20,Jamaica,neighborhood,"Viradouro, Niteri",Brasil
16980,-87.732013,41.8335845,ju  ju,1176232556372615171,2020-04-26 06:10:19,,city,"Chicago, IL",Estados Unidos
8,-65.1831565,-31.94991,Enrique Bruno,1176232618565754880,2020-03-12 20:03:11,,city,"San Javier, Argentina",Argentina
200,31.010508,36.8855,Mavi,1176232669597843458,2020-05-12 02:32:01,,poi,Kadriye,Trkiye
21,-42.479784,-22.935,,1176232695124373511,2020-02-25 20:54:34,"Saquarema, Rj",poi,Praia de Itana,Brasil
151,7.0313,5.4858,Lilian Ambrose,1176232727563186177,2020-03-05 15:41:22,"Owerri, imo state Nigeria",city,"Owerri, Nigeria",Nigeria
33,-70.7033745,-33.4626605,Alex Tivil,1176232829346353152,2020-03-06 16:36:14,,city,"Estacin Central, Chile",Chile
19820,-83.05533,42.342909999999996,Fourteen East,1176233215,2020-03-19 13:03:09,"Detroit, MI",city,"Detroit, MI",United States
71,11.400775,53.616198499999996,,1176233275146297344,2020-03-04 13:09:07,,city,"Schwerin, Germany",Germany
21,-49.0453445,-28.4870055,Isinha,1176233475881537544,2020-04-09 00:14:39,,city,"Tubaro, Brasil",Brasil
21,-51.043855,-29.664957,Leco,117623370,2020-02-27 00:37:15,,city,"Campo Bom, Brasil",Brasil
82,76.880711,8.553066000000001,DS,1176233854568402944,2020-03-26 08:23:09,India,poi,Olive Cressida,India
162,21.018263,52.232403999999995,slodkiemleko,1176233886029930501,2020-04-09 11:00:19,,poi,Niebo,Poland
161,71.432328,33.968022999999995,Saad Khan,1176234042028634119,2020-04-01 16:35:13,Beijing,poi,Hayatabad Phase 1,Pakistan
21,-43.441578,-22.911421500000003,Irismonferrato,1176234144650731520,2020-04-18 15:13:03,,city,"Rio de Janeiro, Brasil",Brasil
82,82.93295549999998,25.3733755,Shubham Kasera,1176234163604729857,2020-03-26 03:06:37,"Varanasi, India",city,"Varanasi, India",India
119,-99.153366,19.432835999999998,Aida Castaeda,117623426,2020-02-14 13:02:58,"19.532509,-99.230381",city,"Cuauhtmoc, Distrito Federal",Mxico
14,91.880306,24.8950825,Dishan420,1176234308899463168,2020-03-20 11:23:06,"Sylhet, Bangladesh",city,"Sylhet, Bangladesh",Bangladesh
200,30.401801000000003,40.783213,Fatih Aygndz,1176234521848623106,2020-03-07 22:22:49,"Sakarya, Trkiye",poi,Aygndz Sigorta,Turkey
21,-42.59394,-22.7370555,Gustavo neves,1176234628463636480,2020-04-02 21:20:00,"Rio Bonito, Brasil",city,"Rio Bonito, Brasil",Brasil
171,120.97565549999999,14.712613000000001,Jhanel Nhaj ,117623468,2020-03-09 14:24:42,Republic Of The Philippines,city,"Valenzuela City, National Capital Region",Republic of the Philippines
21,-46.5955455,-23.682803,victria,1176234823318417409,2020-02-23 00:05:27,,city,"Sao Paulo, Brazil",Brazil
200,29.0052225,41.0213205,arzbalix,1176234863881572352,2020-05-19 16:02:58,"stanbul, Trkiye",city,"stanbul, Trkiye",Trkiye
186,-3.3656230000000003,40.496023,Sirenito,1176234932,2020-02-17 20:02:56,En un mundo que... ,city,"Alcal de Henares, Espaa",Espaa
14860,-73.19911850000001,41.1856745,Jada,1176235017749422084,2020-02-17 00:49:29,,city,"Bridgeport, CT",United States
35620,-73.9685415,40.780709,Jada,1176235017749422084,2020-03-12 19:31:40,,city,"Manhattan, NY",United States
96,47.633573999999996,29.330169,.,1176235421493280768,2020-02-25 17:55:38,,poi, ,Kuwait
12060,-84.574267,33.771939,TB ,1176235422814527494,2020-04-30 14:13:52,,poi,Atlanta bonded WHSE,United States
19340,-90.41485,41.5106345,Paola,117623548,2020-03-13 13:25:14,"East Moline, IL",city,"East Moline, IL",United States
19100,-97.2859135,32.7799665,Paola,117623548,2020-05-25 02:21:08,"East Moline, IL",city,"Fort Worth, TX",United States
21,-54.1135905,-27.356560499999997,Eli Jnior,117623554,2020-02-29 22:41:10,Gaucho na Bahia,city,"Tiradentes do Sul, Brasil",Brasil
21,-35.6871125,-9.5333295,KC,1176235541030952960,2020-03-08 02:08:28,,city,"Macei, Brazil",Brazil
222,107.011756,-6.254410999999998,DFH,117623561,2020-04-23 05:38:00,,city,"Bekasi Timur, Indonesia",Indonesia
222,110.84480649999999,-7.562927500000002,Ari kurniawan,1176235697117650944,2020-02-29 23:54:40,"Surakarta, Jawa Tengah",city,"Pasar Kliwon, Indonesia",Indonesia
161,71.6706925,29.3937005,sidra,1176235919818526720,2020-03-14 09:03:52,"Karachi, Pakistan",city,"Bahawalpur, Pakistan",Pakistan
200,35.28488,37.002826500000005,njrmef11,1176235970527711235,2020-02-29 11:29:30,"Adana, Trkiye",city,"Adana, Trkiye",Turkey
21,-54.261875,-20.8753275,diz graa,1176236026681077760,2020-02-27 00:25:18,Na Merda,city,"Campo Grande, Brasil",Brasil
41700,-98.5406515,29.417501,Erika Garcia,1176236298933297155,2020-05-05 06:24:12,"San Antonio, TX",city,"San Antonio, TX",United States
21,-41.431886,-21.6578495,Denys Pimentinha ,1176236496082415616,2020-03-01 16:05:36,"Campos dos Goytacazes, Brasil",city,"Campos dos Goytacazes, Brasil",Brasil
200,28.985592999999998,41.037949,Mehmet Nur Kavan,1176236567024848897,2020-05-23 19:02:35,,city,"Tekirda, Trkiye",Trkiye
119,-90.27714,19.601414000000002,oscar alberto yerbes fuentes,1176236790522548225,2020-03-26 17:19:19,,city,"Campeche, Mxico",Mexico
162,23.126428,53.09978,Marchel Boxing Team Biaystok,1176236821296177154,2020-02-19 20:58:26,"Biaystok, Polska",poi,Bokserski Klub Rekreacyjny Gladiator,Poland
28020,-85.56568850000001,42.29052400000001,Donna Galindez,1176236860240252928,2020-02-18 16:29:54,,city,"Kalamazoo, MI",United States
21,-47.0112185,-21.4492325,Jean Toledo,1176236915500179457,2020-03-25 01:27:06,"Mococa, Brasil",city,"Mococa, Brasil",Brazil
19740,-104.9220935,39.713563,Terrell Miller,1176236930020757506,2020-02-26 03:56:07,,city,"Denver, CO",United States
193,100.365218,13.957954, ... .,1176236972399976448,2020-04-20 04:48:43,,poi, -,
38900,-123.111898,45.52213550000001,Jasonmac764,1176236994973749249,2020-03-28 07:29:37,,city,"Forest Grove, OR",United States
219,45.028858,12.773674,   ,1176237040473706504,2020-03-17 13:24:39,,poi, ,Yemen
119,-101.166961,25.0326315,jhperezmtz,1176237167808376832,2020-02-19 13:44:14,,city,"Saltillo, Coahuila de Zaragoza",Mexico
21,-42.263490999999995,-20.4388015,Isa,1176237249178083328,2020-02-14 00:49:47,"Santa Margarida, Brasil",city,"Santa Margarida, Brasil",Brasil
200,30.680889,36.89007,Yaren,1176237573368365056,2020-02-14 10:36:13,,city,"Antalya, Trkiye",Trkiye
178,28.7729995,-31.600630499999998,hAmZa NaZiR mAiR,1176237781665886214,2020-03-13 09:30:35,South Africa,city,"Mthatha, South Africa",South Africa
20700,-75.4987725,40.997593,Vanessa LeeAnn,1176237812124921857,2020-04-07 21:14:05,"Albrightsville, PA",city,"Indian Mountain Lake, PA",United States
119,-99.050461,19.3427885,Nancy',117623822,2020-03-21 14:54:52,D.F.,city,"Iztapalapa, Distrito Federal",Mxico
27260,-81.49968799999998,29.964402000000003,Don,1176238234281623553,2020-04-16 19:33:08,,city,"World Golf Village, FL",United States
119,-98.43097138,19.27465542,Jos Luis,117623830,2020-02-22 16:14:53,"Mxico, D.F.",city,"San Martn Texmelucan, Puebla",Mxico
222,110.47080449999999,-7.846619500000001,Gianfebrianto,1176238350430130176,2020-05-09 23:16:59,,city,"Piyungan, Indonesia",Indonesia
222,108.55498999999999,-6.698019,Dimbambam,1176238419980144640,2020-02-29 08:18:26,,poi,Sabandina Koffie,Indonesia
42660,-122.19439799999999,47.481598,MAJXMADRE,1176238484,2020-06-02 20:27:34,"Renton, WA",city,"Renton, WA",United States
193,100.60186,14.726451, ,1176238725199626241,2020-02-29 21:27:48,"., .",poi,Bridge Site ( Ta-Lung Temple ),
16980,-87.732013,41.8335845,Molly Keating,117623916,2020-05-27 21:02:16,"Chicago, IL",city,"Chicago, IL",United States
21,-43.959822499999994,-19.918692,BRND,1176239166331478023,2020-06-10 11:47:16,"Belo Horizonte, Brasil",city,"Belo Horizonte, Brasil",Brasil
175,39.6540485,24.462089000000002,03,1176239289329442819,2020-02-14 14:53:47,  ,city,"Al Madinah Al Munawwarah, Kingdom of Saudi Arabia",Kingdom of Saudi Arabia
35620,-73.8311875,40.6708795,Lauren ,1176239390449905671,2020-02-16 22:48:08,"Memphis, TN",city,"Queens, NY",United States
47900,-77.10199899999999,38.8808445,Lauren ,1176239390449905671,2020-02-16 23:58:22,"Memphis, TN",city,"Arlington, VA",United States
32820,-89.92202900000002,35.1335205,Lauren ,1176239390449905671,2020-02-17 04:28:13,"Memphis, TN",city,"Memphis, TN",United States
28940,-83.9638415,35.982470500000005,Lauren ,1176239390449905671,2020-05-08 20:21:23,"Memphis, TN",city,"Knoxville, TN",United States
32820,-89.92202900000002,35.1335205,Lauren ,1176239390449905671,2020-05-10 18:02:59,"Memphis, TN",city,"Memphis, TN",United States
21,-43.296872,-22.644558,Miranda,1176239497794772994,2020-03-05 16:46:30,"Duque de Caxias, Brasil",city,"Duque de Caxias, Brasil",Brasil
200,28.360190999999997,37.216962,Seferiye Kara,1176239548956905474,2020-03-08 19:56:12,"Mula, Trkiye",poi,Telve Cafe,Trkiye
175,40.4908105,21.38543,bts tae twice txt,1176239572654665729,2020-03-10 20:33:58,,city,",   ",  
186,-5.923545000000002,37.38319799999999,Grun Sevillano,1176239842864353282,2020-03-01 21:23:56,,city,"Sevilla, Espaa",Espaa
200,29.0052225,41.0213205,Murat Erturk,1176239855514394624,2020-06-07 15:40:04,,city,"stanbul, Trkiye",Trkiye
38,-75.991752,4.1477775,Edwar Garca v,1176240065992974339,2020-03-02 23:10:37,,city,"Sevilla, Colombia",Colombia
40140,-117.48099,33.9949115,christy ,1176240779695542272,2020-06-06 00:02:01,,city,"Jurupa Valley, CA",United States
21,-43.441578,-22.911421500000003,,1176240885304045577,2020-02-16 21:33:05,solteira com estresse ,city,"Rio de Janeiro, Brasil",Brasil
41940,-122.08144250000001,37.396853,CAT,1176240885304045577,2020-03-19 02:54:02,cansada ,city,"Mountain View, CA",Estados Unidos
21,-43.441578,-22.911421500000003,CAT,1176240885304045577,2020-03-26 19:02:14,cansada ,city,"Rio de Janeiro, Brasil",Brasil
24,-79.27256949999999,43.629311,Teemorante,1176241429355597824,2020-02-18 15:12:38,"Toronto, Ontario",city,"Toronto, Ontario",Canada
24,-79.27256949999999,43.629311,mrseater,1176241544384458753,2020-02-27 20:53:20,,city,"Toronto, Ontario",Canada
205,-0.01523867,52.97446407,Boston Triathlon,1176242328660525057,2020-02-14 21:38:31,Boston,city,"Boston, England",United Kingdom
57,11.395947,47.266212,Boston Triathlon,1176242328660525057,2020-03-22 10:45:27,Boston,city,"Innsbruck, Austria",Austria
205,-0.029633999999999997,52.971982,Boston Triathlon,1176242328660525057,2020-04-10 11:59:49,Boston,city,"Boston, England",United Kingdom
21,-48.2289297,-18.9487474,Lourdinha Carmo,1176242343562960896,2020-05-19 18:27:17,,city,"Uberlndia, Brasil",Brasil
37980,-75.0486698,39.952356099999996,Eilandarts Center,1176242617,2020-02-21 12:29:45,"Merchantville, NJ",city,"Merchantville, NJ",United States
21,-55.842543000000006,-15.455176500000002,Brunininha,1176242621796294656,2020-02-14 22:08:47,,city,"Cuiab, Brazil",Brazil
164,-9.107346000000001,38.666255,fotoconde@sapo.pt,1176242917947691008,2020-02-16 13:56:27,,city,"Almada, Portugal",Portugal
24,-122.32108000000001,49.13296,Tim Bradley,117624302,2020-03-15 23:48:50,"MISSION, BC CANADA",city,"Mission, British Columbia",Canada
222,106.83129950000001,-6.332802,Ezequeil Aulia,117624303,2020-02-14 01:58:13,Cilebut,city,"Jagakarsa, Indonesia",Indonesia
175,46.685077,24.7219435,,1176243057303478272,2020-05-21 01:17:22,,city,"Riyadh, Kingdom of Saudi Arabia",Kingdom of Saudi Arabia
200,29.0052225,41.0213205,Zeynep,1176243090975277056,2020-04-26 03:27:32,,city,"stanbul, Trkiye",Trkiye
87,43.129049,36.340359,Qusay waleed,1176243103184969730,2020-02-18 17:09:52,Iraq,poi,mosul | ,Iraq
14460,-70.9963275,42.4192015,Kelly Cristina,117624364,2020-02-14 00:54:30,,city,"Revere, MA",United States
21,-49.745463,-28.735758,Ruan,1176243665485910018,2020-02-14 02:41:55,,city,"Morro Grande, Brasil",Brasil
12420,-97.541027,30.354854,Lizz Foxx,117624368,2020-02-26 04:11:36,,city,"Manor, TX",United States
69,-0.8480639999999999,9.4062995,Jarijaa,1176243804124438529,2020-03-09 11:00:53,,city,"Tamale, Ghana",Ghana
48,-70.8018075,18.407751,Daniela Santana,1176243889570816000,2020-02-14 17:55:12,,city,"Azua, Dominican Republic",Dominican Republic
175,38.688284,31.6773935,A',1176244040217571328,2020-03-18 16:23:35,Kingdom of Saudi Arabia,city,"Turayf, Kingdom of Saudi Arabia",Kingdom of Saudi Arabia
200,27.006511,38.4079305,Harun Karata,1176244187014082561,2020-03-04 22:52:20,"Esenyurt, stanbul",city,"zmir, Trkiye",Turkey
65,6.5197575,45.35043450000001,Caldervale High School Ski Trip 2020,1176244192126939137,2020-02-14 07:18:37,,city,"Saint-Martin-de-Belleville, France",France
205,-1.709455,55.037199,Caldervale High School Ski Trip 2020,1176244192126939137,2020-02-15 13:08:19,,poi,Newcastle International Airport,United Kingdom
200,42.001486,38.907158,Sekin,1176244400906821632,2020-04-09 18:10:58,Bulank ,poi,Semereyh,Trkiye
205,-1.5038502,53.69615039999999,The Little Bean Coffee Cart,1176244497090584579,2020-04-10 07:27:04,,city,"Wakefield, England",United Kingdom
37740,-110.790847,33.405272,yeah,1176244618989428741,2020-05-09 22:14:18,"Arizona, USA",city,"Globe, AZ",United States
21,-35.6871125,-9.5333295,ASG Seguranca 24h,1176244866935906308,2020-04-08 14:17:32,,city,"Macei, Brasil",Brasil
21,-52.674984499999994,-17.5589665,Brbara,1176244927791083525,2020-06-09 04:26:13,,city,"Mineiros, Brasil",Brasil
21,-42.181928000000006,-21.563836,G.Da Nova,1176244945449103361,2020-02-14 02:05:17,,city,"Santo Antnio de Pdua, Brasil",Brasil
17820,-104.851843,39.0805735,BusinessRealtyCRE,1176245223740952576,2020-03-27 18:00:46,Colorado,city,"Monument, CO",United States
21,-46.4539065,-23.39208,Stephanie Luna,1176245243932499968,2020-02-26 18:12:13,"Guarulhos, Brasil",city,"Guarulhos, Brasil",Brazil
205,-4.2417515,55.85830249999999,serHuusTighGrianZKS,1176245282,2020-03-07 17:14:41,Switzerland/Scotland,city,"Glasgow, Scotland",United Kingdom
21,-43.441578,-22.911421500000003,Alex Lecoc,1176245295354720258,2020-02-25 01:59:42,,city,"Rio de Janeiro, Brazil",Brazil
175,39.2541285,21.5857105,mhai manzano,1176245337905930240,2020-02-17 22:42:56,"jeddah,saudi arabia",city,"Jeddah, Kingdom of Saudi Arabia",Kingdom of Saudi Arabia
21,-34.939349,-8.043603,Antnio Campos,117624552,2020-02-18 00:55:32,"T: -23.518309,-46.635133",city,"Recife, Brasil",Brasil
151,7.424094,9.073663999999999,Abdulgafar Ade,1176245522568531969,2020-04-15 07:23:52,"Abuja, Nigeria",city,"Abuja, Nigeria",Nigeria
161,71.480254,33.990691999999996,xtylo khan,1176245535809908740,2020-03-20 21:18:12,"Peshawar, Pakistan",poi,Academy Town,Pakistan
21,-45.4893075,-22.887151,Cleber Lus Rosa ,117624563,2020-04-07 20:55:31,"Pindamonhangaba, So Paulo",city,"Pindamonhangaba, Brasil",Brasil
74,-90.733285,14.560173,Vueltegatoguin Pub,1176245999469256704,2020-03-24 05:07:27,"4 Av. Norte #16, Antigua GT",poi,Vueltegato Pub,Guatemala
41180,-89.972622,38.806053000000006,Ismael Mosqueira,117624600,2020-04-19 17:52:48,"Toronto, Ontario",city,"Edwardsville, IL",United States
91,36.863620000000004,-1.2748635,BAE,1176246091022589952,2020-02-27 09:20:06,online,city,"Nairobi, Kenya",Kenya
31080,-118.4119065,34.0207895,arbpen,11762462,2020-04-08 16:35:00,Glendale CA,city,"Los Angeles, CA",United States
200,39.197963,38.667615500000004,kerem yldrm,1176246204524613633,2020-02-26 19:37:32,,city,"Elaz, Trkiye",Turkey
151,3.3180660000000004,6.590611,lorenzo,1176246410758561793,2020-02-19 00:55:43,"Lagos, Nigeria",city,"Ikeja, Nigeria",Nigeria
119,-99.182126,19.4857835,Daniel Brcenas,117624643,2020-02-15 02:37:18,,city,"Azcapotzalco, Distrito Federal",Mxico
40380,-77.6885355,43.2514515,Gary Gluchowicz,1176246449857867776,2020-02-14 23:23:44,,city,"Greece, NY",United States
12060,-84.3889,33.7566,Muse to Sirens,1176246527733489666,2020-02-26 00:48:42,,city,"Atlanta, GA",United States
33660,-88.04638,30.69189,Muse to Sirens,1176246527733489666,2020-02-29 22:47:17,,city,"Mobile, AL",United States
19300,-87.56200000000001,30.2915,Muse to Sirens,1176246527733489666,2020-05-14 18:15:54,,city,"Orange Beach, AL",United States
18880,-86.63279200000001,30.408398499999997,Muse to Sirens,1176246527733489666,2020-05-27 17:59:09,,city,"Fort Walton Beach, FL",United States
175,44.251151,17.550507999999997, ,1176246600223666177,2020-03-27 11:55:25,,poi,  ,  
49,-80.091193,-2.512995,Fabricio F,1176246808705687552,2020-05-07 13:23:44,,city,"Guayaquil, Ecuador",Ecuador
96,48.08758969,29.26844249,Kholod ,1176246904021274626,2020-02-16 09:48:12,"The Capital, Kuwait",city,"Coast Strip B, Kuwait",Kuwait
21,-50.3125295,-30.225639,Emily Hildebrando,1176246954457784320,2020-03-12 11:58:16,"Rio Grande do Sul, Brasil",city,"Balnerio Pinhal, Brasil",Brasil
119,-87.24319776,20.48917293,Betzy style,117624696,2020-03-19 10:58:21,Playa del carmen,city,"Solidaridad, Quintana Roo",Mexico
119,-103.40758100000001,20.489709,charly Garcia,1176247131746779138,2020-02-20 12:48:38,"Distrito Federal, Mxico",city,"Tlajomulco de Ziga, Jalisco",Mxico
50,31.011399,30.538403000000002,Adele fatooh,1176247182757965825,2020-02-24 20:45:59,,poi,,Egypt
21,-50.7667985,-29.344756500000006,Hs_moreira,1176247288097845249,2020-02-20 23:12:23,"Rio Grande do Sul, Brasil",city,"Canela, Brasil",Brasil
222,106.89868999999999,-6.5444474999999995,laila andaryani,117624758,2020-02-14 09:09:25,"T: -6.389601,106.851615",city,"Citeureup, Indonesia",Indonesia
173,37.42764250000001,55.7547875,Rajo di Langik Biru,117624758,2020-03-03 11:33:03,"T: -6.389601,106.851615",city,", ",
222,106.8439945,-6.3969215,Rajo di Langik Biru,117624758,2020-03-12 07:28:11,"T: -6.389601,106.851615",city,"Sukmajaya, Indonesia",Indonesia
21,-46.5955455,-23.682803,Flor de Maio ,1176247644,2020-05-07 21:08:42,So Paulo,city,"So Paulo, Brasil",Brasil
21,-43.43008,-22.820062,Andressa Oliveira,1176247742752051203,2020-02-14 01:21:39,MORENA FLOR | NICOLLE ,city,"Nilpolis, Brasil",Brasil
19100,-96.961483,32.863917,supreme Luxury Beauty,1176247781570338816,2020-05-21 04:49:54,texas,city,"Irving, TX",United States
193,101.537669,13.816137,Pana,1176248083132252160,2020-05-20 00:40:20,"., .",poi,Honda Sawadi,
21,-43.959822499999994,-19.918692,gustavhm,1176248455221731328,2020-04-22 00:05:51,"Belo Horizonte, Brasil",city,"Belo Horizonte, Brazil",Brazil
12060,-84.541562,33.588263,Delicia Williams STRIVES,1176248479234101251,2020-02-16 16:01:31,"Atlanta, GA",city,"Union City, GA",United States
14460,-71.0887125,42.3136695,Frank,1176248596783685632,2020-02-17 21:47:36,"Boston, MA",city,"Boston, MA",United States
2,6.860522500000001,33.3709985, ,1176248798835879936,2020-02-22 21:03:48,,city,"El Oued                                                                                             , Algeria",
38300,-80.0502625,40.376241,Katharine Eagan Kelleman,117624889,2020-02-22 18:54:17,"Pittsburgh, PA",city,"Mount Lebanon, PA",United States
35620,-73.8721185,40.7765079,Carlo Mantica,117624897,2020-02-14 15:26:16,New York,city,"Queens, NY",United States
36740,-81.504559,28.37929,Carlo Mantica,117624897,2020-02-15 17:37:27,New York,city,"Lake Buena Vista, FL",United States
45300,-82.82193000000001,27.82354,Carlo Mantica,117624897,2020-02-18 23:48:16,New York,city,"North Redington Beach, FL",United States
35620,-73.9689989,40.7645696,Carlo Mantica,117624897,2020-02-28 03:54:14,New York,city,"Manhattan, NY",United States
21,-43.3697645,-22.7854705,Paulinha Souza,1176249021352042497,2020-02-16 17:27:44,"So Joo de Meriti, Brasil",city,"So Joo de Meriti, Brasil",Brasil
88,137.48647174,35.47575646,yoda1253,117624925,2020-02-29 13:53:56,,city, ,
34860,-94.6493115,31.6139415,gps,1176249531907919874,2020-02-25 17:00:01,,city,"Nacogdoches, TX",United States
82,78.5982595,17.365102999999998,Dr.Kishore Nagabandi,117624957,2020-02-22 15:33:01,"Parkal, Warangal Dt",city,"Hayathnagar, India",India
11940,-84.6069185,35.4455505,King_Vol300,1176249960968404992,2020-04-18 18:08:09,Good Ole Rocky Top Tennessee,city,"Athens, TN",United States
17420,-84.86635000000003,35.193335999999995,King_Vol300,1176249960968404992,2020-05-02 19:09:23,Good Ole Rocky Top Tennessee,city,"Cleveland, TN",United States
11940,-84.6069185,35.4455505,King_Vol300,1176249960968404992,2020-05-14 18:30:59,Good Ole Rocky Top Tennessee,city,"Athens, TN",United States
17420,-84.86635000000003,35.193335999999995,King_Vol300,1176249960968404992,2020-06-06 23:53:54,Good Ole Rocky Top Tennessee,city,"Cleveland, TN",United States
33,-73.814832,-46.016144,Nicole Vargas,1176250157421273089,2020-02-23 01:15:44,,city,"Aysen, Chile",Chile
21,-43.018208,-22.821465,guaravita Argentino,1176250186395467776,2020-06-06 15:42:08,"Morro do Castro, So Gonalo",city,"So Gonalo, Brasil",Brasil
119,-99.684034,18.8410875,A Nohelia Delgado E.,1176250268394151937,2020-02-15 03:33:45,,city,"Ixtapan de la Sal, Mxico",Mxico
200,30.707702500000003,41.10064800000001,canan yusufreisolu,1176250302,2020-03-18 15:38:42,,city,"Karasu, Trkiye",Trkiye
31080,-117.85108899999999,33.842863,Scott Reece,1176250623232077824,2020-04-07 22:06:46,,city,"Anaheim, CA",United States
186,-5.8812,43.3531475,Ixixtexu,1176250712851996672,2020-04-10 09:27:29,,city,"Oviedo, Spain",Spain
21,-41.431886,-21.6578495,Tia Add,1176250762281791489,2020-05-19 23:26:15,Fuck,city,"Campos dos Goytacazes, Brasil",Brasil
119,-99.22498,18.795465,Ben. Miranda,1176251083,2020-02-21 21:51:14,Una cervecita y salud. ,poi,Hotel Fiesta Americana San Antonio el Puente,Mxico
21,-44.0023865,-22.9809335,@rodriguessantos,1176251092008673280,2020-02-25 11:34:28,"So Joo de Meriti, Brasil",city,"Mangaratiba, Brasil",Brasil
164,-8.621914,41.162141999999996,  ,117625125,2020-02-27 22:16:01,on the road,city,"Porto, Portugal",Portugal
200,29.2659245,40.648469,veysel nen,1176251565495242757,2020-02-21 19:58:52,"stanbul, Trkiye",city,"Yalova, Trkiye",Trkiye
42660,-122.376873,47.809612,Salish Sea Brewing,1176251604,2020-03-17 21:58:53,"518 Dayton, Edmonds 98020",poi,Salish Sea Brewing Co.,United States
200,34.743975,38.674928,,1176252169655398401,2020-02-26 18:01:23,,poi,Nevehir niversitesi Merkez Ktphanesi,Trkiye
21,-42.6007415,-19.4454605,LC@RL,1176252320444833793,2020-02-17 00:54:56,"ipacity, Brasil",city,"Ipatinga, Brasil",Brasil
151,3.3677040000000003,6.482686,lil spellz,1176252430348165124,2020-04-07 15:02:30,Lagos,poi,Surulere,Nigeria
205,-0.116541,51.460155,,1176252584065150977,2020-02-20 23:09:41,gigs,poi,Electric Brixton,United Kingdom
200,29.07321453,40.96443407,tobeornotobe,1176253008365129729,2020-03-02 13:35:31,Trkiye,city,"stanbul, Trkiye",Turkey
208,-56.153831999999994,-34.887296,Santiago,1176253222304014337,2020-03-04 17:35:28,,poi,La Blanqueada,Uruguay
88,139.6735625,35.76839800000001,BonD hair ikebukuro  ,1176253405,2020-04-07 14:56:21,,city, ,
14460,-70.734623,42.147073,StoryAddict,1176253461513625601,2020-02-19 02:39:59,"Marshfield, MA",city,"Marshfield Hills, MA",United States
88,135.4993445,34.657384,,117625349,2020-02-16 06:50:15,,city,  ,
205,-3.1798,51.4970015,She Runs: Cardiff,1176253611313156098,2020-05-23 20:00:45,"Cardiff, Wales",city,"Cardiff, Wales",United Kingdom
21,-44.0705725,-19.7775545,Pedrohs031,1176253894562865153,2020-02-16 04:17:06,Nrnia ,city,"Ribeiro das Neves, Brasil",Brasil
33100,-80.2333285,25.7823535,El Morito,117625422,2020-02-25 01:49:04,"Del conten, de La Habana, Cuba",city,"Miami, FL",United States
21,-38.51989,-3.789768,Regina Filgueiras,1176254294133264384,2020-05-13 10:45:51,,city,"Fortaleza, Brasil",Brasil
12580,-76.7415,39.261002000000005,Jarrad Martin,1176254303117303808,2020-05-18 17:28:42,,city,"Catonsville, MD",United States
38,-75.48183,6.2527,carlosfranco13,1176254426094477313,2020-05-12 02:43:41,"Medelln, Colombia",city,"Guarne, Colombia",Colombia
171,121.091229,13.8626145,D r e i,1176254615773253632,2020-03-07 08:48:54,Sa tabi tabi lng,city,"San Jose, Calabarzon",Republic of the Philippines
200,37.0181055,39.7483805,zge Sarar,1176254692449538059,2020-03-06 16:28:40,66|68,city,"Sivas, Trkiye",Turkey
65,7.2677315,47.759571,,1176254692449538059,2020-05-24 14:04:18,66|68,city,"Lutterbach, France",France
21,-39.6445865,-13.036524,Associao Descobrindo Talentos,1176254836096061446,2020-02-29 12:26:17,,city,"Amargosa, Brasil",Brasil
222,106.5208465,-6.250499,MiniGold Bogor Barat,1176254907323539457,2020-03-20 02:04:05,,city,"Cikupa, Indonesia",Indonesia
175,39.2541285,21.5857105,Mclyaan,1176255080028356610,2020-04-28 01:24:47,"jeddah,ksa",city,"Jeddah, Kingdom of Saudi Arabia",Kingdom of Saudi Arabia
34980,-86.70600999999998,36.3334125,Impact Pyro,1176255180,2020-03-22 06:32:11,Middle Tennessee,city,"Goodlettsville, TN",United States
171,125.14252749999999,6.144298,prettyrubxx,1176255404822548480,2020-02-29 16:08:55,,city,"Gen. Santos City, Soccsksargen",Republic of the Philippines
48,-70.0087115,18.4680185,Katiusca,117625560,2020-02-27 17:11:18,Santo Domingo,city,"Santo Domingo Oeste, Dominican Republic",Dominican Republic
28140,-94.79019749999999,39.0084315,Lynda Hayes,1176255679352508416,2020-02-21 17:08:31,,city,"Shawnee, KS",United States
175,39.2541285,21.5857105,beebaa.20,1176255909485535233,2020-02-24 15:59:38,,city,"Jeddah, Kingdom of Saudi Arabia",Kingdom of Saudi Arabia
178,30.9725795,-29.900636,Shaeen Jeewanlall,1176256091879018496,2020-05-29 17:24:25,"Durban, South Africa",city,"Durban, South Africa",South Africa
200,32.510724,37.870034,kocgifts.com vare,1176256399095083009,2020-03-27 20:42:22,"Konya, Trkiye",city,"Konya, Trkiye",Turkey
35,11.534494,3.913939,yombi bk,1176256443231744000,2020-05-16 16:11:09,,poi,Santa Barbara (Chateau d'Eau),Cameroon
175,49.6276765,25.458642,d|83,1176256489473880066,2020-04-24 14:26:16,,city,"Ahsa, Kingdom of Saudi Arabia",Kingdom of Saudi Arabia
13820,-86.83064350000002,33.220769000000004,Ryder Elgin,1176256509828898828,2020-04-01 01:16:06,"Alabaster, AL",city,"Alabaster, AL",United States
2,6.822261999999999,33.41475,YaYa MiDa,1176256538001969152,2020-02-26 10:35:44,,poi,Algeria,Algeria
38,-75.50520300000001,10.37242,club deportivo tst,1176256545178492928,2020-03-01 17:05:23,"Cartagena, Colombia",poi,Can Chow,Colombia
120,101.78441764,2.90148384,Meen,117625656,2020-02-23 01:26:23,"Tumpat, Kelantan",city,"Kajang, Selangor",Malaysia
12780,-95.97558000000001,36.746684,6 Days til Baseball,1176256985098006530,2020-02-17 00:49:45,"Bartlesville, OK",poi,Bartlesville Community Center,
35620,-73.9685415,40.780709,Richard Lui MSNBC,11762572,2020-04-06 23:16:57,30 Rockefeller Plaza,city,"Manhattan, NY",United States
96,48.105114,29.209132,SAQ,1176257220595650560,2020-02-15 18:29:10,Rashed Almajed,poi,Vibes,Kuwait
200,29.036929999999998,40.987681,OUZ EN,1176257254556938240,2020-03-30 23:18:55,,poi,lker Stadyumu Fenerbahe kr Saracolu Spor Kompleksi,Trkiye
151,7.452263,9.004942,Samuel Chika Muoma,1176257424782778368,2020-03-09 18:17:08,Abuja Nigeria,poi,Prince and Princess Estate,Nigeria
175,39.2541285,21.5857105, ,1176257743,2020-02-20 13:34:34,,city,",   ",  
186,-3.7695875,40.328899,Jorge Gonzlez ,1176257867281833984,2020-02-16 22:07:45,"Madrid, Comunidad de Madrid",city,"Legans, Espaa",Espaa
119,-97.916772,22.270295,Ame Romero,1176258118331842560,2020-03-11 11:59:04,"Tampico, Tamaulipas",city,"Tampico, Tamaulipas",Mxico
8,-59.806098,-37.680457000000004,Mate.bidinost_11,1176258151252992000,2020-03-19 22:23:49,"Benito Jurez, Argentina",poi,benito juarez,Argentina
175,42.533355,18.303816,.,1176258596159574017,2020-03-11 01:31:35,",   ",city,",   ",  
21,-34.939349,-8.043603,Adinha Dantas,1176258622629830656,2020-05-20 18:00:10,,city,"Recife, Brasil",Brasil
96,47.963225,29.3247565,M,1176258639516119042,2020-02-18 13:42:29,,city,"Al Khaldiya, Kuwait",Kuwait
200,27.006511,38.4079305,hz.eyma,1176259027019411458,2020-02-14 12:04:51,,city,"zmir, Trkiye",Trkiye
21,-42.8294125,-22.932913,Patricia Aguiar,1176259088168210433,2020-05-19 17:06:42,"Rio de Janeiro, Brasil",city,"Maric, Brasil",Brasil
175,39.8016865,21.389833000000007,,1176259218086735872,2020-03-05 11:20:26,  ,city,"Makkah Al Mukarrama, Kingdom of Saudi Arabia",Kingdom of Saudi Arabia
151,7.520541499999999,6.4412485,042juicecaf,1176259281164914688,2020-05-21 10:52:16,  Independence Layout Enugu ,city,"Enugu, Nigeria",Nigeria
24,-75.72259089,45.33777277,Omar Khan,1176259452,2020-03-20 03:29:56,"Ottawa, Ontario",city,"Ottawa, Ontario",Canada
41180,-90.6296215,38.596036,John Nelson,1176259495565103106,2020-05-01 04:45:55,"Wildwood, MO",city,"Wildwood, MO",United States
186,2.0754080000000004,41.347755,Joe,1176260139344695296,2020-02-27 19:28:58,Costa Del Shrewsbury,poi,RCDE Stadium,Spain
205,-2.23348,53.4569525,Joe,1176260139344695296,2020-02-28 12:15:19,Costa Del Shrewsbury,city,"Manchester, England",United Kingdom
175,50.1213985,26.288762,Russ Lowery,117626051,2020-02-15 10:01:59,"Louisville, KY",city,"Dhahran, Kingdom of Saudi Arabia",Kingdom of Saudi Arabia
117,57.395723499999995,23.7424635, ,1176260804460634112,2020-05-04 00:40:37,,city,",  ", 
119,-100.772211,20.5226915,Neri Tovar,1176260849117253634,2020-03-18 06:31:28,,city,"Celaya, Guanajuato",Mxico
186,-8.3926558,43.342769399999995,FutbolMeu,1176261229825994752,2020-02-19 12:20:41,,city,"A Corua, Espaa",Espaa
21340,-106.496052,31.779963000000002,UTEP Student-Athlete Development,1176261501885304832,2020-03-01 16:36:23,"El Paso, TX",poi,El Paso Tennis Club,United States
164,-8.4456615,40.453945,_ELPAPI_,1176261646764990465,2020-03-31 15:09:41,,city,"Anadia, Portugal",Portugal
31080,-117.61954899999999,33.433471000000004,Sherry Salito-Forsen,117626174,2020-06-05 19:45:27,"San Clemente,CA",city,"San Clemente, CA",United States
21,-43.9463465,-19.731622,Lipe $,1176261748795613184,2020-03-24 22:31:32,,city,"Vespasiano, Brasil",Brasil
175,39.8016865,21.389833000000007,nNos,1176261819033366529,2020-03-22 10:50:16,  ,city,"Makkah Al Mukarrama, Kingdom of Saudi Arabia",Kingdom of Saudi Arabia
222,110.78034324,-7.56696761,Restu Bayu Pradana,117626237,2020-03-14 09:55:11,"Laweyan, Indonesia",city,"Kartosuro, Indonesia",Indonesia
205,-0.2631405,51.5651955,CorzoGTB,1176262451861569536,2020-02-19 02:03:48,,city,"Brent, London",United Kingdom
21,-43.441578,-22.911421500000003,mama,1176262635274362881,2020-02-14 03:01:29,"Rio de Janeiro, Brasil",city,"Rio de Janeiro, Brazil",Brazil
175,41.0226445,30.957116499999998,,1176262659232227331,2020-04-22 19:10:56,,city,"Arar, Kingdom of Saudi Arabia",Kingdom of Saudi Arabia
12220,-85.3894,32.6472,Opelika Observer,117626280,2020-05-05 12:32:48,"Opelika, Alabama",city,"Opelika, AL",United States
106,21.745859,32.761278000000004,,1176263044504137734,2020-02-24 12:53:18,Libya,poi,Umar Almukhtar University   ,Libya
175,39.8016865,21.389833000000007,Khalid Bukhari,1176263248791965696,2020-02-15 04:06:27,"Makkah Al Mukarrama, Kingdom o",city,"Makkah Al Mukarrama, Kingdom of Saudi Arabia",Kingdom of Saudi Arabia
8,-58.748464500000004,-34.7028055,Soledad,1176263269360816129,2020-03-26 00:15:16,"Merlo, Argentina",city,"Merlo, Argentina",Argentina
200,35.28488,37.002826500000005,denemekicin8,1176263302202220547,2020-04-20 11:42:32,,city,"Adana, Trkiye",Trkiye
12060,-84.340338,34.041211499999996,sand.,1176263346557001730,2020-04-12 14:57:24,ya moms crib,city,"Roswell, GA",United States
175,46.685077,24.7219435,__,1176263358321954817,2020-03-02 11:28:32,,city,",   ",  
18260,-85.327605,36.3842435,TWU Mens Golf,1176263470272188416,2020-06-07 01:15:46,"Athens, TN",city,"Livingston, TN",United States
41980,-66.271338,18.136497,Yuliana Mara ,1176263568184029184,2020-03-25 09:54:37,,city,"Aibonito, USA",Estados Unidos
193,100.559009,13.778016,Orchid Black,1176263589688008704,2020-02-25 06:34:29,,city,", ",
88,139.931051,35.715682,,1176263639742832640,2020-04-09 09:36:33,,city, ,
21,-43.880382,-19.79267,   ,1176263749117861890,2020-03-13 18:08:16,ZONA NORTE $B !,poi,Mega Space,Brasil
35620,-73.8494415,40.8503475,Leslie,1176263815257894912,2020-02-23 03:55:06,,city,"Bronx, NY",United States
21,-43.441578,-22.911421500000003,Iasmin Gomes ,1176263897772376064,2020-02-19 00:27:16,errejota,city,"Rio de Janeiro, Brazil",Brazil
151,7.520541499999999,6.4412485,Her Royal Majesty!,1176263905334747136,2020-03-08 06:52:31,"Enugu, Nigeria",city,"Enugu, Nigeria",Nigeria
38060,-111.928142,33.392883999999995,Maddy Kelley,1176263976985825280,2020-02-18 22:56:49,"Temp, AZ",city,"Tempe, AZ",United States
21,-43.959822499999994,-19.918692,Theus,1176264013140959232,2020-03-22 22:25:12,,city,"Belo Horizonte, Brazil",Brazil
193,100.504571,13.871078,nina99,1176264132,2020-02-29 04:14:33,", ",city,", ",
16980,-87.67140111,41.9984946,Micky Mariano,117626420,2020-02-16 16:58:08,"Los Angeles, CA",city,"Chicago, IL",United States
21,-43.803105,-22.879409,crf_silva,1176264515836661761,2020-02-15 19:20:50,"Itagua,Rj Brasil",city,"Itagua, Brasil",Brasil
21,-42.043358000000005,-22.7372245,Rafael Braz Soares,1176264518802059270,2020-03-09 17:20:34,,city,"Cabo Frio, Brasil",Brasil
40140,-117.39761599999999,33.935821999999995,angelita ,1176264594806829056,2020-05-14 23:24:25,"Riverside, CA",city,"Riverside, CA",United States
21,-44.040152,-22.952347,LORATCHO ,1176264669654392833,2020-02-26 00:11:27,Iraque,poi,Mangaratiba,Brasil
205,-0.0991635,51.645275500000004,Taeik otman,1176264816190730240,2020-03-19 11:33:56,,city,"Enfield, London",United Kingdom
85,8.5227795,45.928561,Miraz Miraz,1176264906955460608,2020-02-18 16:29:40,"Dhaka, Bangladesh",city,"Verbania, Piedmont",Italy
21,-50.768626,-29.633486,Ccerow ,1176264983941910530,2020-04-01 03:15:03,"Rio Grande do Sul, Brasil",city,"Taquara, Brasil",Brasil
21,-50.2830145,-30.1378845,  ,1176265074710908932,2020-02-14 00:33:39,,city,"Cidreira, Brasil",Brasil
151,8.526110500000001,7.713362999999998,Christopa,1176265166205444096,2020-05-08 20:09:44,,city,"Makurdi, Nigeria",Nigeria
22660,-105.087383,40.574212,CSU Health Human Sci,1176265182,2020-03-06 21:47:40,"Fort Collins, Colorado",poi,Colorado State University,United States
119,-89.62361100000003,20.941035,Pascual,1176265391192059904,2020-02-17 15:04:27,,city,"Mrida, Yucatn",Mxico
200,28.867039000000002,40.222028,MUWAFAQ HAZO,1176265413832970241,2020-03-02 22:57:05,"Osmangazi, Bursa",poi,Bursa Uluda niversitesi,Trkiye
21,-51.1593095,-30.099836,Nathy_L&o,1176265637594836993,2020-02-14 07:21:52,"Porto Alegre, Brasil",city,"Porto Alegre, Brasil",Brasil
14460,-71.052126,42.405331,Jessica,1176265984656793601,2020-03-02 21:31:58,"Massachusetts, USA",city,"Everett, MA",United States
33,-71.5486,-33.0249,Emilio Jos De Soto,117626608,2020-03-28 16:56:30,Via del Mar,city,"Via del Mar, Chile",Chile
222,110.41403899999999,-7.770624000000001,Irsa Arisandi,1176266196271779840,2020-02-28 05:15:12,,poi,Batu malang,Indonesia
85,9.694297,45.166768499999996,thesebastardscallmejack,1176266296272572421,2020-02-22 15:54:33,Secret,city,"Codogno, Lombardia",Italy
88,138.59244750000002,35.6888995,,1176266438769696768,2020-02-19 10:44:52,,city, ,
19380,-84.200366,39.78035800000001,The Dayton Womans Club,1176266590066741250,2020-02-29 17:10:11,"Dayton, OH",city,"Dayton, OH",United States
21,-43.441578,-22.911421500000003,@MT,1176266816940892162,2020-03-18 23:30:22,,city,"Rio de Janeiro, Brasil",Brasil
82,79.835707,26.222422499999997,Nikhil Patel,1176266909244743682,2020-03-27 12:08:44,,city,"Pukhrayan, India",India
35620,-73.99084,40.8636885,jennifer zaikowski,1176266923857854465,2020-02-25 01:17:32,,city,"Leonia, NJ",United States
186,-16.686911000000002,28.058772,Arodi Padilla Melo,1176266986705362944,2020-02-15 03:28:44,"Santa Cruz de Tenerife, Espaa",city,"Arona, Spain",Spain
200,28.9621,40.974632,Pur,1176267019542499328,2020-03-31 02:41:38,,poi,Kadky Sahil,
37980,-75.271836,40.001901000000004,Des,1176267232663527427,2020-02-19 00:17:37,xavier,poi,Mad Mex,United States
12420,-97.926215,30.4015505,@CREC-UC,1176267352129921025,2020-05-30 13:48:07,"Valencia, Venezuela",city,"Hudson Bend, TX",Estados Unidos
26420,-95.7787115,29.721989,@CREC-UC,1176267352129921025,2020-05-31 01:35:22,"Valencia, Venezuela",city,"Cinco Ranch, TX",Estados Unidos
33,-70.742714,-33.355478500000004,Bernssg,1176267404193816578,2020-05-05 18:33:43,"Quilicura, Chile",city,"Quilicura, Chile",Chile
23060,-85.1700515,41.086917,NoSweat Fort Wayne,1176267910748262400,2020-02-24 17:06:23,"Fort Wayne, IN",city,"Fort Wayne, IN",United States
38060,-111.8808735,33.2824505,Obzies,1176267958894526465,2020-04-18 03:40:44,,city,"Chandler, AZ",United States
171,121.0311415,14.7108935,pams,1176268414366576640,2020-03-20 04:49:56,"somewhere eden isn't, sad",city,"Caloocan City, National Capital Region",Republic of the Philippines
21,-54.69131850000001,-18.1886125,anderson oliveira,1176268693908664320,2020-02-17 23:50:55,,city,"Coxim, Brasil",Brasil
21,-49.990685,-29.6877205,menorzinho,1176269022977056768,2020-03-04 20:18:57,Mario quintana,city,"Capo da Canoa, Brasil",Brazil
35620,-72.166432,41.023621999999996,Adriana Puruncajas R,117626905,2020-02-14 23:38:23,Ecuador,city,"Springs, NY",Estados Unidos
16980,-87.84223700000003,42.1640655,Mrs. Bourdons Second Grade,1176269126328885249,2020-05-05 13:41:03,,city,"Deerfield, IL",United States
38,-74.06669140000001,4.73305185,Jose Fernando Cortes,117626916,2020-03-01 01:41:44,Colombia,city,"Bogot, D.C., Colombia",Colombia
119,-99.0444445,19.568279999999998,,1176269477270446085,2020-03-07 03:59:32,ONLY ARMY ,city,"Ecatepec de Morelos, Mxico",Mxico
119,-91.83083333,18.64333333,JohannaRubio,117626958,2020-03-26 23:30:36,,city,"Carmen, Campeche",Mxico
16980,-88.4284095,41.37943900000001,Jack Cox,1176269843361910784,2020-03-20 12:13:27,,city,"Morris, IL",United States
222,106.788068,-6.2498520000000015,Slw kan komuk?,117626995,2020-02-15 05:54:05,"Budapest, Hungary",city,"Kebayoran Lama, Indonesia",Indonesia
222,124.88904950000001,1.5245295,nia,1176269976308551680,2020-03-19 17:56:31,i'm a fulltime mhore,city,"Mapanget, Indonesia",Indonesia
71,13.4246065,52.506701,Hundeschule-Goldkind.de,1176270124250206221,2020-02-29 23:32:38,"Mitte, Berlin",city,"Berlin, Germany",Germany
24,-122.818486,49.111519,kaurnuv18,1176270212510965760,2020-05-12 05:08:59,"Surrey, British Columbia",city,"Surrey, British Columbia",Canada
21,-34.939349,-8.043603,Melkesedeque,117627052,2020-03-16 01:56:08,Recife,city,"Recife, Brasil",Brasil
205,1.2726709999999999,52.640209999999996,Connor Baker ,1176270685,2020-05-10 22:07:53,"Norwich, England",poi,Anglian Waterworks,United Kingdom
151,3.3781550000000005,6.604202000000001,Candygyal._.ewa,1176270788011409413,2020-02-28 10:48:59,"Lagos, Nigeria",poi,Continental Broadcast Service/TVC/Radio Continental,Nigeria
21,-38.51989,-3.789768,Manasss Mesquita de Menezes,1176270879996686336,2020-04-17 23:49:15,"Rua Gilberto Cmara, 428 Villa",city,"Fortaleza, Brasil",Brasil
21,-44.0705725,-19.7775545,lopess,1176270893443702790,2020-04-27 04:09:42,,city,"Ribeiro das Neves, Brasil",Brasil
193,100.408741,14.661168,,1176270935357186049,2020-04-16 11:14:09,,poi,7-Eleven ,Thailand
21,-49.2884605,-25.4952495,Isaac Neto Silva,1176271069730213890,2020-04-27 03:10:35,,city,"Curitiba, Brasil",Brasil
171,121.50189750000001,17.682935999999994,Sheila Maries,1176271134599237632,2020-02-27 13:51:21,"Cassily Lake, Tuao, Cagayan",city,"Tuao, Cagayan Valley",Republic of the Philippines
164,-8.621914,41.162141999999996,Carlos Taveira,1176271281911750657,2020-03-04 16:24:01,,city,"Porto, Portugal",Portugal
33,-70.7033745,-33.4626605,Carolina Lobos,117627131,2020-02-28 19:27:31,,city,"Estacin Central, Chile",Chile
88,136.949815,36.8686255,@,1176271532928065538,2020-03-31 01:40:08, ,city,"Himi-shi, Toyama",Japan
151,7.424094,9.073663999999999,Stain,1176271722359775234,2020-05-14 19:34:52,Kush Republic ,city,"Abuja, Nigeria",Nigeria
24340,-85.7573235,42.903701,Steve Wierengo,1176272064019390465,2020-02-14 11:29:44,"Grandville, MI",city,"Grandville, MI",United States
35620,-73.9487755,40.655138,Omari Soulfinger,1176272270198751232,2020-02-15 19:18:29,"Brooklyn, NY",city,"Brooklyn, NY",United States
37340,-80.8293865,28.584726,kiya ,1176272459433222144,2020-03-17 16:48:04,"Orlando, FL",city,"Titusville, FL",United States
-9999,-104.501049,37.165943,kiya ,1176272459433222144,2020-05-25 17:52:48,"Orlando, FL",city,"Trinidad, CO",United States
21,-40.53074599999999,-18.657395,Rmulo Buback,1176272975521300480,2020-02-14 02:37:37,"Nova Vencia, Brasil",city,"Nova Vencia, Brasil",Brazil
88,139.765401,35.685235999999996,,1176273036229496832,2020-02-19 08:32:24,,poi,,
21,-48.3810695,-1.344336,Chaveirinho de Hetero,1176273131486547969,2020-04-07 01:49:05,Belm/Par,city,"Ananindeua, Brasil",Brazil
8,-58.41169,-34.63828, #57948,1176273460512940035,2020-03-09 22:39:46,,poi,Kainos,Argentina
38300,-80.22172599999998,40.5908575,nanette,1176273668537802752,2020-03-14 01:34:45,"Ambridge, PA",city,"Ambridge, PA",United States
8,-63.199276,-35.286162,Marti Domnguez,1176273704524898304,2020-04-20 04:32:41,,poi,Sensinena,Argentina
21,-47.329499,-22.335164000000002,Deyvid Bueno,117627384,2020-02-24 01:39:12,"Araras, Brasil",city,"Araras, Brasil",Brasil
36740,-81.4696845,28.586642,friendly pierre,1176274043747602437,2020-03-05 19:31:20,United States,city,"Pine Hills, FL",United States
151,5.2323595,11.4379595,JAMILU ISAH TELA,1176274366872637440,2020-05-19 19:40:57,"Kebbi, Nigeria",city,"Dabai, Nigeria",Nigeria
175,41.718232,27.660534000000002,,1176274424208773120,2020-02-26 08:40:11,"Denver, CO",poi,College Of Business Administartion ||   ,Kingdom of Saudi Arabia
222,107.5640565,-7.002456499999999,aul,1176274639162490880,2020-02-27 00:56:41,,city,"Katapang, Indonesia",Indonesia
21,-52.141657,-24.1292185,veralucciamello@gmail.com,1176275114020810753,2020-03-30 15:06:25,,city,"Corumbata do Sul, Brasil",Brasil
21,-43.236053000000005,-22.908276,Fernandes_Anna,1176275383987187714,2020-03-11 17:15:16,,poi,Studio Elite Moura,Brasil
41740,-117.10498899999999,32.810012,mari,1176275454275117058,2020-02-19 02:34:10,"California, USA",city,"San Diego, CA",United States
40140,-116.9794525,33.784916499999994,mari,1176275454275117058,2020-02-27 05:08:30,"California, USA",city,"San Jacinto, CA",United States
21,-49.5063355,-20.8288475,  ,1176275570050707457,2020-02-18 00:30:46,"Mirassol, Brasil",city,"Mirassol, Brasil",Brasil
24,-120.9289125,51.557464,Oland Vickers,1176275624299659264,2020-05-18 04:42:23,,city,"Cariboo L, British Columbia",Canada
88,139.11601000000002,36.439459,,1176275646667870208,2020-02-15 10:46:19, ,city,"Maebashi-shi, Gunma",Japan
21,-43.296872,-22.644558,Jefferson Silva,1176275692876705792,2020-03-26 18:52:12,,city,"Duque de Caxias, Brasil",Brasil
29820,-115.13516499999999,36.060964500000004,Quarantine Pap ,1176276024402690048,2020-04-29 05:27:42,"Las Vegas, NV",city,"Paradise, NV",United States
8,-55.909711,-27.404671,Marcos Britez,1176276036570337280,2020-02-14 16:21:43,,city,"Posadas, Argentina",Argentina
17460,-81.705467,41.49593950000001,36004L ,1176276038940336128,2020-02-14 05:45:07,"Paris, France",city,"Cleveland, OH",United States
21,-40.303863,-20.139694,Elza ,1176276197065613313,2020-02-14 02:41:08,"Serra, Brasil",city,"Serra, Brasil",Brasil
205,-1.8906405,52.493966500000006,Jemz,1176276393140871169,2020-02-14 21:55:49,DuppyWonderland,city,"Birmingham, England",United Kingdom
19100,-96.8637945,32.604153000000004,Kahllell hollowell,1176276398857736192,2020-02-19 01:15:16,"Cedar Hill, TX",city,"Desoto, TX",United States
175,39.2541285,21.5857105,.,1176276426909278209,2020-02-19 08:23:33,Jeddah,city,"Jeddah, Kingdom of Saudi Arabia",Kingdom of Saudi Arabia
9,144.956889,-37.799459000000006,Marc Diocera,117627643,2020-04-16 06:15:42,Melbourne,poi,Peter McCallum Cancer Centre,Australia
21,-49.261299,-16.642782500000003,Nick_Gyn,1176276465157062658,2020-02-14 23:25:15,"Goinia, Brasil",city,"Goinia, Brasil",Brasil
38300,-79.9806895,40.431389,Cosmic Dahlia,1176276803675013125,2020-04-20 17:04:48,"Pittsburgh, PA",city,"Pittsburgh, PA",United States
45300,-82.67290299999998,27.7957195,Karol Fox,1176276964086353920,2020-04-14 22:54:19,,city,"St Petersburg, FL",United States
21,-59.9803255,-2.572425,oxentemellzinha,1176277379448233989,2020-02-24 22:39:49,"Manaus, Brasil",city,"Manaus, Brasil",Brasil
29820,-115.223125,36.232915000000006,s. ,1176277379813130240,2020-05-12 18:30:43,"North Carolina, USA",city,"Las Vegas, NV",United States
119,-98.9473385,19.360682999999998,Isabel,1176277688711045121,2020-04-05 19:27:49,,city,"La Paz, Mxico",Mxico
21,-47.334816,-15.534702,v.,1176277835675250688,2020-03-05 17:13:57,"Formosa, Brasil",poi,Colgio Estadual Hugo Lbo,Brasil
175,39.2541285,21.5857105,,1176277913483845633,2020-02-14 19:22:18,",   ",city,"Jeddah, Kingdom of Saudi Arabia",Kingdom of Saudi Arabia
21,-43.441578,-22.911421500000003,Aquaman,1176277955888254979,2020-02-24 17:07:14,complexo de pacincia ,city,"Rio de Janeiro, Brasil",Brasil
82,78.53581899999999,17.450478,ravikumar nalam,117627857,2020-04-05 15:37:49,hyderabad india,poi,Malkajgiri,India
47900,-76.934487,38.9969705,Joe Keating,1176278850176765954,2020-04-07 15:48:14,"Washington, DC",city,"College Park, MD",United States
120,102.24267950000001,6.127658500000001,Wan Hazreen,1176279055118684160,2020-03-30 02:35:50,"Pasir Puteh, Kelantan",city,"Kota Bharu, Kelantan",Malaysia
40140,-117.72176100000001,33.9725155,RocBasketball,1176279184118648832,2020-05-22 04:24:59,"Chino Hills, CA",city,"Chino Hills, CA",United States
88,140.561821,36.306049,Oarai Town International,1176279184944971776,2020-04-23 05:31:29,"Oarai Town, Ibaraki Prefecture",city, ,Japonia
88,139.901443,39.205288,,117627924,2020-02-23 11:01:20,,poi,,
21,-48.478899,-27.609691,Thiago Costa,117627957,2020-03-20 13:31:46,Florianpolis,city,"Florianpolis, Brazil",Brazil
119,-99.1158905,19.518656,Miguel Ledesma,1176279593545846784,2020-03-20 16:48:42,,city,"Gustavo A. Madero, Distrito Federal",Mxico
21,-54.45709599999999,-25.453901,mari  .,1176279783388438528,2020-02-14 00:49:03,"Foz do Iguau, Brasil",city,"Foz do Iguau, Brasil",Brasil
8,-58.013021499999994,-34.9363185,pedro sansogni,1176279910031208451,2020-05-07 05:13:31,,city,"La Plata, Argentina",Argentina
222,106.911724,-6.1202885,HEHEH:),1176279995674583041,2020-02-17 01:13:41,bersama june,city,"Koja, Indonesia",Indonesia
21,-51.035027,-29.068624,Pamy Hoffmann,1176280093389463552,2020-02-17 17:43:29,"Antnio Prado, Brasil",city,"Caxias do Sul, Brasil",Brasil
21,-48.45979749999999,-1.2729295,Felipe Pinto,1176280323858018305,2020-05-27 01:14:25,,city,"Belm, Brasil",Brasil
47900,-77.0038265,38.9819495,Versmax,1176280384411189250,2020-02-24 08:51:49,Washington DC,city,"Takoma Park, MD",United States
41180,-90.1978,38.6272,MurdaaSavage,1176280424,2020-03-27 21:07:31,,city,"St Louis, MO",United States
222,117.16153500000001,-0.49699899999999997,,117628046,2020-06-01 13:28:26,,poi,"NasGor ""cipta Maju""",Indonesia
29460,-81.97270499999998,28.049601000000006,Kyle,1176280463188606976,2020-04-10 20:27:58,"Florida, USA",city,"Lakeland, FL",United States
21,-43.401801,-21.732702,sallazar_22,1176280988370067456,2020-03-13 02:50:08,,poi,Jardim Natal,Brasil
47900,-77.0143985,38.898603,experiences that feed your soul,1176281229404114944,2020-05-22 12:58:48,"Washington, DC",city,"Washington, DC",United States
200,42.8614475,39.2264415,diek,1176281309343363072,2020-04-11 00:48:46,"Van, Trkiye",city,"Patnos, Trkiye",Turkey
21,-48.641015,-17.7457,luli,1176281360258011137,2020-02-15 03:43:38,,poi,Ecologic Ville,Brazil
19820,-83.21355700000002,42.314732,K.DFitz,1176281415580864512,2020-04-15 12:24:00,"Dearborn, MI",city,"Dearborn, MI",United States
11460,-83.72997149999999,42.2708395,K.DFitz,1176281415580864512,2020-04-15 13:19:00,"Dearborn, MI",city,"Ann Arbor, MI",United States
19820,-83.21355700000002,42.314732,K.DFitz,1176281415580864512,2020-04-15 17:41:04,"Dearborn, MI",city,"Dearborn, MI",United States
11460,-83.72997149999999,42.2708395,K.DFitz,1176281415580864512,2020-04-17 02:25:53,"Dearborn, MI",city,"Ann Arbor, MI",United States
19820,-83.21355700000002,42.314732,K.DFitz,1176281415580864512,2020-04-17 19:07:49,"Dearborn, MI",city,"Dearborn, MI",United States
31080,-118.32514499999999,34.18216,riana,1176281618211688448,2020-02-24 05:08:48,,city,"Burbank, CA",United States
175,40.4908105,21.38543,,1176281748478603270,2020-02-14 18:11:19,,city,"Taif, Kingdom of Saudi Arabia",Kingdom of Saudi Arabia
8,-68.523901,-31.558465,Cabezn,1176281778476204032,2020-02-14 04:58:34,"San Juan, Argentina",poi,Puesto 32,Argentina
120,101.21660250000001,4.836707499999998,,1176281831320064000,2020-03-27 04:24:16,,city,"Sungai Siput, Perak",Malaysia
88,139.313665,36.151794,(),117628201,2020-03-01 07:00:27,,poi,,
21,-43.446886000000006,-22.8025775,VN ,1176282263388131336,2020-03-19 17:00:58,"Rio de Janeiro, Brasil",city,"Mesquita, Brasil",Brasil
19820,-83.260274,42.479809499999995,Travis Paryaski,1176282479558369282,2020-02-22 17:57:58,"New York, NY",city,"Southfield, MI",United States
21,-43.018208,-22.821465,Camilla Vargas,1176282801408270336,2020-02-27 15:14:19,,city,"So Gonalo, Brasil",Brasil
40140,-116.5172895,33.8250795,sissymama,1176282961169321987,2020-02-15 03:09:22,"Cleveland, OH",city,"Palm Springs, CA",United States
20940,-115.5480365,32.774584499999996,sissymama,1176282961169321987,2020-02-16 00:51:36,"Cleveland, OH",city,"El Centro, CA",United States
171,121.398443,14.262523000000002,Lolita Pinero,1176283143407407104,2020-04-27 06:44:04,,city,"Santa Cruz, Calabarzon",Republic of the Philippines
21,-34.8726385,-8.001542500000001,Yana Soares,1176283308705112065,2020-02-24 15:56:57,"Pernambuco, Brasil",city,"Olinda, Brasil",Brasil
35620,-73.9487755,40.655138,martin,1176283339055075328,2020-02-16 17:15:58,,city,"Brooklyn, NY",United States
171,120.9831935,15.488908499999999,uno,1176283456055042048,2020-03-12 09:09:13,tabe tabe,city,"Cabanatuan, Central Luzon",Republic of the Philippines
21,-43.441578,-22.911421500000003,Rafa do Truque ,1176283702332186626,2020-02-15 06:52:30,,city,"Rio de Janeiro, Brazil",Brazil
21,-43.374851,-22.947032,2K,1176283981962240001,2020-05-02 03:56:12,KRT,poi,Condominio Jardim So Luiz,Brasil
160,-76.9814185,-12.1265765,Moiss Alejandro,117628406,2020-02-26 18:43:48,"Falcn, Venezuela",city,"Santiago de Surco, Peru",Peru
21,-52.96252850000001,-25.6592645,Brendhaa,1176284116666507264,2020-02-16 20:31:00,"So Jorge d'Oeste, Brasil",city,"So Jorge d'Oeste, Brasil",Brasil
171,121.08234499999999,14.5833065,Dar,117628415,2020-02-21 22:01:07,Philippines,city,"Pasig City, National Capital Region",Republic of the Philippines
160,-81.0099635,-4.1517625,Francis Durand,1176284163789533184,2020-05-27 00:16:00,"Chiclayo, Peru",city,"Mancora, Peru",Peru
33340,-88.23338799999998,43.133548499999996,Emi G.,1176284179035754496,2020-03-01 17:06:27,"Sussex, WI",city,"Sussex, WI",United States
47300,-119.09895549999999,36.411066999999996,Emilyyy,1176284179035754496,2020-03-26 00:02:49,"Sussex, WI",city,"Woodlake, CA",United States
33340,-88.23338799999998,43.133548499999996,Emilyyy,1176284179035754496,2020-04-29 05:52:40,"Sussex, WI",city,"Sussex, WI",United States
19660,-81.0963155,29.289812,Shay Renee,1176284237806428161,2020-02-15 05:55:19,,city,"Holly Hill, FL",United States
71,12.1104275,49.021583,Maria Cristina Oelmaier,1176284265438437377,2020-02-23 10:09:27,,city,"Regensburg, Germany",Germany
34980,-86.791549,36.200008000000004,evavickerman,1176284314033672192,2020-02-25 23:32:12,,city,"Nashville, TN",United States
21,-40.836672,-21.008704,B,1176284549061468165,2020-04-26 22:32:52,027,poi,Parque de Exposio de Itapemirim,Brazil
200,36.298796,41.270589,elkadarbirhatun,1176284635090866177,2020-03-09 10:47:51,,poi,Samsun Ruh Sal Ve Sinir Hastalklar Hastahanesi,Trkiye
16740,-80.69097249999999,35.0922805,Emily Redding,1176284726983831552,2020-02-14 15:07:01,,city,"Stallings, NC",United States
65,2.2592220000000003,48.781546999999996,Insta: _elyans__19 ,1176284875571236864,2020-05-18 22:16:37,Alger sacr cur,city,"Le Plessis-Robinson, France",France
19740,-104.98360001,39.7391,JS31allpro,1176284896613916672,2020-04-17 00:06:07,"Denver, CO",city,"Denver, CO",United States
41860,-122.2286855,37.791994,Payton Aimes,1176284924711555072,2020-05-10 00:22:57,,city,"Oakland, CA",United States
171,121.106218,13.921991,badejr25,1176285249258418177,2020-02-15 15:30:55,"Batangas City, Calabarzon",poi,Tuesday Cafe,Republic of the Philippines
21,-40.375238,-20.337046,Gato Preto ,1176285440393060355,2020-03-11 16:04:10,,poi,Tyler Snack Bar,Brasil
222,106.86568,-6.3283165,Smart People,1176285547184050176,2020-04-26 13:24:07,"Jakarta Timur, DKI Jakarta",city,"Pasar Rebo, Indonesia",Indonesia
88,135.75515900000002,35.0060525,,1176285695951814656,2020-03-03 02:01:24,,city,"Kyoto City Nakagyo Ward, Kyoto",Japan
27260,-81.73340300000002,30.172209499999997,Ava Loren,1176285876818784257,2020-02-15 22:54:30,"Manhattan, NY",city,"Orange Park, FL",United States
178,18.4890615,-34.1216575,Dean Mashimbwe Luclay,1176286028858048520,2020-02-14 13:01:46,Cape town,city,"Cape Town, South Africa",South Africa
40220,-79.901977,37.358229,emily,1176286030946799618,2020-03-17 19:53:14,Purgatory ,city,"Cloverdale, VA",United States
32900,-120.777547,37.423868,mary,1176286119488417792,2020-05-18 17:03:15,"Delhi, CA",city,"Delhi, CA",United States
119,-101.27577,19.652724,raymundo,117628614,2020-03-26 22:39:37,Michoacan,city,"Morelia, Michoacn de Ocampo",Mxico
205,-0.07343689999999999,51.4987,Mike Reys,11762862,2020-03-15 17:40:47,"Bermondsey, London, UK",city,"Camberwell, London",United Kingdom
222,109.695199,-6.975982000000001,Gadis Biasa,1176286470073569280,2020-04-01 03:37:28,"Batang, Indonesia",poi,Kec Karangdadap,Indonesia
21,-48.188363,-15.8385385,{#},1176286492852936704,2020-05-24 10:45:00,"Braslia, Brasil",neighborhood,"Ceilndia, Braslia",Brasil
37120,-85.64904849999998,31.4269125,Chris martin,1176286760340459520,2020-03-11 13:43:54,"Ozark, AL",city,"Ozark, AL",United States
21,-46.784484000000006,-23.533433,Jaque_A,1176286806242930697,2020-03-24 09:42:54,,city,"Osasco, Brasil",Brasil
21,-46.948327,-12.92459,Kssia Maia,1176286876770193408,2020-02-25 14:53:02,,poi,Arraias,Brasil
88,137.26191550000001,34.951125000000005,,1176287028645728257,2020-02-28 06:51:52,,city, ,
222,110.6020665,-7.7702035,uhuyyy,1176287043921408001,2020-06-09 06:42:01,Indonesia,city,"Wedi, Indonesia",Indonesia
21,-39.7643545,-16.986425500000006,Cachinhos,1176287137999872001,2020-02-14 01:10:29,"Itamaraju, Brasil",city,"Itamaraju, Brasil",Brasil
21,-49.0571945,-25.647161999999998,Mariazinha,1176287367386324992,2020-02-16 22:37:58,"So Jos dos Pinhais, Brasil",city,"So Jos dos Pinhais, Brasil",Brasil
8,-58.40203,-34.602049,LuMatCaba,1176287489369300992,2020-03-07 05:22:48,"Buenos Aires, Argentina",poi,Balvanera,Argentina
171,125.726956,7.006139,Damnyou,1176287595304632320,2020-02-24 15:12:38,,poi,Pearl Farm Beach Resort,Republic of the Philippines
21,-43.3298215,-20.3370815,Lucas Good Vibe,1176287728650113026,2020-04-25 15:30:15,Brasil,city,"Mariana, Brasil",Brasil
91,39.57916400000001,-4.3022265,emmanuelmateka,1176287822887698432,2020-03-24 21:03:23,,city,"Ukunda, Kenya",Kenya
8,-60.6664,-32.9511,lulo.ds3,1176287892731244546,2020-03-06 01:43:10,"Rosario, Argentina",city,"Rosario, Argentina",Argentina
95,127.05576,37.4885575,,1176287894425653248,2020-05-11 14:42:49,,city, ,
21,-43.446886000000006,-22.8025775,SURTADAA ,1176288083760812032,2020-02-14 10:57:42,"Mesquita, Brasil",city,"Mesquita, Brasil",Brasil
96,47.804613,29.966440000000002, ,1176288149472972801,2020-03-15 08:38:43,,poi,   ,Kuwait
47900,-77.12025249999998,39.043469,corinne,1176288216187658240,2020-04-30 07:33:19,,city,"North Bethesda, MD",United States
36220,-102.344087,31.8738385,egge,1176288429073674240,2020-02-25 17:53:03,Getting Deployed,city,"Odessa, TX",United States
21,-42.998286,-22.790647500000002,_(),1176288447222484992,2020-02-22 19:09:21,,neighborhood,"Jardim Catarina, So Gonalo",Brasil
171,120.6815155,15.337907500000002,Anneyong,1176288526259740672,2020-02-28 06:46:46,,city,"Concepcion, Central Luzon",Republic of the Philippines
88,130.4567085,33.5240765,,1176288593037295616,2020-05-23 06:05:04,,city,"Kasuga-shi, Fukuoka",Japan
21,-43.358746000000004,-22.997726999999998,Hiago Ferreira,1176288699539230726,2020-02-14 01:42:58,,poi,BarraShopping,Brasil
50,30.84702,27.737794, KK,1176288822985928707,2020-04-10 21:34:42,"El Menia, Egypt",poi,"Mallawy, Menia",Egypt
21,-43.376828,-22.728707999999997,,1176289109096226816,2020-04-08 01:48:08,,city,"Belford Roxo, Brasil",Brazil
12060,-84.37418433,33.83926569,Benjamin Carr,11762892,2020-03-12 00:38:20,"Atlanta, GA",city,"Atlanta, GA",United States
222,107.72428000000001,-6.9150019999999985,Miasilvina,1176289201559457797,2020-03-04 03:51:46,,city,"Cibiru, Indonesia",Indonesia
21,-48.771081,-26.9669185,Luquinha,1176289248179380224,2020-02-14 07:23:08,Brasil,city,"Itaja, Brasil",Brasil
88,139.774743,35.709355,,1176289364566892545,2020-02-27 07:38:05,,poi,,
8,-57.0684035,-37.37110850000001,,117628945,2020-02-23 22:03:31,Ciudad Autnoma de Buenos Aire,city,"Villa Gesell, Argentina",Argentina
21,-43.441578,-22.911421500000003,beatriz,1176289489439924224,2020-05-29 03:01:36,rj city ,city,"Rio de Janeiro, Brasil",Brasil
88,139.61760099999998,35.586851,Toshi1688,1176289650,2020-04-16 22:58:38,,city,  ,
193,100.719522,13.724393,DD,1176289804436160512,2020-03-15 04:36:29,", ",poi, (Wat Lanbun),
21,-46.799172,-23.014421,medeirinhos_ry,1176289930517069824,2020-03-11 18:43:09,"Itatiba, Brasil",city,"Itatiba, Brasil",Brasil
151,7.7289330000000005,12.671228500000002,SHOOTER ,1176289986263638017,2020-02-20 08:54:16,"Katsina, Nigeria",city,"Charanchi, Nigeria",Nigeria
38,-74.24367099999999,4.2622835,Julin Moreno ,117629001,2020-03-02 02:06:11,"Bogot, Colombia",city,"Bogot, D.C., Colombia",Colombia
