currentGEOID,lon,lat,name,author_Id,created_at,location,place_type,place_full_name,place_country
205,-4.2417515,55.85830249999999,Bosco,3815498897,2020-04-01 18:31:05,"Glasgow, Scotland, UK",city,"Glasgow, Scotland",United Kingdom
37100,-118.9188865,34.188478,slyeye,3815500033,2020-02-14 19:27:17,"California, USA",city,"Thousand Oaks, CA",United States
31080,-118.38623700000001,34.1877035,slyeye,3815500033,2020-04-06 08:13:05,"California, USA",neighborhood,"North Hollywood, Los Angeles",United States
37100,-118.9188865,34.188478,slyeye,3815500033,2020-04-13 08:16:13,"California, USA",city,"Thousand Oaks, CA",United States
31080,-118.728897,34.0240975,slyeye,3815500033,2020-04-27 08:22:42,"California, USA",city,"Malibu, CA",United States
37100,-118.9188865,34.188478,slyeye,3815500033,2020-04-28 16:50:25,"California, USA",city,"Thousand Oaks, CA",United States
31080,-118.4119065,34.0207895,slyeye,3815500033,2020-05-14 20:55:40,"California, USA",city,"Los Angeles, CA",United States
37100,-118.9188865,34.188478,slyeye,3815500033,2020-05-15 06:56:05,"California, USA",city,"Thousand Oaks, CA",United States
31080,-118.4119065,34.0207895,slyeye,3815500033,2020-05-17 23:55:53,"California, USA",city,"Los Angeles, CA",United States
37100,-118.9188865,34.188478,slyeye,3815500033,2020-05-18 21:12:36,"California, USA",city,"Thousand Oaks, CA",United States
40140,-116.2781615,33.668045500000005,slyeye,3815500033,2020-06-10 22:54:35,"California, USA",city,"La Quinta, CA",United States
71,13.4246065,52.506701,Javier Arguedas,38155003,2020-02-28 18:46:13,"Berlin, Germany",city,"Berlin, Germany",Germany
40060,-77.534638,36.6926825,Pastor Brad Barbour,3815504416,2020-04-09 15:51:45,"Emporia, Va",city,"Emporia, VA",United States
205,-2.147965,52.5801345,Know Ball Games,381550464,2020-03-07 16:24:35,United Kingdom,city,"Wolverhampton, England",United Kingdom
189,15.8330615,57.3957245,Ricky Johansson,381550550,2020-02-15 07:21:59,"Hultsfred, Sverige",city,"Hultsfred, Sverige",Sweden
222,106.834852,-6.2213485,Faisal Basri,38155089,2020-02-18 09:37:27,Jakarta,city,"Setia Budi, Indonesia",Indonesia
173,36.08251350000001,52.9703965,Poe With Luv,381550961,2020-02-21 21:00:56,,city,", ",
205,-2.264325,53.794216500000005,simon leigh,38155107,2020-02-23 05:40:59,,city,"Burnley, England",United Kingdom
65,6.212644999999999,45.838196,Florent Pelizzari,38155117,2020-05-31 14:44:10,"Lyon, France",poi,Plage de Talloires,France
205,-0.159403,51.5424365,Sarah Roberts,38155121,2020-03-23 20:06:43,"London, England",city,"Camden Town, London",United Kingdom
171,120.9839865,14.5914565,Jan Nicolas,38155135,2020-02-19 03:57:27,Pinas,city,"Manila City, National Capital Region",Republic of the Philippines
186,-1.341963,37.620634,Wynn Spencer,381551479,2020-05-05 14:49:22,"Lincoln, England",city,"Mazarrn, Spain",Spain
119,-93.71282,17.7624055,Jos Manuel,3815516452,2020-02-16 07:30:24,"Huimanguillo, Tabasco",city,"Huimanguillo, Tabasco",Mxico
178,27.082252500000003,-26.720464,Refilwe Mogapi,381551740,2020-03-04 17:55:11,Potchefstoom,city,"Potchefstroom, South Africa",South Africa
32820,-89.8494555,34.9563885,Jared Rhodes,381551822,2020-03-26 21:34:25,Olive Branch MS,city,"Olive Branch, MS",United States
33,-70.6596155,-33.4521615,Joanna Tobar,381551832,2020-04-07 01:21:56,Hipocamppus,city,"Santiago, Chile",Chile
102,25.220656899999998,54.68305970000001,FastDrop (Visgi),38155238,2020-04-26 17:14:42,Lithuania - Kaunas,city,"Vilnius, Lithuania",Lithuania
82,77.58681800000001,14.697060500000001,TDP ANANTAPUR URBAN,381552563,2020-03-26 08:29:04,anantapuramu,city,"Anantapur, India",India
152,6.7489089999999985,52.981453,Rob Rietveld,381553121,2020-04-10 16:17:08,Annerveenschekanaal,city,"Aa en Hunze, Nederland",Nederland
205,-2.081737,57.1073965,Dawn MacKinnon,381553138,2020-02-17 12:03:35,Aberdeen,city,"Cove Bay, Scotland",United Kingdom
26620,-86.59022032,34.727121600000004,Pheaton Guinn,381553240,2020-02-23 01:55:06,"Harvest, Alabama",city,"Huntsville, AL",United States
16980,-88.44696400000001,41.642025,Andy Zugenbuehler,381553454,2020-02-16 20:37:10,Essex IL,poi,Crusade Burger Bar,United States
28100,-87.92008299999999,41.172804,Andy Zugenbuehler,381553454,2020-02-18 22:34:40,Essex IL,city,"Bourbonnais, IL",United States
16980,-87.82356999999999,41.6994845,Andy Zugenbuehler,381553454,2020-03-20 13:20:09,Essex IL,city,"Palos Hills, IL",United States
186,-3.2479875,40.5899085,Jose Luis Torres,381553567,2020-03-01 19:18:54,Alovera,city,"Alovera, Espaa",Espaa
119,-107.3420565,24.662488500000002,ili,381553595,2020-03-03 17:24:24,"Sinaloa, Mxico",city,"Culiacn, Sinaloa",Mxico
21,-34.939349,-8.043603,Mc Shallow,38155396,2020-02-14 00:37:53,Recife - Brasil,city,"Recife, Brasil",Brasil
69,-0.0189785,5.703022000000002,Favoured Child,381553980,2020-02-26 10:16:07,Ghana,city,"Tema, Ghana",Ghana
173,56.21731750000001,58.02245799999999,super zaya,3815541147,2020-04-05 22:23:02,,city,", ",
28140,-94.6750935,38.931549,Richard Bellotti,38155416,2020-03-22 10:55:01,"Kansas, USA",city,"Overland Park, KS",United States
152,6.757076,52.16217500000001,Freedomfocus,381554218,2020-03-01 20:51:25,Haaksbergen,city,"Haaksbergen, Nederland",Nederland
186,-3.7035075,40.4777945,Clave de Fa,381554407,2020-03-08 10:22:52,,city,"Madrid, Espaa",Espaa
85,9.1593365,45.461345,Clave de Fa,381554407,2020-03-10 10:40:26,,city,"Miln, Lombarda",Italia
205,-0.0601675,51.5476445,Clave de Fa,381554407,2020-03-17 13:26:56,,city,"Hackney, London",Reino Unido
85,9.190024000000001,45.465577,Clave de Fa,381554407,2020-03-21 19:06:17,,poi,Galleria Vittorio Emanuele II,Italia
205,-0.0601675,51.5476445,Clave de Fa,381554407,2020-03-29 19:13:41,,city,"Hackney, London",Reino Unido
88,139.75941834,35.69596843,,381554466,2020-02-18 03:46:06,,city, ,
173,30.328698,59.934148,,381554576,2020-03-04 20:28:27,"St. Pete, Russia",city,"Saint Petersburg, Russia",Russia
160,-77.063592,-12.0784275,Eleazar Valverde,381554609,2020-04-23 02:56:28,"Lima, Per",city,"Magdalena Vieja, Peru",Peru
60,25.018623,60.159471,Jani Niipola,38155464,2020-03-18 22:28:48,,city,"Helsinki, Finland",Finland
88,139.67006922,35.61230193,assAm-hair,3815547072,2020-02-24 14:23:57, ,city, ,
88,139.2957855,35.6581635,eimingolf,3815550613,2020-02-14 23:46:41,,city, ,
11620,-97.139765,34.1745735,Letty Vargas,381555215,2020-03-18 03:30:44,,city,"Ardmore, OK",United States
9,145.7169445,-16.880526500000002,Siobhan Mckenna,38155572,2020-02-24 10:41:13,"Cairns, Queensland",city,"Cairns, Queensland",Australia
186,2.0894,41.373999999999995,anita eme,381556122,2020-03-20 09:40:35,"Barcelona, Catalua",city,"Esplugues de Llobregat, Espaa",Espaa
16980,-87.7909645,41.84325850000001,Mr.OUTLAW to you...,381556325,2020-05-23 14:35:26,GARNISHIN yo bank account,city,"Berwyn, IL",United States
24,-79.391316,43.661986999999996,Reina,3815565014,2020-02-21 16:39:33,"Ottawa, Ontario",poi,Legislative Assembly of Ontario,Canada
38,-73.745544,3.991529,Omar R Cruz,3815565034,2020-02-18 13:50:06,,city,"Acacas, Colombia",Colombia
205,-3.362106,52.690971,Fiona at Gwaenynog,38155651,2020-06-04 18:13:03,"MidWales, Welshpool - Vyrnwy",poi,Gwaenynog Farmhouse,United Kingdom
21,-47.5736535,-5.3899099999999995,Adriana Soares,38155661,2020-02-26 16:39:57,Imperatriz,city,"Imperatriz, Brasil",Brasil
71,11.443568,48.269933,Frank Abele,381556714,2020-04-29 19:24:47,"Mnchen, Bayern",city,"Dachau, Deutschland",Deutschland
12020,-83.378571,33.957845,Amanda Quesada,381556732,2020-05-30 04:07:43,"Washington, DC",city,"Athens, GA",United States
85,13.3667,38.1167,Gianfranco Spatola,38155678,2020-05-04 06:29:34,Italy,city,"Palermo, Sicilia",Italia
51,-6.247621499999999,53.3549025,sharon verdon craven,38155685,2020-03-05 02:41:56,raheny dublin,city,"Dublin City, Ireland",Ireland
71,13.3912935,52.46511949999999,Lina Bessonova,381557429,2020-05-20 19:49:14,"Florence, Italy",neighborhood,"Tempelhof, Berlin",Germany
120,101.014685,4.5204785,,381557636,2020-02-14 06:19:33,Ipoh Perak,city,"Belanja, Perak",Malaysia
173,48.4,54.3333,Alex Ravin,381557819,2020-02-24 13:02:36,", ",city,", ",
119,-100.2733,25.7345,AaRiiSilva,381558116,2020-02-15 08:25:06,,city,"San Nicols de los Garza, Nuevo Len",Mxico
65,6.1012775,49.1474715,yervin,381558406,2020-03-10 12:59:17,Metz,city,"Lorry-ls-Metz, France",France
186,-5.055187,36.556334,Bjarne Mess,381558527,2020-03-10 14:26:30,Marbella,city,"Benahavs, Espaa",Spain
152,6.0015730000000005,51.208966499999995,Raymond Hintjes,38155864,2020-02-22 09:27:41,Roermond,city,"Roermond, Nederland",Nederland
186,-4.59052745,43.215190299999996,Maru Garca Robles,381558662,2020-02-15 21:40:31,"Santander, Espaa",city,"Cillorigo de Libana, Espaa",Espaa
31080,-118.125196,34.583628999999995,Adriii ,3815587819,2020-02-14 03:03:29,"Quartz Hill, CA",city,"Palmdale, CA",United States
119,-99.17185400000001,19.425555,Adrii ,3815587819,2020-03-20 03:32:36,"Quartz Hill, CA",poi,Mexico City,Mexico
15380,-78.75831,42.78139,Judy Krawczyk,381559145,2020-03-11 02:21:34,Orchard Park (Buffalo) NY,city,"Orchard Park, NY",United States
65,0.6951265,47.394220000000004,Fatoumata,3815591903,2020-03-15 19:28:01,"Tours, France",city,"Tours, France",France
152,4.3063955,52.07686800000001,Leonie Verhoeven,381559452,2020-02-16 11:25:25,"Den Haag, Nederland",city,"Den Haag, Nederland",Nederland
8,-64.1980255,-31.4154565,Fran,381559537,2020-02-29 06:13:09,Portea - Crdoba,city,"Crdoba, Argentina",Argentina
152,5.9356254999999996,51.7852955,Doppio Nijmegen,381559666,2020-02-21 21:39:55,Plein 1944 90 Nijmegen,city,"Groesbeek, Nederland",Nederland
175,46.685077,24.7219435,mutaz alshammari,381559674,2020-03-05 14:09:32,"Riyadh, Kingdom of Saudi Arabia",city,"Riyadh, Kingdom of Saudi Arabia",Kingdom of Saudi Arabia
21,-47.796623,-15.776254000000002,dyva,381559765,2020-02-14 12:07:51,,city,"Braslia, Brasil",Brasil
186,-8.422813000000001,43.345661,eme,381559893,2020-04-28 11:14:19,B-612,city,"A Corua, Espaa",Espaa
186,-6.046901,37.384139000000005,Manuel ,381559914,2020-05-25 09:29:37,"Sevilla, Andaluca",poi,IKEA,Espaa
29820,-115.223125,36.232915000000006,Happy Seitz,381560011,2020-06-09 18:28:32,Peoples Republic of California,city,"Las Vegas, NV",United States
152,5.316669999999999,51.7,DoppioDenBosch,381560467,2020-02-21 21:57:46,"'s-Hertogenbosch, Nederland",city,"'s-Hertogenbosch, Nederland",Nederland
91,36.838944,-1.26498,Erastus Muli,3815609175,2020-03-31 12:21:32,"Nairobi, Kenya",poi,Radiant Pangani Hospital,Kenya
88,139.67923249999998,35.49304,,3815609179,2020-03-26 14:17:14,,city,"Yokohama City Tsurumi Ward, Kanagawa",Japan
88,140.1212765,35.636506,Matt.J,381560975,2020-03-19 14:07:48, ,city,  ,
119,-96.886083,19.542054,Stefhany ,381561023,2020-02-14 13:27:42,"Xalapa, Veracruz.",city,"Xalapa, Veracruz de Ignacio de la Llave",Mxico
186,-3.7035075,40.4777945,Fran Ferrero,381561089,2020-03-26 22:05:34,Oviedo,city,"Madrid, Espaa",Espaa
38,-74.24367099999999,4.2622835,Juan Carlos Cardenas,381561135,2020-03-08 22:45:29,,city,"Bogot, D.C., Colombia",Colombia
82,80.2176115,13.013218499999999,Tech Shan,381561498,2020-02-14 02:58:09,Chennai - INDIA,city,"Chennai, India",India
175,45.27958,25.913662, ,381561954,2020-02-14 14:43:20,,city,"Al Majmah, Kingdom of Saudi Arabia",Kingdom of Saudi Arabia
205,-1.449612,53.3831645,Timothy Neal,3815619555,2020-03-08 15:59:46,"Sheffield, England",city,"Sheffield, England",United Kingdom
164,-9.159995,38.743614,Nanotech Security Corp.,381562141,2020-03-10 23:45:18,"British Columbia, Canada",city,"Lisbon, Portugal",Portugal
24,-122.958344,49.239653499999996,Nanotech Security Corp.,381562141,2020-03-12 16:57:02,"British Columbia, Canada",city,"Burnaby, British Columbia",Canada
222,106.837755,-6.293493,Nicky Satrio,38156248,2020-03-24 07:33:29,Bandung,city,"Pasar Minggu, Indonesia",Indonesia
222,107.010654,-6.3162210000000005,prima_galih,381562488,2020-02-20 11:13:45,"Cirebon, west java indonesia",city,"Bantargebang, Indonesia",Indonesia
158,172.74586649999995,-43.6457815,Mai,3815625912,2020-02-14 06:15:11,,city,"Christchurch City, New Zealand",
205,-3.2087,55.9546,Cheryl Hunter,38156299,2020-02-24 08:48:16,Edinburgh & Glasgow,city,"Edinburgh, Scotland",United Kingdom
38,-74.24367099999999,4.2622835,Enrique Cordoba R.,38156307,2020-02-28 23:06:47,"Miami, Fl. USA",city,"Bogot, D.C., Colombia",Colombia
33100,-80.2333285,25.7823535,Enrique Cordoba R.,38156307,2020-03-20 12:42:51,"Miami, Fl. USA",city,"Miami, FL",United States
47900,-77.12661999999999,38.81244,MaggietheRealtor,381563107,2020-02-16 17:59:31,Wash DC,city,"Alexandria, VA",United States
41860,-122.45269850000001,37.67877950000001,Louis Laudencia,38156314,2020-05-12 13:14:19,"San Francisco, CA",city,"Daly City, CA",United States
186,-13.957228,28.499015000000004,Iaki Prez Morante,381563272,2020-03-10 21:17:54,Fuerteventura,city,"Puerto del Rosario, Espaa",Espaa
9,115.84608104,-32.00196364,Nicola Huckerby,3815633189,2020-02-17 02:31:24,"Devon, England, United Kingdom",city,"Perth, Western Australia",Australia
205,-3.6757364999999997,50.590032,Nicola Huckerby,3815633189,2020-02-27 21:37:14,"Devon, England, United Kingdom",city,"Bovey Tracey, England",United Kingdom
24,-114.052071,51.142561,Don Mousseau,381563405,2020-03-25 16:44:05,,city,"Rocky View County, Alberta",Canada
82,73.2425135,23.76886,jigarbharada,3815635772,2020-05-17 02:12:46,,city,"Bhiloda, India",India
200,32.8183815,39.8889765,SMK,381563719,2020-02-14 13:36:55,Ankara,city,"Ankara, Trkiye",Trkiye
71,14.3874045,51.777820500000004,Leitstelle Lausitz,3815639361,2020-03-25 19:32:31,"Cottbus, Brandenburg",city,"Cottbus, Deutschland",Deutschland
13820,-86.73975,33.481181,Steve French,3815639961,2020-02-14 02:16:26,Birmingham ,city,"Mountain Brook, AL",United States
38,-73.46328600000002,10.324450500000001,Jaime Jos Diaz Gil,381564115,2020-02-24 06:02:10,valledupar - Cesar,city,"Valledupar, Colombia",Colombia
14460,-71.10372199999999,42.3954025,Orklewa_teni,3815641341,2020-02-24 20:45:29,"Abuja, Nigeria",city,"Somerville, MA",United States
35620,-73.949798,40.721634,James West,38156420,2020-05-09 15:45:29,"New York, NY",poi,McCarren Park Playground,United States
222,106.79668,-6.292728,ferdinand,381564407,2020-04-03 10:13:32,jakarta ,city,"Cilandak, Indonesia",Indonesia
88,135.515922,34.6304055,,3815652440,2020-02-25 17:10:01,,city,"Osaka-shi Abeno-ku, Osaka",Japan
193,100.468789,13.705936499999998,,381565326,2020-02-17 03:33:00,"Bangkok , Thailand",city,", ",
222,104.7572624,-2.95324945,Dona Aprilyana,381565428,2020-02-14 03:21:10,Jakarta,city,"Kemuning, Indonesia",Indonesia
27860,-90.696841,35.828626,Kyle Bolton,381565729,2020-03-10 21:29:56,"Jonesboro, AR",city,"Jonesboro, AR",United States
28140,-94.2791215,39.0148605,Kyle Bolton,381565729,2020-05-21 01:15:24,"Jonesboro, AR",city,"Blue Springs, MO",United States
27860,-90.696841,35.828626,Kyle Bolton,381565729,2020-06-05 15:45:31,"Jonesboro, AR",city,"Jonesboro, AR",United States
205,-0.7947960000000001,54.133245499999994,Tammie Low,3815658316,2020-05-07 15:19:03,"England, United Kingdom",city,"Malton, England",United Kingdom
31180,-101.897173,33.5705265,Plainsmen Baseball,3815659044,2020-03-01 15:26:40,"Lubbock, TX",city,"Lubbock, TX",United States
35620,-74.066663,40.7180015,JCSuperstar,381566110,2020-02-15 00:37:04,,city,"Jersey City, NJ",United States
82,75.96818400000002,22.6714825,lalit soni,3815662452,2020-02-22 17:40:57,Indore ,city,"Indore, India",India
173,39.870056,57.627945,,381566426,2020-02-27 11:47:08,,poi,"  """"",
42940,-83.522013,35.714531,luci,381566829,2020-05-26 17:39:03,,poi,Gatlinburg Skybridge West,United States
16740,-80.63113150000002,35.4019815,Paul Harvey II,38156689,2020-03-13 11:07:53,"Charlotte,NC",city,"Concord, NC",United States
159,-57.60601750000001,-25.300264000000002,Scria.Deportes SND,381566995,2020-02-18 19:58:22,Asuncin Paraguay,city,"Asuncion, Paraguay",Paraguay
88,135.75902867,34.97594367,studio2065,381567070,2020-02-15 12:24:07,,city,  ,
96,47.970537,29.369248,,381567165,2020-06-08 11:10:30,KUWAIT,city,"Al Qibla, Kuwait",Kuwait
65,2.6816615,48.4234755,Seine-et-Marne,381567418,2020-02-25 20:05:30,Melun,city,"Fontainebleau, France",France
35840,-82.42046400000002,27.4133895,Monica von B,381567568,2020-04-06 20:12:09,,city,"Lakewood Ranch, FL",United States
24,-79.6007967,43.59049368,CJ's SKATEPARK,381568036,2020-02-15 17:54:17,"560 Hensall Circle, Mississauga, Ontario, L5A 1Y1",city,"Mississauga, Ontario",Canada
88,138.676622,35.639720000000004,,381568057,2020-02-28 23:54:30,,poi, ,
31080,-118.4119065,34.0207895, ,3815681,2020-02-14 14:39:56,Upstate Manhattan,city,"Los Angeles, CA",United States
35620,-73.9685415,40.780709, ,3815681,2020-02-16 15:25:13,Upstate Manhattan,city,"Manhattan, NY",United States
33100,-80.19051738,25.77377613, ,3815681,2020-02-24 23:11:32,Upstate Manhattan,city,"Miami, FL",United States
35620,-73.8494415,40.8503475, ,3815681,2020-02-27 02:11:10,Upstate Manhattan,city,"Bronx, NY",United States
41700,-98.5406515,29.417501,Dani,3815681713,2020-02-17 02:55:01,,city,"San Antonio, TX",United States
12580,-76.62048200000002,39.284713,Niquee,3815681849,2020-02-16 03:42:55,,city,"Baltimore, MD",United States
39580,-78.657837,35.8439815,Victra - Verizon Authorized Retailer,381568188,2020-02-16 19:55:35,,city,"Raleigh, NC",United States
205,-0.0357823,51.519041200000004,A---Z,381568266,2020-02-21 15:09:58,LDN & other ether,city,"Poplar, London",United Kingdom
186,-3.816975,40.429126000000004,isarey26,3815682927,2020-02-16 11:16:45,"Palma, Espaa",city,"Pozuelo de Alarcn, Espaa",Espaa
31080,-118.12698300000001,33.937523999999996,Victor Magallon,381568327,2020-04-30 05:30:32,"Los Angeles, California",poi,Chick-fil-A,United States
162,19.18221474,50.035319,Corine,3815684008,2020-02-21 15:33:19,,city,"Owicim gmina, Polska",Polen
186,2.111878,41.358305,Jorge Garca Yuste,381568444,2020-03-28 21:58:06,,city,"L'Hospitalet de Llobregat, Espaa",Espaa
205,-1.3219999999999998,54.5697275,j e k ,381568538,2020-02-15 15:47:20,"Trimdon Grange, England",city,"Stockton-on-Tees, England",United Kingdom
222,110.747837,-7.559585,Adipati Dolken,381568553,2020-02-18 14:58:00,di layar kaca,city,"Kartosuro, Indonesia",Indonesia
88,140.607244,36.491709,@fafan4/4,3815686152,2020-02-22 04:54:33,,poi, ,
200,29.0052225,41.0213205,zgr Kaytan,381568635,2020-03-01 07:56:28,,city,"stanbul, Trkiye",Trkiye
33,-68.55226800000001,-22.101634,Luis Espinosa,3815689467,2020-02-29 04:41:40,,city,"Calama, Chile",Chile
46140,-95.913642,36.1093915,Kiley Ging,3815690952,2020-03-20 13:57:41,,city,"Tulsa, OK",United States
171,120.9831935,15.488908499999999,ja ,3815693594,2020-02-25 02:32:08,goldy ,city,"Cabanatuan, Central Luzon",Republic of the Philippines
15380,-78.75406509999999,42.9149495,Leah M. Pitisi,381569542,2020-05-11 19:52:58,"Cheektowaga, New York",city,"Cheektowaga, NY",United States
65,2.4252765,48.8670905,Irisou,3815699907,2020-02-15 13:02:25,,city,"Bagnolet, France",France
186,-15.459848999999998,28.103013,aniceto,381570025,2020-04-26 21:06:42,,city,"Las Palmas de Gran Canaria, Espaa",Espaa
193,102.7613955,17.873155500000006,B,3815703613,2020-02-14 03:40:33,"., ",city,", ",
186,-6.2499675,37.4914835,Insomnia,381570587,2020-05-01 12:44:55,"Sevilla, Andaluca",city,"Sanlcar la Mayor, Espaa",Espaa
171,121.033212,14.5464995,HT ,381570921,2020-02-28 03:54:41,Manila Philippines,city,"Makati City, National Capital Region",Republic of the Philippines
88,132.998804,34.247248,OHANA,3815711894,2020-05-19 08:41:15,5341,poi,& OHANA in ,
8,-57.5814305,-38.01158750000001,Stefana,381571506,2020-04-12 21:44:06,,city,"Mar del Plata, Argentina",Argentina
200,27.2541885,40.2309715,Erdem Uz,381571578,2020-03-17 22:12:05,"anakkale, Trkiye",city,"Biga, Trkiye",Trkiye
55,-89.3158035,13.626873499999999,Ricardo Pea,381571594,2020-04-02 03:17:22, El Salvador,city,"Antiguo Cuscatlan, El Salvador",El Salvador
222,107.688645,-7.187188000000001,RPR,381571623,2020-05-23 23:27:35,"Bandung, Jawa Barat",poi,"Cibeureum, Kertasari, Kab.Bandung",Indonesia
171,123.24982250000001,13.718604500000001,,3815716704,2020-02-18 12:15:22,St. Paul Cali,city,"Calabanga, Bicol Region",Republic of the Philippines
65,4.959021,45.775972,Badgonedu01390,381571838,2020-02-16 13:49:27,Saint Marcel en Dombes,city,"Dcines-Charpieu, France",France
178,27.875272,-26.2564215,Nakonnali ,381571865,2020-04-22 22:30:02,,city,"Soweto, South Africa",South Africa
18140,-82.985772,39.9946835,OESCA,38157190,2020-03-27 12:49:21,"Columbus, Ohio",city,"Columbus, OH",United States
24860,-82.2392475,35.208481000000006,Forever Dream SDS,3815721795,2020-02-15 11:05:33,"Tryon, NC",city,"Tryon, NC",United States
43900,-82.1842115,35.170904,Forever Dream SDS,3815721795,2020-02-20 11:51:30,"Tryon, NC",city,"Landrum, SC",United States
24860,-82.2392475,35.208481000000006,Forever Dream SDS,3815721795,2020-02-29 15:11:31,"Tryon, NC",city,"Tryon, NC",United States
43900,-82.167002,35.179572,Forever Dream SDS,3815721795,2020-03-05 13:09:24,"Tryon, NC",poi,Landrum Veterinary Hospital,United States
24860,-82.2392475,35.208481000000006,Forever Dream SDS,3815721795,2020-03-05 14:09:38,"Tryon, NC",city,"Tryon, NC",United States
43900,-82.1842115,35.170904,Forever Dream SDS,3815721795,2020-03-09 19:52:14,"Tryon, NC",city,"Landrum, SC",United States
24860,-82.2392475,35.208481000000006,Forever Dream SDS,3815721795,2020-03-14 01:39:54,"Tryon, NC",city,"Tryon, NC",United States
43900,-82.1842115,35.170904,Forever Dream SDS,3815721795,2020-04-25 11:27:07,"Tryon, NC",city,"Landrum, SC",United States
24860,-82.2392475,35.208481000000006,Forever Dream SDS,3815721795,2020-04-26 13:02:00,"Tryon, NC",city,"Tryon, NC",United States
43900,-82.1842115,35.170904,Forever Dream SDS,3815721795,2020-05-18 10:52:49,"Tryon, NC",city,"Landrum, SC",United States
24860,-82.2392475,35.208481000000006,Forever Dream SDS,3815721795,2020-05-18 17:18:29,"Tryon, NC",city,"Tryon, NC",United States
43900,-82.1842115,35.170904,Forever Dream SDS,3815721795,2020-05-19 10:55:24,"Tryon, NC",city,"Landrum, SC",United States
24860,-82.2392475,35.208481000000006,Forever Dream SDS,3815721795,2020-05-20 13:43:27,"Tryon, NC",city,"Tryon, NC",United States
43900,-82.1842115,35.170904,Forever Dream SDS,3815721795,2020-05-29 10:54:00,"Tryon, NC",city,"Landrum, SC",United States
24860,-82.2392475,35.208481000000006,Forever Dream SDS,3815721795,2020-06-03 11:27:59,"Tryon, NC",city,"Tryon, NC",United States
222,107.651627,-6.9237589999999996,bayu pratama putra,3815721924,2020-05-06 10:10:32,"Kota Bandung, West Java",city,"Kiaracondong, Indonesia",Indonesia
152,6.612316000000001,53.215667,Twinseasons,381572236,2020-05-04 15:38:45,"Groningen, the Netherlands",poi,Twinseasons,Nederland
3,49.871475,40.402224,vasif atakishiyev,381572400,2020-05-22 23:13:47,,poi,Nrimanov Park,Azerbaijan
40080,-84.2936,37.7447,Bruce Withers,38157245,2020-03-05 13:52:30,"Richmond, Ky",city,"Richmond, KY",United States
43700,-84.62343519,37.00856094,Bruce Withers,38157245,2020-03-07 23:25:24,"Richmond, Ky",city,"Burnside, KY",United States
13720,-82.5301,37.4771,Bruce Withers,38157245,2020-03-14 17:55:58,"Richmond, Ky",city,"Pikeville, KY",United States
40080,-84.27960340000001,37.729457000000004,Bruce Withers,38157245,2020-03-22 13:50:46,"Richmond, Ky",city,"Richmond, KY",United States
16980,-87.732013,41.8335845,Alexandra Vogl,381572507,2020-02-14 02:13:51,"Chicago, IL",city,"Chicago, IL",United States
35620,-74.054126,40.292512,Pat Pollard,381572558,2020-02-14 19:03:13,,city,"Eatontown, NJ",United States
119,-100.405292,20.574919,miriam,381572663,2020-02-21 06:46:03,Quertaro,poi,Plaza de Toros Santa Mara,Mxico
21,-43.441578,-22.911421500000003,morena ,3815732477,2020-02-26 23:58:13,"Rio de Janeiro, Brasil",city,"Rio de Janeiro, Brasil",Brasil
205,-2.9119175000000004,54.368367000000006,Alice Wills,3815733022,2020-02-18 16:27:39,"Kendal, England",city,"Windermere, England",United Kingdom
193,99.085607,18.8404795,,381573355,2020-02-21 10:41:05,Chiang mai,city,"Talat Khwan, Thailand",Thailand
71,13.4246065,52.506701,Paula Grobbecker,381573363,2020-02-17 09:14:30,Berlin,city,"Berlin, Deutschland",Deutschland
45300,-82.82457,27.97764,Hailey Fischer,381573429,2020-03-03 03:42:52,,city,"Clearwater, FL",United States
33460,-93.18583333,44.85777778,Hailey Fischer,381573429,2020-05-24 01:00:48,,city,"Eagan, MN",United States
205,-0.44236099999999995,51.537061,khalid Sadik,3815734573,2020-03-17 18:56:04,"London, England",city,"Hillingdon, London",United Kingdom
186,-3.2075875,38.935903499999995,Dolores Larisa Horne,3815735837,2020-02-24 09:31:29,,city,"La Solana, Espaa",Espaa
158,174.79468702,-36.99607293,Nick Logan,38157403,2020-04-07 11:11:53,"Auckland, New Zealand",city,"Auckland, New Zealand",New Zealand
167,51.495214000000004,25.316206,.,381574112,2020-03-22 05:11:35,"Doha, Qatar",poi,20 Grams,Qatar
16980,-87.732013,41.8335845,John Smith,3815742389,2020-04-04 14:30:32,,city,"Chicago, IL",United States
71,10.00274397,53.55530928,Tenjoo,38157428,2020-03-07 15:31:47,"Grenzach-Wyhlen, Deutschland",city,"Hamburg, Germany",Germany
186,-5.880623999999999,36.6906905,Jonathan Franco,381574734,2020-03-21 17:26:55,"Jerez de la Frontera, Espaa",city,"Jerez de la Frontera, Espaa",Espaa
14460,-71.71964249999998,42.659609499999995,Elmerthehunter,3815748694,2020-05-19 20:09:50,Wilderness,city,"Townsend, MA",United States
205,-1.508545,53.6791975,Artwalk Wakefield,38157494,2020-03-07 16:49:02,"Wakefield, West Yorkshire, UK",city,"Wakefield, England",United Kingdom
35620,-72.9460365,40.8791555,Ellyn Stein,381575066,2020-02-18 01:08:41,NYC,city,"Middle Island, NY",United States
151,3.3180660000000004,6.590611,olubunmi,381575133,2020-02-28 07:19:38,"Lagos, Nigeria",city,"Ikeja, Nigeria",Nigeria
82,74.736304,34.177133999999995,Tahir Mahmood||  ,381575275,2020-05-03 23:07:46,,city,"Baramula, Jammu And Kashmir",
199,10.488735,33.332706, ,381575471,2020-03-29 20:39:28,Tunisie  Medenine,poi,my place,Tunisie
9,151.206684,-33.873019,Ingrid King,38157550,2020-06-06 05:11:57,Sydney,poi,Sydney Town Hall,Australia
23420,-119.7824645,36.786042,Eduardo Aguirre,381575596,2020-02-16 11:03:38,"California, USA",city,"Fresno, CA",United States
42020,-120.846039,35.378072499999995,Eduardo Aguirre,381575596,2020-05-31 03:27:08,"California, USA",city,"Morro Bay, CA",United States
23420,-119.7824645,36.786042,Eduardo Aguirre,381575596,2020-06-02 21:50:32,"California, USA",city,"Fresno, CA",United States
45300,-82.44269399999997,27.9965945,Theresa Woods,381575641,2020-02-20 15:27:34,"Tampa, FL",city,"Tampa, FL",United States
41940,-122.0238405,37.378397,Acubed,3815758762,2020-03-06 00:06:20,"Sunnyvale, CA",city,"Sunnyvale, CA",United States
200,27.006511,38.4079305,zNuR,3815758948,2020-02-16 08:56:48,"zmir, Trkiye",city,"zmir, Trkiye",Trkiye
9,149.1297825,-35.313979499999995,Wendy Thorne,38157606,2020-03-22 08:52:47,,city,"Canberra, Australian Capital Territory",Australia
205,-0.9483415000000001,51.4068125,Emma Curtis Flowers,381576060,2020-03-18 16:29:59,Berkshire,city,"Shinfield, England",United Kingdom
8,-58.3594,-34.6345,Andrea On Vacation,381576158,2020-03-07 20:54:13,"Baltimore, MD",city,"Ciudad Autnoma de Buenos Aires, Argentina",Argentina
21,-54.5612665,-25.4626388,Andrea On Vacation,381576158,2020-03-09 22:24:17,"Baltimore, MD",city,"Foz do Iguau, Brasil",Brazil
38060,-111.91799999999999,33.8182,Andrea On Vacation,381576158,2020-05-25 03:23:12,"Baltimore, MD",city,"Carefree, AZ",United States
21,-48.478899,-27.609691,Abigail,381576436,2020-02-15 00:10:50,,city,"Florianpolis, Brasil",Brasil
8,-58.3901175,-34.702244500000006,Abigail,381576436,2020-03-11 16:25:51,,city,"Lans Oeste, Argentina",Argentina
186,-8.14487,42.28829,Moncho Fotgrafo,381576531,2020-02-17 18:15:39,Ribadavia (Ourense) Galicia,city,"Ribadavia, Espaa",Espaa
71,12.655944,48.86310400000001,Andreas Oswald,3815772687,2020-02-14 13:44:53,Aiterhofen; Straubing,city,"Aiterhofen, Deutschland",Deutschland
164,-8.227667499999999,37.144667,BRB Recherchebureau,3815773859,2020-02-21 20:46:36,"Breda, Noord-Brabant",city,"Albufeira, Portugal",Portugal
152,4.7648495,51.5599275,BRB Recherchebureau,3815773859,2020-03-16 18:22:18,"Breda, Noord-Brabant",city,"Breda, Nederland",Nederland
119,-100.2783405,20.7456405,Sof Dufo,381577481,2020-02-15 00:31:51,,city,"El Marqus, Quertaro Arteaga",Mxico
171,120.340383,16.497082000000002,ABY ,38157752,2020-03-10 09:36:29,ph,poi,Ciano Umok Gallery Cafe,Republic of the Philippines
82,72.87424399999999,19.174139999999998,Dr. Pradhans,381577613,2020-04-20 18:15:30,Vile Parle East,city,"Mumbai, India",India
9,150.931975,-33.848244,mustafa iek,381578092,2020-04-30 12:10:07,Australia,city,"Sydney, New South Wales",Australia
119,-102.327207,21.849459000000003,Carlos Zamarripa,381578173,2020-02-19 05:13:39,Ags.MX,city,"Aguascalientes, Mxico",Mxico
38300,-79.9975,40.4411,YWAM Pittsburgh,381578193,2020-03-05 13:10:03,"Pittsburgh, PA",city,"Pittsburgh, PA",United States
49,-78.5566815,-0.16657049999999998,Verito Lpez,381578232,2020-02-27 09:42:44,Quito~Ecuador,city,"Quito, Ecuador",Ecuador
120,101.68747902,3.18525147,,38157837,2020-03-10 04:05:28,,city,"Kuala Lumpur City, Kuala Lumpur Federal Territory",Malaysia
65,-0.6817690000000001,44.831368,emui,381578395,2020-02-14 15:35:28,G.D.st Jail,city,"Mrignac, France",Francia
186,-1.790589,43.320681,emui,381578395,2020-02-15 18:02:22,G.D.st Jail,city,"Irun, Espaa",Espaa
65,-0.9108075000000001,44.2244205,emui,381578395,2020-02-18 17:42:44,G.D.st Jail,city,"Labouheyre, France",Francia
186,-3.6894395,42.344393,emui,381578395,2020-02-22 13:10:18,G.D.st Jail,city,"Burgos, Espaa",Espaa
65,-0.6809689999999999,44.786063,,381578395,2020-03-04 08:59:39,G.D.st Jail,city,"Pessac, France",Francia
186,-1.790589,43.320681,  ,381578395,2020-03-17 09:43:55,G.D.st Jail,city,"Irun, Espaa",Espaa
65,2.3468915,48.967594500000004,Lahlou Amine,381578619,2020-04-03 20:49:40,"Paris, France",city,"Montmagny, France",France
65,4.8422,45.7597,youm gotil au micro,381578692,2020-05-30 10:17:22,,city,"Lyon, France",France
21,-37.794731,-11.2724135,Marcel Cardoso,3815788228,2020-05-09 07:16:16,"Itabaianinha, Brasil",city,"Itabaianinha, Brasil",Brasil
31080,-118.4119065,34.0207895,Madeline Pea,381578829,2020-02-20 23:41:38,"Long Beach, CA",city,"Los Angeles, CA",United States
82,72.915723,19.073636999999998,Aarav,3815789473,2020-05-21 18:23:58," , ",poi,Ramabai Ambedkar Nagar,India
21,-43.441578,-22.911421500000003,Marco Antonio,3815791095,2020-02-29 17:18:20,"Pedro Leopoldo, Brasil",city,"Rio de Janeiro, Brazil",Brazil
36140,-74.8171445,38.98144356,Long Island Cheer,381579230,2020-02-22 12:46:14,"Ronkonkoma, NY",city,"Wildwood, NJ",United States
35620,-73.08914,40.78353,Long Island Cheer,381579230,2020-03-08 18:08:47,"Ronkonkoma, NY",city,"Ronkonkoma, NY",United States
57,11.796224,47.293849,Przemek Dziedzic,381579541,2020-02-20 13:05:02,Dubai,city,"Fgenberg, sterreich",sterreich
162,21.06179,52.2328355,Przemek Dziedzic,381579541,2020-02-22 14:08:13,Dubai,city,"Warszawa, Polska",Polska
173,37.333722,55.951668000000005,Przemek Dziedzic,381579541,2020-02-22 19:45:35,Dubai,city,", ",
49020,-78.19237218,39.19187509,Ammy Doeden,381579552,2020-05-08 19:56:49,"Stephens City, VA",city,"Winchester, VA",United States
82,78.49135626,17.58377696,Srichandradeep C,381579892,2020-03-05 12:47:27,"Hyderabad, Telangana, India",city,"Medchal, India",India
21,-35.80907501,-9.71892572,gildlia,381579941,2020-02-26 01:36:45,,city,"Marechal Deodoro, Brasil",Brasil
205,-0.0350195,51.5148305,Ms E-J,3815800047,2020-06-02 11:41:56,"London, England",city,"Poplar, London",United Kingdom
33460,-93.1056485,44.9415155,Nelli Hodorff,381580088,2020-04-15 22:46:20,"Minnesota, USA",city,"St Paul, MN",United States
82,85.106248,25.634129,ravi kumar singh,3815810358,2020-04-29 20:19:48,"Patna, India",poi,P&M Mall,India
51,-6.2591,53.3476,Caroline Hynes,38158131,2020-04-22 08:28:05,Dublin,city,"Dublin City, Ireland",Ireland
205,-3.214363,56.155694,Kath Miller,3815813837,2020-03-12 11:09:50,,poi,Cluny Clays,United Kingdom
186,-3.756274,40.3932295,BPR,381581517,2020-03-04 21:25:11,"Avda. de Manoteras, 30, Madrid",neighborhood,"Aluche, Madrid",Espaa
205,-1.5491,53.7998,Josh McHugh,38158167,2020-02-15 12:40:26,"Woodlesford, Leeds.",city,"Leeds, England",United Kingdom
71,10.79320642,52.43147735,Josh McHugh,38158167,2020-02-25 16:26:07,"Woodlesford, Leeds.",city,"Wolfsburg, Germany",Germany
205,-1.508545,53.6791975,Josh McHugh,38158167,2020-02-26 16:33:08,"Woodlesford, Leeds.",city,"Wakefield, England",United Kingdom
82,76.88064849999999,17.3688485,Mudgal Venkatesh,38158170,2020-03-05 02:01:41,Gulbarga..Karnataka...India,city,"Gulbarga, India",India
33,-70.515078,-33.485944,La Fea,381581958,2020-02-14 19:57:22,"Santiago, Chile",city,"Pealoln, Chile",Chile
38,-75.5496355,10.3904485,La Fea,381581958,2020-03-04 06:09:24,"Santiago, Chile",city,"Cartagena, Colombia",Colombia
33,-70.6667,-33.45,La Fea,381581958,2020-03-19 20:16:26,"Santiago, Chile",city,"Santiago, Chile",Chile
205,-1.7610015,53.755841,karen chalmers,38158231,2020-04-18 16:50:01,"bradford,west yorkshire",city,"Wibsey, England",United Kingdom
51,-6.247621499999999,53.3549025,ula am,381582333,2020-05-02 19:57:59,"Dublin, Ireland",city,"Dublin City, Ireland",Ireland
38,-73.03959886,5.83632511,Nicolas Becerra,381582468,2020-06-03 15:53:06,"Duitama, Boyac, Colombia",city,"Duitama, Colombia",Colombia
19100,-97.3332,32.7574,Jarrett Warren,38158271,2020-05-05 00:56:18,"Pensacola, FL",city,"Fort Worth, TX",United States
88,139.022542,36.345633,@,3815829552,2020-03-22 09:24:18,,poi,  2,Japan
186,-3.7035075,40.4777945,Org.Mujeres CI,381582978,2020-02-26 12:14:57,,city,"Madrid, Espaa",Espaa
186,-5.5825375,42.593647,Teresa Montiel,3815830600,2020-04-08 15:57:52,,city,"Len, Espaa",Espaa
151,3.4450862,6.4230432,Enewerome,3815831835,2020-02-26 15:32:04,"Lagos, Nigeria ",city,"Victoria Island, Nigeria",Nigeria
88,133.26011799,35.51997732,,38158336,2020-02-23 07:37:54,,city, ,
71,9.986528999999999,53.608956000000006,Timo B. Kranz ,38158365,2020-06-03 17:51:44,Hamburg,poi,Gro Borstel,Deutschland
21,-43.441578,-22.911421500000003,Lc,3815836534,2020-03-19 18:33:38,"Campo Grande, Rio de Janeiro",city,"Rio de Janeiro, Brasil",Brasil
65,2.26023,48.98975,JDave95,381583845,2020-03-08 09:24:47,"Paris, France",city,"Ermont, France",France
31080,-118.4119065,34.0207895,Tita Tea,3815845994,2020-02-14 02:57:58,"Los Angeles, CA",city,"Los Angeles, CA",United States
12540,-119.025163,35.3469015,Tita Tea,3815845994,2020-02-17 03:13:44,"Los Angeles, CA",city,"Bakersfield, CA",United States
31080,-118.159729,34.0352975,Tita Tea,3815845994,2020-02-17 18:53:14,"Los Angeles, CA",city,"East Los Angeles, CA",United States
51,-6.395643,53.90604200000001,Tommie Kelly,3815847863,2020-02-15 13:42:05,Ireland,city,"Louth, Ireland",Ireland
152,5.64123,51.64995,La Fuente,38158491,2020-02-18 15:21:23,Wherever the music brings us,city,"Uden, Nederland",The Netherlands
71,7.07154,52.19957,La Fuente,38158491,2020-03-07 10:14:46,Wherever the music brings us,city,"Gronau (Westfalen), Deutschland",Germany
152,5.10354306,52.08507572,La Fuente,38158491,2020-04-11 10:52:51,Wherever the music brings us,city,"Utrecht, The Netherlands",The Netherlands
205,0.7217180000000001,51.803859,Jonathan Whiteside,38158506,2020-04-08 07:18:46,,city,"Tiptree, England",United Kingdom
91,37.134609000000005,-0.4806585,juliah wangui kinyua,3815851606,2020-03-17 14:25:43,,city,"Karatina, Kenya",Kenya
205,-2.740721,51.122612,emily,381585177,2020-02-15 21:04:28,somerrrrrset,city,"Street, England",United Kingdom
82,76.974691,28.368525,Prashant Sareen,38158519,2020-05-13 08:03:24,gurgaon,city,"Gurgaon, India",India
88,139.61942241,35.76872775,yasushi / ,381585192,2020-02-15 08:53:51,,city, ,
21,-43.441578,-22.911421500000003,Malbin ,3815852249,2020-02-16 05:31:03,,city,"Rio de Janeiro, Brasil",Brasil
47900,-77.036562,38.897804,Yasmin Vafa,381585338,2020-06-02 23:07:31,"Washington, DC",poi,The White House,United States
31080,-118.00608299,33.70628908,David Reynolds,381585427,2020-02-17 00:17:17,"Huntington Beach, CA",city,"Huntington Beach, CA",United States
91,36.863620000000004,-1.2748635,Vincent Orale,381585540,2020-06-01 07:34:14,"Mombasa, Kenya",city,"Nairobi, Kenya",Kenya
21,-46.5955455,-23.682803,Larissa,381585888,2020-03-06 23:50:53,"Sao Paulo, Brazil",city,"So Paulo, Brasil",Brasil
31660,-73.98527778,44.28555556,Tim Robinson,381585955,2020-04-19 09:22:26,"Lake Placid, NY",city,"Lake Placid, NY",United States
17460,-81.9267,41.4842,Tim Robinson,381585955,2020-04-23 11:18:19,"Lake Placid, NY",city,"Bay Village, OH",United States
31660,-73.98527778,44.28555556,Tim Robinson,381585955,2020-04-25 12:08:19,"Lake Placid, NY",city,"Lake Placid, NY",United States
205,-2.915427,53.4198785,JamesYates,381586020,2020-04-15 08:29:25,"Liverpool, England",city,"Liverpool, England",United Kingdom
39300,-71.3560885,41.8037495, Anythings possible ,381586047,2020-02-14 13:09:00,"Providence, RI",city,"East Providence, RI",United States
45060,-76.0710845,43.075114500000005, Anythings possible ,381586047,2020-05-28 03:34:45,"Providence, RI",city,"East Syracuse, NY",United States
39300,-71.4218325,41.817084, Anythings possible ,381586047,2020-06-01 01:54:25,"Providence, RI",city,"Providence, RI",United States
205,-2.2471099999999997,53.464462,Jeremiah Quinn,381586077,2020-05-24 14:37:13,,poi,Birley Fields Campus Manchester Metropolitan University,United Kingdom
200,40.512817,41.030656,eyma Yalnz,3815862809,2020-03-03 21:04:24,"Samsun, Trkiye",poi,Rize kiz Yurdu,Trkiye
35620,-73.66944950000001,40.5886235,Liam Rafferty,381586682,2020-05-18 22:24:55,,city,"Long Beach, NY",United States
24,-52.829425,47.4826065,Beerstore,381587100,2020-03-14 05:10:18,"St. John's, NL",city,"St. John's, Newfoundland and Labrador",Canada
17900,-81.2441895,33.985451999999995,Ken Katayama  ,38158734,2020-05-24 14:37:28,United States & Brasil,city,"Lexington, SC",United States
88,138.1871989,36.6425558,-`,381587530,2020-04-30 03:37:49,,city, ,
186,-3.7035075,40.4777945,Victor ,381587603,2020-03-15 16:20:02,Madrid,city,"Madrid, Espaa",Espaa
178,28.136140500000003,-25.860881,i'dratherbeaSTEVE,381587728,2020-02-22 16:32:37,South Africa,city,"Centurion, South Africa",South Africa
69,-1.612222,6.693627,icenanaadusei,381588129,2020-02-14 06:18:20,Ghana,city,"Kumasi, Ghana",Ghana
38,-74.056297,4.8365725,Laura Camacho,381588622,2020-04-19 04:04:37,Bogota,city,"Cha, Colombia",Colombia
38,-73.46328600000002,10.324450500000001,NataliaFuneme,381588643,2020-02-14 12:46:58,,city,"Valledupar, Colombia",Colombia
200,29.0052225,41.0213205,Fikret Atasoy,381588822,2020-04-09 21:01:35,@bedeviulus,city,"stanbul, Trkiye",Trkiye
21,-46.5955455,-23.682803,Andr Matos,3815892148,2020-02-14 00:56:31,So Paulo- SP,city,"So Paulo, Brasil",Brasil
19740,-105.005,39.5438,TonystarkG,381589297,2020-02-22 02:14:40,"Denver, by way of Jersey",city,"Highlands Ranch, CO",United States
31080,-118.4119065,34.0207895,Jenn,3815893454,2020-02-27 05:37:08,,city,"Los Angeles, CA",United States
41940,-121.8271665,37.3675,Jenn,3815893454,2020-03-17 00:42:40,,city,"Alum Rock, CA",United States
41860,-122.0857755,37.64127050000001,Jenn,3815893454,2020-04-04 04:47:54,,city,"Hayward, CA",United States
41940,-121.8737305,37.331159,Jenn,3815893454,2020-04-11 17:38:43,,city,"San Jose, CA",United States
31080,-118.4119065,34.0207895,Jenn,3815893454,2020-04-14 16:58:07,,city,"Los Angeles, CA",United States
41940,-121.8271665,37.3675,Jenn,3815893454,2020-04-22 01:22:49,,city,"Alum Rock, CA",United States
41860,-122.0857755,37.64127050000001,Jenn,3815893454,2020-05-03 04:59:46,,city,"Hayward, CA",United States
41940,-121.8271665,37.3675,Jenn,3815893454,2020-05-06 23:21:19,,city,"Alum Rock, CA",United States
41860,-122.0857755,37.64127050000001,Jenn,3815893454,2020-05-18 13:54:56,,city,"Hayward, CA",United States
41940,-121.8271665,37.3675,Jenn,3815893454,2020-05-21 05:37:08,,city,"Alum Rock, CA",United States
41860,-121.760079,37.683592,Jenn,3815893454,2020-06-02 00:40:06,,city,"Livermore, CA",United States
41940,-121.8737305,37.331159,Jenn,3815893454,2020-06-04 21:58:57,,city,"San Jose, CA",United States
41860,-122.0857755,37.64127050000001,Jenn,3815893454,2020-06-10 05:45:41,,city,"Hayward, CA",United States
205,-0.1937195,51.4516565,Jay Rowden Photos,38158945,2020-06-09 12:00:00,"London, UK",city,"Wandsworth, London",United Kingdom
21,-46.747299,-22.185198,EsleniPaulo,3815898435,2020-04-19 01:20:01,,poi,Lago Municipal De Esprito Santo do Pinhal,Brasil
31900,-82.475571,40.748333,John Davis,381589925,2020-02-15 02:18:28,,city,"Mansfield, OH",United States
18740,-81.86459550000002,40.270643,John Davis,381589925,2020-02-29 17:12:42,,city,"Coshocton, OH",United States
31900,-82.475571,40.748333,John Davis,381589925,2020-03-05 01:19:34,,city,"Mansfield, OH",United States
82,80.26151899999999,13.026856,DEVA YUVI ,3815901073,2020-04-26 14:04:10,TaMiL Nadu Chennai,poi,Mandaveli MRTS Station,India
205,-4.2417515,55.85830249999999,Bavaria Brauhaus,3815903345,2020-02-16 12:21:04,"Glasgow, Scotland",city,"Glasgow, Scotland",United Kingdom
200,32.8183815,39.8889765,Zeynep,38159046,2020-05-16 09:25:42,Ankara,city,"Ankara, Trkiye",Trkiye
205,1.0901355,51.2767555,Vissolela Nahary ,381590463,2020-02-20 01:25:39,United Kingdom,city,"Canterbury, England",Reino Unido
60,25.018623,60.159471,Ville Hulkko,381590496,2020-05-20 11:41:36,"Helsinki, Suomi",city,"Helsinki, Suomi",Suomi
205,-0.2108945,51.611884499999995,Jordan Goodenough,381590509,2020-05-31 10:00:41,"London, England",city,"Barnet, London",United Kingdom
45220,-84.26617399999999,30.4762155,diego ,381590582,2020-02-18 21:48:52,Madrid - Florida ,city,"Tallahassee, FL",United States
65,-1.5513325,48.843751,Quentin RIOU ,3815906176,2020-04-27 09:40:20,"Granville, France",city,"Yquelon, France",France
222,112.654754,-7.9986095000000015,ada2saja,381590759,2020-02-14 06:00:51,"Novorepnoye, Erangel",city,"Kedungkandang, Indonesia",Indonesia
21,-53.0,-11.0,davide oberto,38159080,2020-02-18 09:54:00,torino,city,"So Flix do Araguaia, Brasil",Brasile
71,13.375820000000001,52.50893000000001,davide oberto,38159080,2020-02-24 22:12:40,torino,city,"Berlino, Germania",Germania
85,7.68521179,45.04931254,davide oberto,38159080,2020-03-18 08:27:48,torino,city,"Torino, Piemonte",Italia
73,23.7818225,38.004167,Ayan,38159085,2020-02-28 10:57:06,"Lagonissi, Greece",city,"Neo Psychiko, Greece",Hellas
205,-0.9820305,51.452524,Chris,381591048,2020-03-17 01:01:08,"Reading, England",city,"Reading, England",United Kingdom
21,-49.131564000000004,-5.347678, ,38159124,2020-05-12 23:34:22,"Marab, Brasil",poi,FRIST ELETRONICA Assistencia Tcnica,Brasil
186,-3.7035075,40.4777945,Antonio Maya,381591312,2020-02-19 15:35:42,Madrid,city,"Madrid, Espaa",Espaa
205,0.09644782,52.22237705,Will Nash,381591331,2020-04-04 09:19:40,Lewes,city,"Cambridge, England",United Kingdom
42660,-121.950176,47.301575,Calvin Whipple,3815913974,2020-02-15 22:49:51,"Seattle, WA",poi,Green River Gorge Waterfall,United States
-9999,-59.328654500000006,45.5346385,eirika poirier,381591444,2020-03-10 21:49:22,"Cape Breton, Nova Scotia",city,"Cape Breton, Nova Scotia",Canada
189,12.972837,56.058964,anp78,381591497,2020-04-14 12:08:00,,poi,Billesholm,Sweden
38,-75.3155775,4.4486729999999985,,381591535,2020-04-02 22:58:56,El Coliseo Twitereano,city,"Ibagu, Colombia",Colombia
205,0.028732,51.508355,Cloud Expo Europe,38159167,2020-03-12 10:28:36,"ExCeL London, England",poi,ExCeL London,United Kingdom
42020,-120.67428999999998,35.6310385,Ryan Paine,381591931,2020-02-22 17:07:07,"Paso Robles, Ca ",city,"Paso Robles, CA",United States
189,17.9563585,59.378164500000004,Kausu Productions,381591943,2020-03-07 22:10:25,Sundbyberg,city,"Sundbyberg, Sverige",Sweden
38,-73.13269700000002,7.144792999999999,Valesca Alvarado Ros,381591995,2020-04-10 20:50:42,Colombia,city,"Bucaramanga, Colombia",Colombia
88,139.898913,35.844075, (MYB),3815922614,2020-02-14 03:47:34,,poi, ,
21,-54.548618999999995,-20.374482,Arnaldo Santiago Filho,381592508,2020-02-22 02:01:15,Campo Grande-MS Brasil,poi,Hospital So Julio,Brasil
46180,-88.3932405,34.257604,mads,38159261,2020-02-26 05:09:29,desoto county ,city,"Fulton, MS",United States
45300,-82.5873885,28.004172500000006,mads,38159261,2020-03-06 20:45:56,desoto county ,city,"Town 'n' Country, FL",United States
46180,-88.3932405,34.257604,mads,38159261,2020-03-12 15:40:56,desoto county ,city,"Fulton, MS",United States
21,-41.7803,-22.3804,Laureni Leopoldino A,3815928077,2020-05-11 18:31:06,"Maca, Brasil",city,"Maca, Brasil",Brasil
35620,-73.42589,40.869744,Ms. BRH,3815929162,2020-02-20 00:51:41,,poi,The Paramount,United States
119,-97.851157,22.20936,Adn Ortz,381592959,2020-03-09 18:27:28,,poi,Paso casablanca,Mxico
82,77.3508815,28.3312135,junaid AZAD,381592983,2020-05-31 17:18:35,delhi,city,"Faridabad, India",India
40380,-77.27775700000002,42.883534499999996,Canandaigua MS,3815930122,2020-04-23 22:11:46,,city,"Canandaigua, NY",United States
82,78.240225,10.222675,Mohamed Ashik,3815930840,2020-02-24 08:14:57,,poi,Natham,India
205,-0.320442,51.75244,Marion Gourd,3815931687,2020-03-14 08:54:17,"Saint Albans, East",city,"Saint Albans, East",United Kingdom
21,-47.87790298,-23.57586631,Gilberto Monte,38159318,2020-03-14 16:27:49,"-12.997889,-38.526017",city,"Alambari, Brasil",Brazil
35380,-90.01100799999999,29.982601000000003,Caleb,381593239,2020-03-18 20:57:58,"New Orleans, LA",city,"New Orleans, LA",United States
29180,-92.1123075,30.239502500000004,Caleb,381593239,2020-05-24 06:58:16,"New Orleans, LA",city,"Scott, LA",United States
47900,-77.0143985,38.898603,Ian Adams,381593268,2020-02-15 20:46:34,DC / Sacramento,city,"Washington, DC",United States
82,87.29340450000002,24.3119225,Chandan Singh,381593414,2020-05-18 10:39:48,"Jharkhand, India",city,"Dumka, India",India
21,-46.53616644,-22.9725444,Renan_ton,381593774,2020-03-01 21:42:15,sorocaba,city,"Bragana Paulista, Brasil",Brasil
24260,-98.0050215,40.866752500000004,Alison Kunze,381593920,2020-02-26 19:48:54,Nebraska - Huskers,city,"Aurora, NE",United States
205,-2.2411849999999998,53.714256000000006,Tom Dennison,38159404,2020-02-17 21:02:55,Blighty,city,"Rawtenstall, England",United Kingdom
222,116.106867,-8.581813,halki volunteer,381594049,2020-03-19 04:02:52,mataram lombok,city,"Mataram, Indonesia",Indonesia
21,-37.100742,-11.0036455,Titires,3815940857,2020-02-15 00:01:50,"Aracaju, Brasil",city,"Aracaju, Brasil",Brasil
193,98.949571,18.742235, ,3815941940,2020-05-06 07:43:41,,city,", ",
21,-43.1975,-22.908,Rachel Gouva,381594281,2020-03-01 17:59:23,,city,"Rio de Janeiro, Brasil",Brasil
21,-46.530655,-23.8040495,Eduardo Lima. ,381594294,2020-02-15 18:00:41,"So Paulo , Brazil",city,"So Bernardo do Campo, Brasil",Brasil
205,-0.1868325,51.1277265,Sophie,381594862,2020-02-15 17:46:03,,city,"Crawley, South East",United Kingdom
25900,-155.80638889,20.23472222,AnnekeSips,381594947,2020-02-15 07:48:04,Amsterdam,city,"Kapaau, HI",United States
152,4.3158,52.0778,AnnekeSips,381594947,2020-02-18 06:39:40,Amsterdam,city,"The Hague, The Netherlands",The Netherlands
82,80.19415,12.62778,AnnekeSips,381594947,2020-03-08 06:42:41,Amsterdam,city,"Chengalpattu, India",India
152,4.8733,52.3761,AnnekeSips,381594947,2020-03-24 20:26:08,Amsterdam,city,"Amsterdam, The Netherlands",The Netherlands
82,80.19415,12.62778,AnnekeSips,381594947,2020-03-26 12:14:51,Amsterdam,city,"Chengalpattu, India",India
152,4.8733,52.3761,AnnekeSips,381594947,2020-04-10 14:41:20,Amsterdam,city,"Amsterdam, The Netherlands",The Netherlands
128,5.566669999999999,50.6333,AnnekeSips,381594947,2020-04-23 07:21:44,Amsterdam,city,"Liege, Belgium",Belgium
152,4.85160228,52.37411031,AnnekeSips,381594947,2020-05-08 11:19:09,Amsterdam,city,"Amsterdam, The Netherlands",The Netherlands
82,80.19415,12.62778,AnnekeSips,381594947,2020-05-13 10:51:46,Amsterdam,city,"Chengalpattu, India",India
152,4.8982,52.3769,AnnekeSips,381594947,2020-06-10 19:45:50,Amsterdam,city,"Amsterdam, The Netherlands",The Netherlands
35620,-73.8494415,40.8503475,John Lee,3815949742,2020-02-24 17:53:59,,city,"Bronx, NY",United States
31080,-118.4119065,34.0207895,MIGRA ,38159512,2020-02-14 01:10:48,"Los Angeles, CA",city,"Los Angeles, CA",Estados Unidos
47260,-76.50780850000002,37.090301000000004,Jerm ,381595318,2020-04-08 13:58:05,757,city,"Newport News, VA",United States
205,-0.738308,51.51146,Mark Meynell ,38159533,2020-02-16 08:26:10,"Maidenhead, South East",city,"Maidenhead, South East",United Kingdom
119,-100.772211,20.5226915,Ebichu,3815953332,2020-03-10 05:03:26,,city,"Celaya, Guanajuato",Mexico
162,20.987147,52.212588000000004,summer,3815955495,2020-03-08 22:56:30,,poi,Proxima,Polska
26900,-86.2996665,39.9574345,David Dimmett,381595820,2020-02-15 14:54:27,#Indiana,city,"Zionsville, IN",United States
49,-80.091193,-2.512995,Andrea Sangacha,381595821,2020-02-24 15:01:47,"Guayaquil, Ecuador",city,"Guayaquil, Ecuador",Ecuador
24860,-82.42124100000002,34.9016485,Sarah M Chambers,38159587,2020-05-04 19:42:10,South Carolina,city,"Sans Souci, SC",United States
82,77.03322865,11.03435023,Deepakguptha,381595990,2020-02-21 06:46:40,"Bengaluru, India",city,"Coimbatore, India",India
222,115.24220747,-8.66011171,Deepakguptha,381595990,2020-04-13 15:27:47,"Bengaluru, India",city,"East Denpasar, Indonesia",Indonesia
82,77.597645,12.971117,Deepakguptha,381595990,2020-04-14 17:53:22,"Bengaluru, India",city,"Bengaluru, India",India
119,-100.44059449999999,20.7152745,Politcnica de Santa Rosa,381596261,2020-02-26 13:33:47,"Santa Rosa Juregui, Quertaro",city,"Quertaro, Quertaro Arteaga",Mxico
21,-43.441578,-22.911421500000003,Mariah,3815963715,2020-02-14 00:48:56,"Rio de Janeiro, Brasil",city,"Rio de Janeiro, Brasil",Brasil
119,-99.655676,19.2843215,Elizbeth Trinidad Lpez,3815963780,2020-03-18 21:43:40,"Toluca, Mxico",city,"Toluca, Mxico",Mxico
82,76.945776,8.503061,Enraged Ecofeminist,381596522,2020-02-15 05:05:43,,poi,Kerala University,India
48,-69.976387,18.449344,Hugo Victoria,381596543,2020-02-18 04:30:44,"Under a rock, The Moon",poi,Junta Central Electoral,Dominican Republic
186,-4.1182605,37.9826265,NL Tanis,381596909,2020-04-27 17:59:54,Mlaga-Jan,city,"Arjonilla, Espaa",Espaa
186,-3.7172,40.407577,BSR VALLADOLID - FGN,381596924,2020-02-22 08:47:28,Valladolid - CyL - Espaa,poi,Centro Deportivo Municipal Marqus de Samaranch,Espaa
173,30.4807,59.9533,Afhbn,38159710,2020-02-16 19:11:53,Saint-Petersburg,city,"-, ",
37860,-87.20506999999999,30.43595,JSapp MadStak,381597280,2020-03-01 04:55:14,"Pensacola, FL",city,"Pensacola, FL",United States
18880,-86.60375561,30.40310505,JSapp MadStak,381597280,2020-03-03 00:00:44,"Pensacola, FL",city,"Fort Walton Beach, FL",United States
37860,-87.2093,30.436999999999998,JSapp MadStak,381597280,2020-03-08 17:26:27,"Pensacola, FL",city,"Pensacola, FL",United States
151,7.424094,9.073663999999999,Akabs,381597358,2020-05-26 08:30:47,"Abuja, Nigeria",city,"Abuja, Nigeria",Nigeria
35620,-74.16780750000002,40.915046999999994,Andy Peguero,381597548,2020-02-21 03:48:37,"Paterson, NJ",city,"Paterson, NJ",Estados Unidos
186,-3.609989,37.181137,Marina Manganaro,38159770,2020-03-10 08:34:27,"Rijeka, Croatia",poi,Edificio Mecenas Servicios UGR,Spain
186,-3.81519312,37.74123381,,381597734,2020-05-19 08:56:26,Torredelcampo-Jaen,city,"Jan, Espaa",Espaa
88,135.497816,34.671929,,381598092,2020-03-02 10:52:51,,poi, Club DROP,
49,-77.95912849999998,-0.715727,Agricultura Napo,3815987981,2020-02-21 21:22:44,"Tena, Ecuador",city,"Archidona, Ecuador",Ecuador
193,100.74459499999999,13.736866000000001,MNO.9 shop,3815988193,2020-03-21 13:09:22,"., ",poi,Airlink,Thailand
12060,-83.251696,33.412233,Visit Lake Oconee,381599105,2020-03-17 16:08:06,"Lake Oconee, Georgia",poi,Cuscowilla at Lake Oconee,United States
38,-74.9626435,4.686972000000001,LUZ RESTREPO,381599320,2020-02-14 01:29:54,,city,"Venadillo, Colombia",Colombia
42660,-122.50677900000001,47.157103000000006,jayden ,3815994379,2020-04-29 05:06:34,,city,"Lakewood, WA",United States
31080,-118.4119065,34.0207895,Al,3815994912,2020-02-23 17:38:41,"Los Angeles, CA",city,"Los Angeles, CA",United States
38,-74.89925699999999,10.9981905,Jose Vasquez G.,381599518,2020-02-14 18:43:08,BARRANQUILLA-COLOMBIA,city,"Puerto Colombia, Colombia",Colombia
205,-3.6820391000000003,51.5312776,Michelle,3815996597,2020-02-26 16:57:23,"Wales, United Kingdom",city,"Pyle, Wales",United Kingdom
82,72.89906212,19.05309515,Sport Specific,381599910,2020-03-15 16:50:26,Manchester,city,"Mumbai, India",India
205,-2.25220799,51.85986944,Sport Specific,381599910,2020-03-16 20:59:19,Manchester,city,"Gloucester, England",United Kingdom
31080,-118.4119065,34.0207895,CUSTOMTAYLORRED,3815999247,2020-03-29 20:07:47,"Washington, DC",city,"Los Angeles, CA",United States
21340,-106.4174305,31.793368,Jazmine Liss,381599930,2020-05-19 20:57:53,"El Paso, TX",city,"El Paso, TX",United States
200,29.0052225,41.0213205,Engin Akinci,38160015,2020-02-15 18:36:51,Istanbul,city,"stanbul, Trkiye",Trkiye
82,86.64394250000002,25.414995,Misbah uddin,3816001993,2020-04-06 18:50:38,,city,"Gogri Jamalpur, India",India
34860,-94.6493115,31.6139415,,381600230,2020-04-16 12:15:18,"Houston, Tx",city,"Nacogdoches, TX",United States
41700,-98.5406515,29.417501,,381600230,2020-06-07 05:15:11,"Houston, Tx",city,"San Antonio, TX",United States
19100,-97.3264887,32.7950251,fitzboddy,381600482,2020-02-15 05:42:17,Estados Unidos,city,"Fort Worth, TX",Estados Unidos
119,-102.4248865,22.7666095,Angie Mtz,381600981,2020-02-14 15:57:16,Mexico,city,"Guadalupe, Zacatecas",Mxico
29820,-114.841591,35.97678600000001,Abraham Gomez,381600997,2020-05-18 03:42:09,Las Vegas,city,"Boulder City, NV",United States
41100,-112.989049,37.199275,Abraham Gomez,381600997,2020-05-26 20:11:17,Las Vegas,poi,Zion National Park,United States
193,100.369407,13.7821895,JC,38160103,2020-02-14 15:03:28,"T: 13.759119,100.366757",city,"Sala Thammasop, Thailand",Thailand
8,-58.56449,-34.4587225,,381601209,2020-02-14 21:05:34,,city,"San Fernando, Argentina",Argentina
160,-80.9789,-3.9827800000000004,Zorel Garcia,381601328,2020-02-22 16:35:38,"Lima, Peru",city,"Canoas De Punta Sal, Peru",Peru
49,-79.3233295,-4.0914955000000015,Carlos Ordez Tapia,381601379,2020-06-02 03:08:58,"Loja, Ecuador",city,"Loja, Ecuador",Ecuador
193,98.968911,18.79172,1 9 9 6.,381601447,2020-02-15 02:00:23,,city,", ",
26420,-95.4464865,29.838495,C,381601474,2020-02-14 00:25:44,,city,"Houston, TX",United States
21,-46.5955455,-23.682803,Thain Fernandes,381601684,2020-03-18 12:00:09,So Paulo,city,"So Paulo, Brasil",Brasil
222,115.204629,-8.650534,suhardhi,38160169,2020-02-20 11:07:50,Bali,city,"Denpasar Barat, Indonesia",Indonesia
82,77.498726,28.545556,gaurav mehta,381601905,2020-04-22 19:46:21,,city,"Noida, India",India
175,49.9945455,26.353591499999997,   ,381602221,2020-03-20 15:52:38,-,city,",   ",  
205,-2.1540125000000003,53.0193965,Middleport Matters Community Trust,3816023535,2020-03-27 17:07:47,"Stoke-on-Trent, England",city,"Stoke-on-Trent, England",United Kingdom
120,101.31128299999999,3.10812,Puddin,381602671,2020-03-11 13:34:12,Ampang ,poi,Pelabuhan Sampan,
205,0.135916,52.200974,Alex Granata,38160272,2020-02-18 09:46:21,"Cambridge, England",city,"Cambridge, England",United Kingdom
151,3.9052964999999995,7.4290745,Tune. FT,3816027693,2020-02-15 17:25:03,Nigeria,city,"Ibadan, Nigeria",Nigeria
96,47.96128686,29.2519012,F,381602805,2020-02-26 07:07:01,,city,"Airport Area, Kuwait",Kuwait
193,99.97724692,13.07107632,Pimonwan  Rodpeawpan,3816033552,2020-02-28 10:53:17,,city,", ",
12580,-76.81452949999998,39.1500035,Stephen Schatz,381603450,2020-02-20 23:17:56,"Maryland, USA",city,"Savage, MD",United States
37100,-118.73899999999999,34.2711,Shaun Jones,38160397,2020-02-15 20:17:40,"Simi Valley, CA",city,"Simi Valley, CA",United States
186,-3.7035075,40.4777945,fdelgado,381604035,2020-03-24 13:58:39,Espaa,city,"Madrid, Espaa",Espaa
222,111.44328081,-7.41131579,Aan Eka PJ,381604188,2020-03-21 13:22:23,Indonesia,city,"Ngawi, Indonesia",Indonesia
153,11.020047,59.968419,Peter Lithell-Eggum,38160429,2020-02-23 11:26:15,Lillestrom-NORWAY,poi,Nitelva Friluftsomrde,Norway
21,-51.8153591,-30.8396294,Rogrio Lacerda,3816047752,2020-02-27 01:22:45,"Camaqu, Rio Grande do Sul",city,"Camaqu, Brasil",Brasil
48,-70.75202349999999,19.4558675,Carlos Mercader,381605284,2020-04-26 23:57:07,,city,"Santiago, Dominican Republic",Dominican Republic
41700,-98.5406515,29.417501,JessJon,381605296,2020-02-20 21:58:11,San Antonio/Toledo,city,"San Antonio, TX",United States
20100,-75.59608325,39.29448957,Rebekah Salinas,381605389,2020-05-18 14:49:19,,city,"Smyrna, DE",United States
88,135.75,35.0,Cerise Sweet,38160549,2020-03-31 06:59:45,Singapore ,city,"Kyoto City Nakagyo Ward, Kyoto",Japan
205,-3.1866305,57.487717,LG,3816055593,2020-02-15 08:55:20,"Craigellachie, Scotland",city,"Craigellachie, Scotland",United Kingdom
33100,-80.267808,26.320544,Ty Russell,3816056302,2020-02-14 22:11:08,"Miami, FL",poi,Pine Trails Park,United States
88,139.68824949999998,36.34783450000001,Asami_uura,3816057738,2020-02-27 16:17:26,,city, ,
205,0.461608,51.720467,ian wright,3816058468,2020-04-04 20:21:48,United Kingdom,poi,Tesco,United Kingdom
38340,-73.2587125,42.450811,Natalie Stracuzzi,381606412,2020-03-18 02:27:59,,city,"Pittsfield, MA",United States
119,-99.8109605,20.203184,TERE BARCENA,3816064758,2020-02-18 22:47:39,,city,"Polotitln, Mxico",Mxico
32380,-93.187084,43.13554333,Jake Hall,381606489,2020-02-19 23:08:59,"Mason City, IA",city,"Mason City, IA",United States
65,2.347003,48.8588335,Fabrice Washington,381606568,2020-02-14 07:31:09,"Paris, Champs-Elyses, France",city,"Paris, France",France
113,-8.0124945,31.64645,Fabrice Washington,381606568,2020-02-16 19:41:05,"Paris, Champs-Elyses, France",city,"Gueliz, Royaume du Maroc",Royaume du Maroc
65,2.347003,48.8588335,Fabrice Washington,381606568,2020-02-23 18:50:56,"Paris, Champs-Elyses, France",city,"Paris, France",France
49,-78.5566815,-0.16657049999999998,Rafael Rosales K,381606684,2020-02-16 22:25:58,,city,"Quito, Ecuador",Ecuador
225,55.375877,25.310717999999998, ,3816067636,2020-05-29 01:26:20,"Dubai, United Arab Emirates",poi,Abu Dhabi Tower,United Arab Emirates
24,-75.7,45.4167,Colonnade Merivale,3816070097,2020-04-22 23:25:23,"1463 Merivale Rd, Ottawa, ON",city,"Ottawa, Ontario",Canada
186,-3.7035075,40.4777945,Marianella,381607011,2020-02-15 09:49:02,Lima - Madrid,city,"Madrid, Espaa",Espaa
82,75.6319395,31.410515999999998, ,3816070353,2020-05-21 14:36:24,"Jalandhar Punjab,India",city,"Jalandhar, India",India
21,-49.2884605,-25.4952495,Nilson Pohl Junior,381607571,2020-04-30 12:22:37,,city,"Curitiba, Brazil",Brazil
14460,-71.35608549999999,42.6018055,Dr. Mark Maybury,3816078323,2020-03-06 19:53:56,"Bedford, MA",city,"Chelmsford, MA",United States
205,-0.1368746,51.5140237,denise morais,38160791,2020-02-14 21:35:06,so paulo,city,"London, England",United Kingdom
21,-46.6333,-23.55,denise morais,38160791,2020-02-19 20:01:23,so paulo,city,"Sao Paulo, Brazil",Brazil
60,20.834486,69.023321,James Crawford,38160818,2020-03-10 16:41:16,"Edinburgh, Scotland",poi,Kilpisjrvi,Finland
153,18.9258115,69.7104015,James Crawford,38160818,2020-03-10 21:52:11,"Edinburgh, Scotland",city,"Troms, Norway",Norway
205,-3.2030084999999997,55.943195499999995,James Crawford,38160818,2020-03-19 10:22:56,"Edinburgh, Scotland",city,"Edinburgh, Scotland",United Kingdom
38,-73.83678950000002,6.9977800000000006,Josse Sarabia C,381608548,2020-02-19 17:49:37,"Bucaramanga, Colombia",city,"Barrancabermeja, Colombia",Colombia
205,-2.0093330000000003,52.514873,raspberyl struggle tweets,381609553,2020-05-02 23:17:34,The Netherworld,city,"West Bromwich, England",United Kingdom
27140,-90.111231,32.280999,Sean Gustafson,3816096375,2020-03-13 19:30:14,America the Beautiful. ,city,"Pearl, MS",United States
178,28.807255,-25.823914,nomfundo mpanza,38160966,2020-03-28 09:29:05,"Sandton,South Africa",city,"Bronkhorstspruit, South Africa",South Africa
193,98.949571,18.742235,TEDxChiangMai,381609690,2020-03-09 16:55:38,"Chiang Mai, Thailand",city,"Mae Hia, Thailand",Thailand
24,-81.2487865,42.9488405,Mount Brydges Bulldogs,381609831,2020-02-15 02:37:20,"Mount Brydges, Ontario, Canada",city,"London, Ontario",Canada
200,36.17429,36.222733000000005,Erturul Glmez,381609926,2020-02-14 15:05:47,Antakya-Hatay,city,"Hatay, Trkiye",Trkiye
24020,-73.6993755,43.303228999999995,Lisa B,381609934,2020-04-13 00:17:42,"Queensbury, NY",city,"West Glens Falls, NY",United States
178,28.202869500000002,-26.3551685,El Nio,381609963,2020-02-19 04:20:05,Vosloorus,city,"Vosloorus, South Africa",South Africa
171,120.81576899999999,14.8245255,Sandra Tamayo,38161009,2020-04-17 11:06:17,,city,"Malolos City, Central Luzon",Republic of the Philippines
29820,-115.13516499999999,36.060964500000004,Ualdude,3816102379,2020-05-31 02:30:42,"Las Vegas, NV",city,"Paradise, NV",United States
193,99.488337,20.080499,weka,381610244,2020-03-05 11:11:08, ,poi, Roi Jai Ruk Project,Thailand
31080,-117.912,33.665,DessieMitcheson,381610536,2020-02-21 23:48:02,OC|LA,city,"Costa Mesa, CA",United States
151,3.28988,6.632867999999999,Temitope Abidemi,381610552,2020-02-15 23:26:17,"Lagos, Nigeria",poi,"New AFRIKA Shrine, Agidingbi, Ikeja, Lagos",Nigeria
85,10.269669,43.856266999999995,Federico Romani,381610575,2020-03-03 11:54:13,Viareggio,city,"Viareggio, Toscana",Italia
37980,-75.117998,40.0048655,Benevolent One,381610577,2020-02-14 03:17:05,Philadelphia,city,"Philadelphia, PA",United States
34820,-78.3843455,33.9565125,Ryan Coble,38161069,2020-02-21 11:52:12,,city,"Shallotte, NC",United States
21,-43.441578,-22.911421500000003,Raquel S.,3816107992,2020-03-16 06:00:18,Na sua ,city,"Rio de Janeiro, Brasil",Brasil
186,1.843376,42.0981955,Josep Pla Casadess ,381610957,2020-03-27 18:52:12,Berga ,city,"Berga, Espanya",Espanya
96,48.099368,29.164565999999997,,381610966,2020-02-20 16:13:33,,poi,American University of Middle East (AUM),Kuwait
205,-0.0350195,51.5148305,MJ Palmer,38161105,2020-02-19 19:07:41,London ,city,"Poplar, London",United Kingdom
38,-77.29011038,1.22990173,UCooperativaColPasto,3816110783,2020-02-14 20:40:16,Universidad Cooperativa de Col,city,"Pasto, Colombia",Colombia
65,2.347003,48.8588335,Myriam Bouali,381611101,2020-03-13 16:16:50,Paris,city,"Paris, France",France
65,2.347003,48.8588335,Tanvir ,3816113592,2020-05-15 16:14:13,"Dhaka, Bangladesh",city,"Paris, France",France
186,2.1412275000000003,41.392657,Footballys,3816113592,2020-05-19 22:48:31,United States,city,"Barcelona, Spain",Spain
205,-1.6453615000000001,54.992055500000006,Footballys,3816113592,2020-05-27 08:00:23,United States,city,"Newcastle Upon Tyne, England",United Kingdom
65,2.347003,48.8588335,Footballys,3816113592,2020-05-30 07:43:24,United States,city,"Paris, France",France
21,-46.5955455,-23.682803,Footballys,3816113592,2020-06-04 21:32:14,United States,city,"Sao Paulo, Brazil",Brazil
14,91.880306,24.8950825,Footballys,3816113592,2020-06-07 09:22:46,United States,city,"Sylhet, Bangladesh",Bangladesh
175,39.8016865,21.389833000000007,Fahad Abdualrhman,381611521,2020-02-21 22:59:15,Makkah - Jeddah ,city,"Makkah Al Mukarrama, Kingdom of Saudi Arabia",Kingdom of Saudi Arabia
33100,-80.1226195,26.721896,Christina Lambert,381611559,2020-03-02 14:10:19,,city,"West Palm Beach, FL",United States
9,146.7830103,-38.3646674,Danielle Phyland,38161203,2020-02-15 02:15:42,"Melbourne, Australia",neighborhood,"Willung South, Victoria",Australia
158,174.7657,-36.8473,Danielle Phyland,38161203,2020-02-20 09:02:02,"Melbourne, Australia",city,"Auckland, New Zealand",New Zealand
9,144.9661,-37.8156,Danielle Phyland,38161203,2020-02-28 02:15:30,"Melbourne, Australia",city,"Melbourne, Victoria",Australia
153,6.21667,58.7167,Danielle Phyland,38161203,2020-03-18 07:50:26,"Melbourne, Australia",city,"Bjerkreim, Norge",Norway
9,144.96841908,-37.74131443,Danielle Phyland,38161203,2020-03-21 01:43:18,"Melbourne, Australia",city,"Melbourne, Victoria",Australia
16980,-87.88695190000001,41.770106,Milano Day Spa,3816123497,2020-03-04 05:49:18,"Indian Head Park, IL",city,"Countryside, IL",United States
65,-2.170369,47.9673025,ludovic,381612390,2020-02-17 14:21:25,,city,"Beignon, France",France
50,31.809281,31.503403000000002, ,3816128073,2020-05-14 17:09:25,,poi,Ras El Barr Military Club,Egypt
205,-2.9451294999999997,51.346796000000005,Chels ,3816128477,2020-04-18 01:04:43,,city,"Weston-super-Mare, England",United Kingdom
65,2.347003,48.8588335,SaraGarzon  ,381612931,2020-03-09 12:30:57,Panam ,city,"Paris, France",France
42660,-122.19169299999999,47.637147,"Nakanishi Dental Laboratory, Inc.",381613034,2020-05-22 17:37:59,"Bellevue, WA",poi,Nakanishi Dental Lab,United States
21,-43.368648,-22.780853,Rennato Graciano,3816130462,2020-04-03 18:34:00,"So Joo de Meriti, Brasil",poi,Depsito P Do Morro,Brasil
200,44.0386765,39.92234000000001,Yaar AYDIN,381613088,2020-05-23 22:14:21,Trabzon-Samsun,city,"Idr, Trkiye",Trkiye
186,-4.518098,36.6259315,Catina62,381613173,2020-03-31 09:21:12,,city,"Torremolinos, Espaa",Espaa
205,-4.142930000000001,50.402215000000005,Y56StPetersRCPlymouth,3816132797,2020-03-06 16:48:39,"Plymouth, England",city,"Plymouth, England",United Kingdom
205,-2.4349525,53.5841845,Jo Watson CMgr MCMI,381613292,2020-04-15 17:47:44,North West England,city,"Bolton, England",United Kingdom
28020,-85.56568850000001,42.29052400000001,Terri Goss Kinzy,381613347,2020-03-07 00:32:53,,city,"Kalamazoo, MI",United States
35620,-73.99034,40.74264,tommy x,38161345,2020-06-02 16:15:26,NY  NJ ,city,"Manhattan, NY",United States
21,-43.5243665,-22.696528,Reylane Gusmo,3816137601,2020-02-14 16:16:42,,city,"Nova Iguau, Brasil",Brasil
21,-38.48091443,-3.72286546,Thalita with th,3816137853,2020-03-25 17:33:04,"Manaus, Brasil",city,"Fortaleza, Brasil",Brasil
21,-53.824203000000004,-29.753085,Arthur Capi,381613798,2020-03-13 05:19:45,,city,"Santa Maria, Brasil",Brasil
29820,-115.18412162,36.04161248,Michelle Ann Asato,381613921,2020-02-16 03:10:26,Vegas ,city,"Enterprise, NV",United States
31080,-117.91899109,33.81056213,Michelle Ann Asato,381613921,2020-03-10 19:25:49,Vegas ,city,"Anaheim, CA",United States
33100,-80.14417549999997,26.6337105,Gila Isabel Farias,381614099,2020-02-17 21:29:29,"West Palm Beach,	Florida.",city,"Greenacres, FL",United States
205,-3.174886,55.929798999999996,Neil MacCuish,381614360,2020-03-01 11:12:59,"Inverness, Scotland",poi,Tynecastle Stadium,United Kingdom
21,-46.6333,-23.55,Rita ,38161443,2020-02-21 11:41:36,"Sorocaba, Brasil",city,"So Paulo, Brasil",Brasil
205,0.565823,50.8717925,Zeynep,3816146003,2020-02-15 18:54:48,,city,"Hastings, England",United Kingdom
37980,-75.392615,39.8730715,Gretchen Goller,3816146057,2020-05-10 18:05:35,,city,"Brookhaven, PA",United States
82,80.26000996,13.26989332,Shyam,38161478,2020-04-16 15:36:06,"Chennai, India",city,"Minjur, India",India
21,-52.3659485,-24.126476500000006,Tulio,381615026,2020-02-24 11:30:00,"Joinville, Brasil",city,"Campo Mouro, Brasil",Brasil
38,-74.075946,4.641805000000001,Luis Baquero,381615228,2020-04-29 16:23:52,Bogot D.C,poi,Villanueva Cuna de acordeones,Colombia
41860,-122.43597849999999,37.7706565,Amber Ganda,381615249,2020-02-14 21:53:57,flowers in your hair,city,"San Francisco, CA",United States
28140,-94.59148266,39.052981700000004,JacksonRedmond WRIII,381615461,2020-02-24 16:20:50,,city,"Kansas City, MO",United States
10580,-73.8178465,42.856244,Jesse Fulger,381615646,2020-06-06 18:05:14,"New York, USA",city,"Clifton Park, NY",United States
186,-2.0262425,40.173983500000006,Andrs Moreno Garca,381615754,2020-04-08 13:25:49,"Cuenca, Espaa",city,"Cuenca, Espaa",Espaa
119,-103.4847745,20.790657000000003,Susy Gmez,3816158534,2020-05-15 15:39:25,,city,"Zapopan, Jalisco",Mxico
35620,-74.02481596,40.74470147,Stevens Field Hockey,381616141,2020-02-19 18:24:25,"Hoboken, NJ",city,"Hoboken, NJ",United States
8,-58.42552,-34.56064,Stevens Field Hockey,381616141,2020-05-08 15:44:10,"Hoboken, NJ",city,"Ciudad Autnoma de Buenos Aires, Argentina",Argentina
35620,-74.0323,40.7429,Stevens Field Hockey,381616141,2020-05-20 16:57:59,"Hoboken, NJ",city,"Hoboken, NJ",United States
205,-1.338183,54.7597995,JP,381616281,2020-04-01 13:16:48,Winterfell,city,"Peterlee, England",United Kingdom
40140,-116.97399999999999,33.9241,"Jose G Castillo, MBA",381616339,2020-02-29 22:19:24,"Los Angeles, CA",city,"Beaumont, CA",United States
31080,-118.4119065,34.0207895,"Jose G Castillo, MBA",381616339,2020-03-19 13:58:46,"Los Angeles, CA",city,"Los Angeles, CA",United States
119,-98.362531,25.836567499999997,"Jose G Castillo, MBA",381616339,2020-06-09 19:00:36,"Los Angeles, CA",city,"Reynosa, Tamaulipas",Mexico
37980,-75.117998,40.0048655,Xavier,381616469,2020-04-30 11:12:03,"Salinas, Puerto Rico",city,"Philadelphia, PA",United States
200,29.0052225,41.0213205,zeynep zengin,381616506,2020-03-03 08:15:41,"stanbul, Trkiye",city,"stanbul, Trkiye",Trkiye
205,-1.5208855,51.8976165,Chadlington Brewery,3816165315,2020-03-21 11:44:08,"Chadlington, England",city,"Chadlington, England",United Kingdom
205,-3.1798,51.4970015,James Dee,381616629,2020-02-27 19:54:48,Cardiff,city,"Cardiff, Wales",United Kingdom
21,-43.446886000000006,-22.8025775,a.,3816167187,2020-04-03 01:57:34,,city,"Mesquita, Brasil",Brasil
47380,-97.1691565,31.547449,B Iso,381616927,2020-02-15 08:50:04,"Decatur, IL & Waco, TX",city,"Waco, TX",United States
82,72.14612,21.77167,Jy h,381617113,2020-02-21 03:48:45,"Bhavnagar, India",city,"Bhavnagar, India",India
50,31.225081,30.057111,Say my name,3816172407,2020-03-10 12:48:15,NO WHERE .,poi,Cairo Marriott Hotel & Omar Khayyam Casino,Egypt
19100,-96.7617535,32.819858499999995,Beaux Wellborn,381617528,2020-02-15 22:47:14,"Dallas, Texas",city,"Dallas, TX",United States
38,-75.434214,9.315605499999998,La inconsciente,3816175455,2020-02-14 09:31:20,"Sincelejo, Colombia",city,"Sincelejo, Colombia",Colombia
200,28.972711999999998,41.070627,Mustafa ARCA,3816179361,2020-03-07 16:10:20,"Grsel, stanbul",neighborhood,"Grsel, stanbul",Trkiye
71,6.592092999999999,51.3453085,Nat  ,3816180273,2020-02-22 08:24:19,"Mnchen, Bayern",city,"Krefeld, Deutschland",Deutschland
200,28.557143,41.0119835,Uan Adam,381618512,2020-02-15 22:21:27,Trkiye,city,"Bykekmece, Trkiye",Trkiye
85,11.474082000000001,43.1492875,Yo Rambo,38161857,2020-02-15 21:16:00,,city,"Buonconvento, Toscana",Italia
120,101.777215,2.884194,,381618717,2020-04-14 23:04:50,,poi,Home Sweet Home,Malaysia
82,85.61388000000001,20.174210000000002,Krishna Katual,3816188713,2020-05-15 06:30:12,"Bhubaneswar,Odisha",city,"Khordha, India",India
8,-58.79613199999999,-27.487033,Fd,381619330,2020-03-16 06:11:40,,city,"Corrientes, Argentina",Argentina
49660,-80.57898750000003,41.158622,Matt Barton,381619397,2020-02-17 01:19:57,"Hubbard, OH",city,"Hubbard, OH",United States
164,-8.117600999999999,37.082778000000005,michael oxley,38161969,2020-03-05 09:21:51,London-Warrington born,city,"Loul, Portugal",Portugal
205,-2.636414,53.401222,michael oxley,38161969,2020-04-15 16:24:22,London-Warrington born,city,"Warrington, England",United Kingdom
175,46.61109092,24.79094802,,381619702,2020-02-17 12:48:21,,city,"Riyadh, Kingdom of Saudi Arabia",Kingdom of Saudi Arabia
120,104.154709,1.4124025,Muhammad Ismail,381619863,2020-02-18 16:04:21,"Georgetown, Pulau Pinang",city,"Pengerang, Johor",Malaysia
88,141.39519199999998,43.033239,Kira OC,381620184,2020-04-29 06:17:28, ,poi, ,Japan
205,1.3792345,51.2160255,Shaun McCaughan,381620235,2020-02-24 19:37:29,"Deal, Kent",city,"Deal, England",United Kingdom
186,-0.377,39.4648,juanjo vera,3816203003,2020-03-11 21:26:29,"Valencia, Espaa",city,"Valencia, Espaa",Espaa
41940,-122.00908770000001,37.334850200000005,juanjo vera,3816203003,2020-04-01 10:07:45,"Valencia, Espaa",city,"Cupertino, CA",Estados Unidos
186,-0.3803,39.48093,juanjo vera,3816203003,2020-04-11 06:04:43,"Valencia, Espaa",city,"Valencia, Espaa",Espaa
82,79.25617,29.466393,Gaurav Badhani,3816207013,2020-05-11 03:13:11,"Naini Tal, India",poi,Sitabani Wildlife Sanctuary,India
205,-1.60285251,55.15919985,CalmerTherapy,3816218603,2020-06-07 19:19:57,"North East, England",city,"Guide Post, England",United Kingdom
152,5.52159798,53.05831603,Woetie,381621972,2020-02-22 22:53:55,Ik ben met lil dam dam,city,"Bolsward, Nederland",The Netherlands
205,-1.8906405,52.493966500000006,St John's Perry Barr,381622299,2020-02-21 16:57:21,"Church Rd, B'ham B42 2LB",city,"Birmingham, England",United Kingdom
82,78.08044849999997,9.93425,sethuram,3816223574,2020-03-25 16:06:45,,neighborhood,"Virattipattu, Madurai South",India
71,7.1,50.7333,Sabine S.,38162237,2020-02-28 18:59:48,lake of constance Germany,city,"Bonn, Deutschland",Deutschland
186,-4.779514,41.6693305,ROBER GOZALO (DJ),381622713,2020-02-16 01:16:18,Valladolid (Spain),city,"Valladolid, Espaa",Espaa
82,72.61956951,23.07167124,Shaju Joseph,38162286,2020-02-24 05:28:28,India and Middle East ,city,"Ahmadabad City, India",India
205,-1.379111,54.977005000000005,CodyPlatts,381622972,2020-06-06 21:23:27,,poi,Marsden Rock,United Kingdom
21,-40.37516700000001,-20.427329500000003,Mariana Barbosa,381623041,2020-02-14 11:32:31,,city,"Vila Velha, Brasil",Brasil
222,119.4223375,-5.1886470000000005,Nadya S Saputri,38162328,2020-02-14 15:48:56,"Makassar, Indonesia",city,"Tamalate, Indonesia",Indonesia
36420,-97.4451735,35.222301,Bre ,381623285,2020-02-14 16:45:37,"Norman, OK",city,"Norman, OK",United States
71,13.4246065,52.506701,Janina Bauke,38162371,2020-04-02 15:02:51,"Friedrichshain, Berlin",city,"Berlin, Germany",Germany
151,7.424094,9.073663999999999,Yakz_iRama|FixCorse,381623823,2020-04-02 10:31:51,"Lagos, Nigeria",city,"Abuja, Nigeria",Nigeria
12060,-84.612392,34.0110765,John Carroll,381623928,2020-02-19 19:18:55,,city,"Kennesaw, GA",United States
205,-0.092633,51.358931,pkay,381624280,2020-03-29 10:34:46,"London, England",city,"Croydon, London",United Kingdom
21,-52.333895500000004,-31.561389000000002,Felipe Maidana,3816243327,2020-04-03 01:19:26,"Pelotas, Brasil",city,"Pelotas, Brasil",Brasil
222,107.6158815,-6.8817675000000005,Mhammed Jgod Marcellino,38162437,2020-02-28 16:23:22,,city,"Coblong, Indonesia",Indonesia
41860,-122.4141412,37.7081393,Mhammed Jgod Marcellino,38162437,2020-04-02 05:54:44,,city,"Daly City, CA",United States
222,106.6016645,-6.292148,Mhammed Jgod Marcellino,38162437,2020-05-23 03:17:37,,city,"Legok, Indonesia",Indonesia
14460,-71.0887125,42.3136695,Andreas J. Wagner,381624694,2020-03-05 22:53:09,"Walldorf, Deutschland",city,"Boston, MA",United States
57,13.0858985,47.68225200000001,Andreas J. Wagner,381624694,2020-03-21 11:48:44,"Walldorf, Deutschland",city,"Hallein, sterreich",Austria
71,9.761433,52.3797985,airtours,38162482,2020-03-17 18:32:16,Hanover,city,"Hannover, Deutschland",Deutschland
24,-122.6719165,49.274573499999995,Doug P.,3816249200,2020-06-01 17:06:27,"Pitt Meadows, British Columbia",city,"Pitt Meadows, British Columbia",Canada
222,106.81818600000001,-6.208832,Who am I?,381625070,2020-03-07 12:31:11,"Jakarta Capital Region, Indone",poi,Starbucks,Indonesia
43760,-120.23466,38.0328605, ,3816252312,2020-04-13 05:55:32,"California, USA",city,"Twain Harte, CA",United States
41500,-121.927625,36.522529999999996, ,3816252312,2020-05-26 06:52:54,"California, USA",poi,Monastery Beach,United States
65,2.39412513,48.8925059,Ophelie ,38162528,2020-02-22 09:28:45,tinydotsonanendlesstimeline ,city,"Paris, France",France
19100,-96.7617535,32.819858499999995,Marielle LeMasters,381625335,2020-03-18 00:53:30,"Dallas, TX",city,"Dallas, TX",United States
65,2.347003,48.8588335,Yann WEHRLING,38162566,2020-02-14 08:01:09,,city,"Paris, France",France
82,72.67227600000002,23.215227,Yann WEHRLING,38162566,2020-02-16 07:49:59,,city,", ",Inde
65,2.347003,48.8588335,Yann WEHRLING,38162566,2020-02-21 20:52:49,,city,"Paris, France",France
85,12.5451455,41.8984165,Yann WEHRLING,38162566,2020-02-24 07:59:44,,city,"Rome, Latium",Italie
65,2.59742,49.017549,Yann WEHRLING,38162566,2020-02-28 22:22:14,,city,"Le Mesnil-Amelot, France",France
88,139.705965,35.691169,,381625781,2020-02-25 12:19:12,,poi, ,
82,76.153359,15.351698999999998,Mr. Bikrant,381625782,2020-04-23 07:06:57,bhagalpur,city,"Koppal, India",India
178,27.7076215,-26.205325,SuperstarsFoundation,381625829,2020-04-25 12:40:37,"Gauteng, South-Africa ",city,"Toekomsrus, South Africa",South Africa
51,-9.8693295,52.1455165,Duggan,381625844,2020-02-15 14:25:43,Kilcummin,city,"Kerry, Ireland",Ireland
205,-0.0929105,51.5144805,Duggan,381625844,2020-05-23 09:11:43,Kilcummin,city,"City of London, London",United Kingdom
33,-73.08666600000001,-36.697554499999995,Gastn Lpez Bravo,381625886,2020-03-24 15:02:27,,city,"Talcahuano, Chile",Chile
175,46.765494,24.648474, ,381625895,2020-06-07 01:53:16,"Saudi Arabia , Khafji",poi,In The Middle of Nowhere,Kingdom of Saudi Arabia
24,-75.80014150000001,45.248791,Adria May,38162592,2020-04-18 23:19:09,YOW ,city,"Ottawa, Ontario",Canada
128,3.74208927,50.41158067,ninouu,3816259439,2020-04-15 19:22:19,Coulogne  / Coimbra  ,city,"Dour, Belgique",Belgium
65,1.8688619999999998,50.9527485,ninouu,3816259439,2020-04-16 12:54:12,Coulogne  / Coimbra  ,city,"Calais, France",France
186,-1.6496005,42.815737,ngel L.Esojo Garcia,381626164,2020-03-22 15:43:33,Reino de Espaa ,city,"Pamplona, Espaa",Espaa
24,-79.91951850000001,43.832313,Debbie Racicot,38162667,2020-04-07 01:19:54,Toronto Canada/Venice Florida,city,"Caledon, Ontario",Canada
235,20.388116,44.836092,Nena,381626777,2020-03-10 11:06:45,"Belgrade, Republic of Serbia",city,"Belgrade, Republic of Serbia",Republic of Serbia
91,35.301053,0.491626,albert msafi,3816269422,2020-02-29 12:57:30,,poi,"Moi University - Annex, School of Law",Kenya
186,1.9699475,41.2797535,Candela Lpez,381627387,2020-03-19 22:21:52,"Castelldefels, Baix Llobregat",city,"Castelldefels, Espaa",Espaa
222,105.2853115,-5.3778475,Sandy Milan Der'Panzer ,381627663,2020-02-14 03:14:37,Jakarta Barat  Kuningan ,city,"Sukarame, Indonesia",Indonesia
74,-90.513611,14.642717999999999,FrannyLocutora,381627692,2020-03-18 20:21:22,Guatemala,poi,Ciudad de Guatemala,Guatemala
31080,-118.10787105,33.77718025,Rancho Los Alamitos,381627836,2020-02-22 02:42:12,"Long Beach, California",city,"Long Beach, CA",United States
117,58.4641695,23.549159000000003,Rajiv Shah,381628199,2020-03-19 12:35:18,,city,"Muscat, Oman",Oman
189,17.676460000000002,59.80483,Jonas Segersam,38162834,2020-05-21 11:06:31,"Uppsala, Uppland, Sweden",city,"Uppsala, Sverige",Sweden
82,72.874841,19.044411,Yogesh Anil Dhore,381628343,2020-06-08 09:38:58,Lalbaug-Mumbai,poi,pratiksha nagar depot,India
45460,-87.143292,39.52062,Eric Dyar,381628471,2020-02-24 22:09:36,Indiana,city,"Brazil, IN",United States
26900,-86.13488189,39.82757593,Eric Dyar,381628471,2020-02-29 23:22:10,Indiana,city,"Indianapolis, IN",United States
45460,-87.1274,39.525,Eric Dyar,381628471,2020-03-05 16:47:21,Indiana,city,"Brazil, IN",United States
28140,-94.6750935,38.931549,Dan Scharenberg,381628630,2020-03-19 01:00:01,"Overland Park, KS",city,"Overland Park, KS",United States
85,11.9093565,43.441553000000006,Adriana,3816287715,2020-03-20 10:20:39,,city,"Arezzo, Tuscany",Italy
31140,-85.72234549999999,38.195555,Nancy Jakubiak,381628822,2020-03-05 18:19:55,"Louisville, KY",city,"Louisville, KY",United States
37340,-80.72869,28.35572,Jack Connor,381628864,2020-03-07 14:17:40,"Orlando, FL",city,"Cocoa, FL",United States
36740,-81.5628339,28.452821399999998,Jack Connor,381628864,2020-05-18 18:30:57,"Orlando, FL",city,"Lake Butler, FL",United States
33,-71.4326039,-32.64429406,Camilo Videla,381628917,2020-03-14 17:43:17,"Quilpue, chile",city,"Puchuncav, Chile",Chile
186,2.16146975,41.41187678,Laia Castilla ,381629117,2020-02-18 15:39:49,,city,"Barcelona, Espaa",Espaa
41740,-117.10498899999999,32.810012,moorea,3816291378,2020-03-10 00:50:09,,city,"San Diego, CA",United States
200,29.1205295,40.202796000000006,Tue Kam,381629155,2020-02-14 11:29:29,,city,"Bursa, Trkiye",Trkiye
160,-77.02552850000002,-12.119845,Aldo Vsquez,381629224,2020-02-27 22:10:47,"Lima, Per",city,"Miraflores, Peru",Peru
71,9.99455,48.39686,DAMMblog,381629520,2020-03-04 13:09:36,Italy,city,"Neu-Ulm, Deutschland",Germania
160,-76.76740961,-12.4085733,DAMMblog,381629520,2020-04-27 19:43:15,Italy,city,"Santa Maria del Mar, Peru",Peru
85,12.5,41.9,DAMMblog,381629520,2020-05-09 09:06:38,Italy,city,"Roma, Lazio",Italia
200,37.387009000000006,37.062044,Burak KAYA,3816296235,2020-02-18 18:59:05,,city,"Gaziantep, Trkiye",Trkiye
33100,-80.307064,25.976124,Cespedes,381629723,2020-02-14 00:26:49,"Miami, FL",city,"Miramar, FL",United States
205,-0.0706035,51.464686,Kevin O'Neill,38163,2020-05-10 11:52:45,London,city,"Camberwell, London",United Kingdom
71,7.1165865,50.7034715,Steffi Tnjes ,3816300341,2020-02-19 15:55:06,www.telekom.com/impressum,city,"Bonn, Deutschland",Deutschland
15380,-78.8818,42.9936645,Frank West,381630564,2020-04-06 02:09:55,,city,"Tonawanda, NY",United States
178,27.9667,-26.05,Mark Thompson,38163090,2020-04-10 06:27:49,"Douglasdale, Johannesburg",city,"Randburg, South Africa",South Africa
200,41.2655875,39.9100375,D@d@,381630993,2020-03-22 02:34:07,ERZURUM,city,"Erzurum, Trkiye",Trkiye
18140,-83.0043725,39.9594455,Reyna Montgomery,3816310101,2020-03-07 06:42:01,,neighborhood,"Downtown, Columbus",United States
17900,-81.1008515,33.992020999999994,Reiko,381631440,2020-03-17 03:15:06,South Carolina,city,"West Columbia, SC",United States
48300,-120.2877365,47.444678,Julie Blanch-Conner,381631646,2020-02-21 18:19:21,Woodbridge Virginia,city,"East Wenatchee, WA",United States
47900,-77.35893899999998,38.64612,Julie Blanch-Conner,381631646,2020-05-15 20:24:43,Woodbridge Virginia,city,"Dale City, VA",United States
33100,-80.26351700000002,26.1245075,Sean Worthy,381631741,2020-03-20 18:12:18,Chicago / South Florida,city,"Plantation, FL",United States
200,29.30856228,40.92967749,Nisa Gayrimenkul,381631755,2020-05-13 16:01:59,stanbul Trkiye,city,"stanbul, Trkiye",Trkiye
14460,-71.36787212,42.6188393,Covid Lee Roth,38163189,2020-05-13 19:53:02,New England,city,"Chelmsford, MA",United States
175,39.8016865,21.389833000000007,hjoura.,3816323841,2020-05-07 12:52:19,  ,city,"La Mecque, Royaume d'Arabie Saoudite",Royaume d'Arabie Saoudite
222,110.84945,-6.806539999999999,imam kurniawan,381632394,2020-04-20 06:42:31,Kudus,city,"Kudus, Indonesia",Indonesia
205,0.478479,51.739893,Paul Boden,38163257,2020-02-16 13:28:28,Ireland,city,"Chelmsford, East",United Kingdom
82,72.87424399999999,19.174139999999998,Mahendra Shah,381632601,2020-02-14 17:02:53,,city,"Mumbai, India",India
11100,-101.816092,35.211115500000005,Alyzza Mae,38163263,2020-06-07 23:44:28,"Philippines  Texas, USA",city,"Amarillo, TX",United States
21,-46.5955455,-23.682803, s,381632947,2020-02-18 14:58:25,So Paulo,city,"So Paulo, Brasil",Brasil
120,101.69552757,3.1452880000000003,Ahmad Khusairy,381633017,2020-02-16 06:10:59,,city,"Kuala Lumpur City, Kuala Lumpur Federal Territory",Malaysia
38,-74.24367099999999,4.2622835,Alan  Santos,381633100,2020-05-14 17:31:18,"Bogot, D.C., Colombia",city,"Bogot, D.C., Colombia",Colombia
39900,-119.7106945,39.57421650000001,John W Johnson,381633272,2020-04-24 01:04:12,Reno/Tahoe!,city,"Sparks, NV",United States
38300,-79.9806895,40.431389,  ,381633351,2020-02-29 03:11:06,USA | Jabriya,city,"Pittsburgh, PA",United States
49660,-80.63954050000002,41.105271,  ,381633351,2020-05-14 10:42:27,USA | Aljabriya,city,"Youngstown, OH",United States
35840,-82.43175500000001,27.097178999999997,AIR.      X.     SUN,38163344,2020-02-20 03:32:42,The Valley #OVN 630,city,"Venice, FL",United States
16980,-88.61459350000001,41.6466075,AIR.      X.     SUN,38163344,2020-04-16 20:42:43,The Valley #OVN 630,city,"Sandwich, IL",United States
35620,-73.9685415,40.780709,bulawil,3816337595,2020-04-27 18:11:09,,city,"Manhattan, NY",United States
41420,-123.02901499999999,44.935084,Domina Alexandra,381633845,2020-04-07 20:25:56,"Salem, OR",city,"Salem, OR",United States
38900,-122.5957415,45.3451245,Domina Alexandra,381633845,2020-05-12 21:46:09,"Salem, OR",city,"Oregon City, OR",United States
41420,-123.02901499999999,44.935084,Domina Alexandra,381633845,2020-05-14 16:25:41,"Salem, OR",city,"Salem, OR",United States
96,48.0807535,29.1665375,  ,381633996,2020-03-24 13:04:39, ,city,"Jaber Al Ali, Kuwait",Kuwait
35620,-73.997316,40.741817,Dave Whitaker,38163404,2020-05-15 23:55:25,"New York, NY",poi,Elmo,United States
21,-43.441578,-22.911421500000003,Ginho ,3816340642,2020-02-14 18:24:30,K.THEODORO ,city,"Rio de Janeiro, Brasil",Brasil
205,-2.4349525,53.5841845,Andrew Diggle,381634217,2020-02-20 09:04:27,Rochdale,city,"Bolton, England",United Kingdom
222,106.8656125,-6.160423000000001,Oswald Sandy,38163428,2020-02-24 22:33:35,Jakarta Pusat,city,"Kemayoran, Indonesia",Indonesia
200,36.17429,36.222733000000005,Gizem Dinler,3816344273,2020-02-14 09:45:13,"zmir, Trkiye",city,"Hatay, Trkiye",Trkiye
8,-57.5814305,-38.01158750000001,ggmuollo,381634482,2020-02-15 12:24:22,argentina,city,"Mar del Plata, Argentina",Argentina
47900,-77.0143985,38.898603,shan,381634714,2020-02-25 14:21:11,,city,"Washington, DC",United States
24260,-98.349785,40.9310835,Nicholas Kshywonis,3816347540,2020-02-16 00:44:02,"Grand Island, NE",city,"Grand Island, NE",United States
45300,-82.48376155,27.94931057,LockedIN Magazine,3816347720,2020-03-16 03:36:59,United States,city,"Tampa, FL",United States
27260,-81.58000559999999,30.283547499999997,LockedIN Magazine,3816347720,2020-03-20 12:15:39,United States,neighborhood,"Southside, FL",United States
37860,-87.2093,30.436999999999998,LockedIN Magazine,3816347720,2020-05-29 02:45:37,United States,city,"Pensacola, FL",United States
14500,-105.14172749999999,39.96890000000001,George McKee,381634918,2020-03-23 15:50:06,"Louisville, CO",city,"Louisville, CO",United States
35620,-73.34228976,40.82667054,ArtLeagueofLI,381635060,2020-04-06 15:21:00,"Dix Hills, NY",city,"Dix Hills, NY",United States
200,27.186185,38.461809,YLN KAYRA INAR BJK,381635069,2020-02-26 21:20:17,"zmir, Trkiye",poi,Aylin's,Trkiye
24,-114.057,51.045,Dubbele Dutch Crafts,381635213,2020-02-19 19:53:56,Calgary Alberta Canada,city,"Calgary, Alberta",Canada
152,4.9001,52.3777,Loz,381635623,2020-02-15 13:12:07,"Leicester, England",city,"Amsterdam, The Netherlands",The Netherlands
96,48.091246000000005,29.1919212,Ahmed AlQallaf,38163574,2020-04-23 18:30:35,Kuwait,city,"Mubarak Al Kabeer, Kuwait",Kuwait
33100,-80.3046625,25.857732000000002,aileen,3816357689,2020-02-16 06:54:35,,city,"Hialeah, FL",United States
33,-70.66035032,-33.45844464,BOY GEORGE TRIBUTE,381635905,2020-03-18 05:48:01,Chile,city,"Santiago, Chile",Chile
186,-5.1520355,41.535594,Julia ,3816359123,2020-04-23 10:15:50,"Armua, Segovia    ",city,"Villalar de los Comuneros, Espaa",Espaa
24340,-85.6049615,42.9127675,Curtis A. Thompson,381635947,2020-05-28 14:44:12,,city,"Kentwood, MI",United States
205,-0.4323375,51.8944435,Hot Since 82,381635953,2020-03-06 17:32:57,,city,"Luton, England",United Kingdom
205,-3.3367545,51.55686950000001,Andrew Miller,38163612,2020-02-20 09:53:54,United Kingdom,city,"Llantwit Fardre, Wales",United Kingdom
186,-6.2199,36.60566,lvaro Gonzlez,381636363,2020-02-15 10:43:30,Espaa/El Puerto d Sta Mara,city,"El Puerto de Santa Mara, Espaa",Espaa
119,-96.0989905,19.1431005,Hotel Villas Dal,381636429,2020-04-27 05:46:17,Av. Urano 1113,city,"Boca del Ro, Veracruz de Ignacio de la Llave",Mxico
21,-43.296872,-22.644558,Rafa Gomes,381636611,2020-02-26 20:35:00,Rio de Janeiro,city,"Duque de Caxias, Brasil",Brasil
8,-64.50573,-31.42225,Flor,381636724,2020-02-29 02:13:03,,city,"Villa Carlos Paz, Argentina",Argentina
205,-3.4363474999999997,51.6954995,Holly',381636753,2020-02-21 15:51:38,,city,"Aberaman, Wales",United Kingdom
33420,-98.46929899999999,32.851575,posty baby,3816368009,2020-05-18 00:21:08,omw2fyb,poi,Hell's Gate,United States
51,-6.2357200000000015,53.494598,Siobhan O'Connor,38163716,2020-04-04 18:12:44,Dublin,city,"Fingal, Ireland",Ireland
119,-98.1542665,19.0322295,Regina ,381637392,2020-02-14 21:20:19,"puebla, mexico.",city,"Puebla, Mxico",Mxico
71,13.4246065,52.506701,AarKay,381637679,2020-02-19 06:11:34,"Stuttgart, Germany",city,"Berlin, Germany",Germany
38,-75.6123815,4.811547,EJE CAFETERO TOURS,381637735,2020-02-22 04:35:55,"Pereira, Colombia",city,"Santa Rosa de Cabal, Colombia",Colombia
85,13.3472125,38.137489,Alessandro Bruno,381637947,2020-05-06 13:28:04,"Palermo, Sicilia",city,"Palermo, Sicilia",Italia
24860,-82.3204873,34.775991999999995,TMJ-GRN Jobs,38163798,2020-02-14 19:21:41,"Greenville, SC",city,"Mauldin, SC",United States
43900,-81.9513932,35.007922799999996,TMJ-GRN Jobs,38163798,2020-02-14 21:35:21,"Greenville, SC",city,"Valley Falls, SC",United States
24860,-82.3940104,34.8526176,TMJ-GRN Jobs,38163798,2020-02-14 22:42:13,"Greenville, SC",city,"Greenville, SC",United States
43900,-81.93204820000001,34.949567200000004,TMJ-GRN Jobs,38163798,2020-02-15 23:49:08,"Greenville, SC",city,"Spartanburg, SC",United States
24940,-82.18364179999999,34.2168469,TMJ-GRN Jobs,38163798,2020-02-16 18:16:32,"Greenville, SC",city,"Greenwood, SC",United States
24860,-82.3880144,34.7264985,TMJ-GRN Jobs,38163798,2020-02-16 19:23:20,"Greenville, SC",city,"Greenville, SC",United States
43900,-81.93938299999999,34.9662707,TMJ-GRN Jobs,38163798,2020-02-17 21:38:31,"Greenville, SC",city,"Spartanburg, SC",United States
24860,-82.4150309,34.900932700000006,TMJ-GRN Jobs,38163798,2020-02-17 23:52:21,"Greenville, SC",city,"Sans Souci, SC",United States
23500,-81.6402413,35.0823258,TMJ-GRN Jobs,38163798,2020-02-19 19:27:38,"Greenville, SC",city,"Gaffney, SC",United States
43900,-81.9336061,34.9686859,TMJ-GRN Jobs,38163798,2020-02-19 20:34:25,"Greenville, SC",city,"Spartanburg, SC",United States
24860,-82.3940104,34.8526176,TMJ-GRN Jobs,38163798,2020-02-19 21:41:12,"Greenville, SC",city,"Greenville, SC",United States
42860,-82.91246149999999,34.6860956,TMJ-GRN Jobs,38163798,2020-02-20 17:14:13,"Greenville, SC",city,"Seneca, SC",United States
24860,-82.3343375,34.8083898,TMJ-GRN Jobs,38163798,2020-02-20 18:21:01,"Greenville, SC",city,"Greenville, SC",United States
24940,-82.1738455,34.1961445,TMJ-GRN Jobs,38163798,2020-02-21 20:35:32,"Greenville, SC",city,"Greenwood, SC",United States
24860,-82.2652395,34.860311700000004,TMJ-GRN Jobs,38163798,2020-02-21 22:49:07,"Greenville, SC",city,"Wade Hampton, SC",United States
42860,-82.8750858,34.6940481,TMJ-GRN Jobs,38163798,2020-02-21 23:56:05,"Greenville, SC",city,"Keowee, SC",United States
24860,-81.9946,34.5239,TMJ-GRN Jobs,38163798,2020-02-22 16:09:42,"Greenville, SC",city,"Watts Mills, SC",United States
43900,-81.9801863,34.9389215,TMJ-GRN Jobs,38163798,2020-02-22 17:16:30,"Greenville, SC",city,"Spartanburg, SC",United States
24860,-82.2867999,34.7955612,TMJ-GRN Jobs,38163798,2020-02-22 20:35:39,"Greenville, SC",city,"Mauldin, SC",United States
43900,-81.9513932,35.007922799999996,TMJ-GRN Jobs,38163798,2020-02-25 17:17:44,"Greenville, SC",city,"Valley Falls, SC",United States
24860,-82.25641309999999,34.82004370000001,TMJ-GRN Jobs,38163798,2020-02-25 21:50:21,"Greenville, SC",city,"Greenville, SC",United States
43900,-81.9869302,34.91795689999999,TMJ-GRN Jobs,38163798,2020-02-26 19:37:58,"Greenville, SC",city,"Spartanburg, SC",United States
24860,-82.6751562,34.550692299999994,TMJ-GRN Jobs,38163798,2020-02-26 22:58:34,"Greenville, SC",city,"Anderson, SC",United States
42860,-82.9532036,34.685655499999996,TMJ-GRN Jobs,38163798,2020-02-27 18:32:33,"Greenville, SC",city,"Seneca, SC",United States
24860,-82.6122962,34.8299797,TMJ-GRN Jobs,38163798,2020-02-27 19:39:14,"Greenville, SC",city,"Easley, SC",United States
23500,-81.63339609999998,35.0801854,TMJ-GRN Jobs,38163798,2020-02-28 17:26:53,"Greenville, SC",city,"Gaffney, SC",United States
24860,-82.3718696,34.8706779,TMJ-GRN Jobs,38163798,2020-02-28 19:39:46,"Greenville, SC",city,"Greenville, SC",United States
43900,-81.9938144,34.9431777,TMJ-GRN Jobs,38163798,2020-02-28 21:53:20,"Greenville, SC",city,"Spartanburg, SC",United States
24940,-82.1738455,34.1961445,TMJ-GRN Jobs,38163798,2020-02-29 15:13:57,"Greenville, SC",city,"Greenwood, SC",United States
43900,-81.9926349,34.9195412,TMJ-GRN Jobs,38163798,2020-02-29 16:20:45,"Greenville, SC",city,"Spartanburg, SC",United States
24860,-82.2614978,34.9412138,TMJ-GRN Jobs,38163798,2020-02-29 17:27:34,"Greenville, SC",city,"Greer, SC",United States
23500,-81.6402413,35.0823258,TMJ-GRN Jobs,38163798,2020-03-01 20:48:04,"Greenville, SC",city,"Gaffney, SC",United States
43900,-82.12796750000001,34.9572401,TMJ-GRN Jobs,38163798,2020-03-01 23:01:38,"Greenville, SC",city,"Lyman, SC",United States
24860,-82.3940104,34.8526176,TMJ-GRN Jobs,38163798,2020-03-02 17:28:48,"Greenville, SC",city,"Greenville, SC",United States
23500,-81.6344179,35.089951299999996,TMJ-GRN Jobs,38163798,2020-03-03 19:42:27,"Greenville, SC",city,"Gaffney, SC",United States
43900,-81.8701978,34.980436499999996,TMJ-GRN Jobs,38163798,2020-03-03 20:49:14,"Greenville, SC",city,"Spartanburg, SC",United States
24860,-82.3137827,34.899699700000006,TMJ-GRN Jobs,38163798,2020-03-04 16:23:16,"Greenville, SC",city,"Taylors, SC",United States
24940,-82.18364179999999,34.2168469,TMJ-GRN Jobs,38163798,2020-03-04 18:36:50,"Greenville, SC",city,"Greenwood, SC",United States
24860,-82.4846129,34.6167831,TMJ-GRN Jobs,38163798,2020-03-04 19:43:38,"Greenville, SC",city,"Williamston, SC",United States
43900,-82.000433,34.9197472,TMJ-GRN Jobs,38163798,2020-03-04 21:57:13,"Greenville, SC",city,"Spartanburg, SC",United States
24860,-82.388475,34.4454939,TMJ-GRN Jobs,38163798,2020-03-05 17:30:05,"Greenville, SC",city,"Honea Path, SC",United States
43900,-81.9914067,34.9336416,TMJ-GRN Jobs,38163798,2020-03-05 21:57:23,"Greenville, SC",city,"Spartanburg, SC",United States
42860,-82.9532036,34.685655499999996,TMJ-GRN Jobs,38163798,2020-03-05 23:04:11,"Greenville, SC",city,"Seneca, SC",United States
24860,-82.58134040000002,34.830881700000006,TMJ-GRN Jobs,38163798,2020-03-06 15:17:49,"Greenville, SC",city,"Easley, SC",United States
24940,-82.1617883,34.1954001,TMJ-GRN Jobs,38163798,2020-03-06 23:05:24,"Greenville, SC",city,"Greenwood, SC",United States
24860,-82.6501332,34.5034394,TMJ-GRN Jobs,38163798,2020-03-07 15:18:56,"Greenville, SC",city,"Anderson, SC",United States
43900,-81.93204820000001,34.949567200000004,TMJ-GRN Jobs,38163798,2020-03-07 16:25:43,"Greenville, SC",city,"Spartanburg, SC",United States
24860,-82.61646479999999,34.597081599999996,TMJ-GRN Jobs,38163798,2020-03-08 15:25:48,"Greenville, SC",city,"Anderson, SC",United States
42860,-83.0446541,34.7530142,TMJ-GRN Jobs,38163798,2020-03-08 16:32:36,"Greenville, SC",city,"West Union, SC",United States
43900,-81.9801863,34.9389215,TMJ-GRN Jobs,38163798,2020-03-08 17:39:22,"Greenville, SC",city,"Spartanburg, SC",United States
42860,-83.0446541,34.7530142,TMJ-GRN Jobs,38163798,2020-03-08 20:59:46,"Greenville, SC",city,"West Union, SC",United States
24860,-82.703661,34.882803499999994,TMJ-GRN Jobs,38163798,2020-03-09 14:20:05,"Greenville, SC",city,"Pickens, SC",United States
43900,-81.6389422,34.718644700000006,TMJ-GRN Jobs,38163798,2020-03-09 21:00:48,"Greenville, SC",city,"Union, SC",United States
42860,-83.0446541,34.7530142,TMJ-GRN Jobs,38163798,2020-03-09 22:07:38,"Greenville, SC",city,"West Union, SC",United States
43900,-81.8785603,34.9359109,TMJ-GRN Jobs,38163798,2020-03-10 15:27:56,"Greenville, SC",city,"Spartanburg, SC",United States
24860,-82.30194250000001,34.8322386,TMJ-GRN Jobs,38163798,2020-03-10 16:34:43,"Greenville, SC",city,"Greenville, SC",United States
43900,-81.939538,34.9667602,TMJ-GRN Jobs,38163798,2020-03-10 19:55:27,"Greenville, SC",city,"Spartanburg, SC",United States
24860,-82.48814399999999,34.7910987,TMJ-GRN Jobs,38163798,2020-03-10 22:09:03,"Greenville, SC",city,"Powdersville, SC",United States
42860,-82.8750858,34.6940481,TMJ-GRN Jobs,38163798,2020-03-11 16:36:08,"Greenville, SC",city,"Keowee, SC",United States
24860,-82.35213990000001,34.8844393,TMJ-GRN Jobs,38163798,2020-03-11 17:43:03,"Greenville, SC",city,"Wade Hampton, SC",United States
42860,-83.0446541,34.7530142,TMJ-GRN Jobs,38163798,2020-03-13 14:25:27,"Greenville, SC",city,"West Union, SC",United States
43900,-82.07224959999999,34.888625899999994,TMJ-GRN Jobs,38163798,2020-03-13 15:32:15,"Greenville, SC",city,"Reidville, SC",United States
24860,-82.6501332,34.5034394,TMJ-GRN Jobs,38163798,2020-03-13 18:52:49,"Greenville, SC",city,"Anderson, SC",United States
43900,-81.6609096,34.7230903,TMJ-GRN Jobs,38163798,2020-03-14 17:45:57,"Greenville, SC",city,"Buffalo, SC",United States
24860,-82.61646479999999,34.597081599999996,TMJ-GRN Jobs,38163798,2020-03-14 18:52:56,"Greenville, SC",city,"Anderson, SC",United States
43900,-81.9513932,35.007922799999996,TMJ-GRN Jobs,38163798,2020-03-15 22:15:05,"Greenville, SC",city,"Valley Falls, SC",United States
24860,-82.3940104,34.8526176,TMJ-GRN Jobs,38163798,2020-03-16 14:28:37,"Greenville, SC",city,"Greenville, SC",United States
43900,-81.93204820000001,34.949567200000004,TMJ-GRN Jobs,38163798,2020-03-17 14:28:47,"Greenville, SC",city,"Spartanburg, SC",United States
24860,-82.3343375,34.8083898,TMJ-GRN Jobs,38163798,2020-03-17 16:42:23,"Greenville, SC",city,"Greenville, SC",United States
23500,-81.63339609999998,35.0801854,TMJ-GRN Jobs,38163798,2020-03-17 18:56:12,"Greenville, SC",city,"Gaffney, SC",United States
24860,-82.5766311,34.8254814,TMJ-GRN Jobs,38163798,2020-03-17 20:02:58,"Greenville, SC",city,"Easley, SC",United States
23500,-81.6404532,35.060606400000005,TMJ-GRN Jobs,38163798,2020-03-17 21:09:46,"Greenville, SC",city,"Gaffney, SC",United States
43900,-82.12796750000001,34.9572401,TMJ-GRN Jobs,38163798,2020-03-17 22:16:34,"Greenville, SC",city,"Lyman, SC",United States
24860,-82.3940104,34.8526176,TMJ-GRN Jobs,38163798,2020-03-18 14:31:17,"Greenville, SC",city,"Greenville, SC",United States
43900,-81.9801863,34.9389215,TMJ-GRN Jobs,38163798,2020-03-18 20:03:15,"Greenville, SC",city,"Spartanburg, SC",United States
24860,-82.2556053,34.704089200000006,TMJ-GRN Jobs,38163798,2020-03-18 21:10:01,"Greenville, SC",city,"Simpsonville, SC",United States
23500,-81.6404532,35.060606400000005,TMJ-GRN Jobs,38163798,2020-03-19 18:58:38,"Greenville, SC",city,"Gaffney, SC",United States
24860,-82.4404912,34.8173555,TMJ-GRN Jobs,38163798,2020-03-20 14:32:38,"Greenville, SC",city,"Welcome, SC",United States
43900,-81.9718056,34.9798124,TMJ-GRN Jobs,38163798,2020-03-20 15:39:27,"Greenville, SC",city,"Saxon, SC",United States
24860,-82.2542834,34.737063899999995,TMJ-GRN Jobs,38163798,2020-03-20 16:46:15,"Greenville, SC",city,"Simpsonville, SC",United States
23500,-81.63339609999998,35.0801854,TMJ-GRN Jobs,38163798,2020-03-21 14:33:49,"Greenville, SC",city,"Gaffney, SC",United States
24860,-82.6958476,34.5296136,TMJ-GRN Jobs,38163798,2020-03-21 16:47:19,"Greenville, SC",city,"Centerville, SC",United States
42860,-82.8750858,34.6940481,TMJ-GRN Jobs,38163798,2020-03-22 15:40:46,"Greenville, SC",city,"Keowee, SC",United States
24860,-82.3940104,34.8526176,TMJ-GRN Jobs,38163798,2020-03-22 19:01:09,"Greenville, SC",city,"Greenville, SC",United States
24940,-82.1788624,34.211383700000006,TMJ-GRN Jobs,38163798,2020-03-22 21:14:46,"Greenville, SC",city,"Greenwood, SC",United States
43900,-82.07224959999999,34.888625899999994,TMJ-GRN Jobs,38163798,2020-03-22 22:21:35,"Greenville, SC",city,"Reidville, SC",United States
24860,-82.25429799999999,34.8728804,TMJ-GRN Jobs,38163798,2020-03-23 16:49:02,"Greenville, SC",city,"Greer, SC",United States
43900,-81.93204820000001,34.949567200000004,TMJ-GRN Jobs,38163798,2020-03-24 14:35:42,"Greenville, SC",city,"Spartanburg, SC",United States
42860,-83.0446541,34.7530142,TMJ-GRN Jobs,38163798,2020-03-24 16:49:17,"Greenville, SC",city,"West Union, SC",United States
24860,-82.3940104,34.8526176,TMJ-GRN Jobs,38163798,2020-03-24 17:56:05,"Greenville, SC",city,"Greenville, SC",United States
43900,-82.07224959999999,34.888625899999994,TMJ-GRN Jobs,38163798,2020-03-24 20:08:11,"Greenville, SC",city,"Reidville, SC",United States
24940,-82.1738455,34.1961445,TMJ-GRN Jobs,38163798,2020-03-24 21:14:55,"Greenville, SC",city,"Greenwood, SC",United States
