currentGEOID,lon,lat,name,author_Id,created_at,location,place_type,place_full_name,place_country
222,110.504521,-7.7713405,Yud,1141641563010785280,2020-05-14 05:27:29,"Sleman, Indonesia",city,"Prambanan, Indonesia",Indonesia
222,112.65193500000001,-7.167899,SAN ,1141642003,2020-05-08 13:45:42,,poi,Jazz coffee community,Indonesia
88,130.30823999999998,31.818265000000004,SEEN!!,1141642369579675648,2020-02-15 09:21:00,,poi, ,Japan
82,77.626411,10.276178999999999,MsksNehru,1141642473116225536,2020-04-25 03:20:52,India,poi,pannaikadu,India
205,-0.017990000000000003,51.454107,Ella @ Becoming Women,1141642723063193600,2020-04-02 07:33:00,"London, England",city,"Lewisham, London",United Kingdom
171,121.0392605,14.5847555,,1141642809276952577,2020-02-24 16:54:36,"Mandaluyong City, National Cap",city,"Mandaluyong City, National Capital Region",Republic of the Philippines
222,106.64106799999999,-6.324704,Oops!,1141642909676011520,2020-02-21 10:37:54,"Tangerang Selatan, Indonesia",poi,Stasiun Cisauk,Indonesia
242,120.9558625,24.2208365,Couple,1141643253357391872,2020-05-13 06:29:46,,city,", ",
205,-0.1868325,51.1277265,Silhouette crafts,1141643360937172992,2020-02-14 10:16:00,"Crawley, South East",city,"Crawley, South East",United Kingdom
82,77.13814,28.74505,L..... santosh mourya,1141643594,2020-02-22 12:34:43,narela delhi india,poi,Samaypur Badli Metro Station,India
95,129.160683,35.1992555,,1141643602071674880,2020-03-21 00:02:37,,city, ,
88,139.046119,37.923443,QSB,1141643626859995136,2020-02-15 05:56:28,  ,poi,quick step beers,Japan
151,12.650185,9.2225705,Bashiru Mohammed Fufore,1141643822096691207,2020-03-08 00:40:03,,city,"Fufore, Nigeria",Nigeria
82,77.140893,28.721648,VIPS - Delhi,1141644104503218176,2020-05-16 16:30:02,"New Delhi, India",poi,Vivekananda Institute of Professional Studies,India
193,100.559009,13.778016,        ,1141644218823147523,2020-02-14 11:40:26, KS,city,", ",
222,107.29926999999999,-6.3918870000000005,eva dwi wijayanto,1141644257049997312,2020-02-21 21:59:37,,city,"Telukjambe, Indonesia",Indonesia
82,72.78910450000002,21.171369,AMIT Kumar,1141644412671258624,2020-05-21 08:05:36,"Surat, India",city,"Surat, India",India
222,110.51129099999999,-7.5051309999999996,piyik,1141644553511825408,2020-06-09 22:43:34,Indonesia,city,"Cepogo, Indonesia",Indonesia
88,127.6876045,26.2112665,,1141644651356495872,2020-03-01 05:00:44,,city, ,
82,79.430058,16.8266505,Redapanga Manoj kumar,1141644684,2020-04-08 08:39:22,Miryalaguda,city,"Nagarjuna Sagar North, India",India
200,29.066691,40.183332,alkan Yap & Tadilat,1141644708705427456,2020-02-24 07:22:14,"Bursa, Trkiye",poi,Bursa,Trkiye
222,106.97191299999999,-6.437104,pril,1141644968466870272,2020-03-15 10:27:46,,city,"Cileungsi, Indonesia",Indonesia
222,106.85680900000001,-6.225842,pijat pria jakarta,1141645049341468673,2020-02-18 11:00:21,"DKI Jakarta, Indonesia",city,"Tebet, Indonesia",Indonesia
151,8.55417,11.929637,aliyu muhammad,1141645186084352000,2020-03-06 07:39:45,sarawa,poi,Saadatu Abubakar Rimi College of Education Kumbotso,Nigeria
186,-15.661505499999999,28.09545,nestor ,1141645512812220421,2020-04-23 12:44:20,Gldar,city,"Gldar, Espaa",Espaa
113,-7.3940795,33.6924055,Mahmoud Hegazy,1141645708631642112,2020-04-28 11:47:57,"Hay Mohammadi, Royaume du Maro",city,"Mohammedia, Royaume du Maroc",Morocco
151,3.3180660000000004,6.590611,innocent chidera,1141645790642880512,2020-05-28 17:33:03,,city,"Ikeja, Nigeria",Nigeria
120,101.705305,3.1485305,,1141646320060383232,2020-02-25 09:35:59,"Seremban, Negeri Sembilan",city,"Kuala Lumpur City, Kuala Lumpur Federal Territory",Malaysia
200,29.227618,40.8935535,Cihan lkiz,1141646415388643328,2020-03-21 08:16:25,Svud,neighborhood,"Yeilbalar, stanbul",Trkiye
120,101.6846865,3.124524,hazhwanie,1141646513405194240,2020-02-25 14:45:11,,city,"Kuala Lumpur, Wilayah Persekutuan Kuala Lumpur",Malaysia
88,139.815545,35.715131,,114164670,2020-04-29 22:52:56, ,city, ,
205,-3.9087085,55.8046005,Laura,1141646806893420544,2020-03-31 07:59:34,,city,"Cleland, Scotland",United Kingdom
186,-15.4437905,27.983565000000002,Cristian15,1141646845577519104,2020-02-18 01:09:07,,city,"Telde, Espaa",Spain
222,106.652049,-6.441801,Me,114164734,2020-04-09 15:56:18,Selangkah Pada - MU,city,"Rumpin, Indonesia",Indonesia
88,135.551095,34.852061500000005,,1141647415075753984,2020-03-13 14:38:13,,city, ,
186,-0.9273325000000001,41.6916365,J.Ll.E Navarra,1141647444201156608,2020-03-14 10:54:53,,city,"Saragossa, Spain",Spain
88,139.560072,35.708001,kyononyanko,1141647617408917504,2020-02-15 08:54:17,,city, ,
58,14.60012,49.9717035,Ladislav Kovar ,114164767,2020-02-19 09:06:39,"Prague, Czech Republic",city,"Modletice, esk republika",Czech Republic
9,151.5896705,-32.74788,zak,1141647775634821120,2020-02-20 09:46:23,,city,"Maitland (NSW), New South Wales",Australia
175,46.685077,24.7219435, ,1141647811869663232,2020-04-30 12:22:19,"Riyadh, Kingdom of Saudi Arabia",city,",   ",  
88,139.81245669999998,35.7172073,,114164830,2020-02-14 22:54:23,,city, ,
24,-80.54691600000001,43.4821515,,1141648310,2020-03-03 17:40:56,,city,"Waterloo, Ontario",Canada
82,77.3699235,28.367609499999997,Amit Kamat,114164832,2020-03-24 09:40:53,Gurgaon,city,"Greater Faridabad, India",India
222,107.552623,-6.8845795,alya ,1141648400724533249,2020-02-23 05:59:14,,city,"Cimahi Tengah, Indonesia",Indonesia
152,6.5181065,52.72765450000001,yo man,1141648420064702465,2020-03-26 13:07:44,me linker teelbal,city,"Hoogeveen, Nederland",The Netherlands
120,100.386675,5.4290435,Zulfaqar Hizami Yazid,1141648633848143872,2020-05-22 06:10:45,Malaysia,city,"Mukim 14, Pulau Pinang",Malaysia
96,48.2808815,28.816837, ..,1141648829101629440,2020-02-14 11:27:32, ,city,"Al Julayah - Al Zour - Sulah - Al Dubaiy, Kuwait",Kuwait
222,115.30676899999999,-8.443932,Ida Bagus Anom Citra Gotra,1141648836126838785,2020-02-16 06:38:27,,city,"Tampaksiring, Indonesia",Indonesia
200,29.0052225,41.0213205,kerembozer,1141648854061858816,2020-04-03 16:31:31,,city,"stanbul, Trkiye",Turkey
82,69.62040400000001,23.5009875,Kamlesh Thacker,1141649035863851008,2020-05-08 17:22:02,,city,"Bhuj, India",India
24,-114.087851,51.027664,Raksh Joshi,1141649088,2020-04-05 15:59:35,Calgary,city,"Calgary, Alberta",Canada
31080,-118.34615249999999,33.953633499999995,justin derick,1141649261349736448,2020-04-12 23:54:20,albany new city new york 10002,city,"Inglewood, CA",United States
173,40.417658,56.13852850000001,  ,1141649283965476864,2020-02-14 08:16:14,,city,"Vladimir, Russia",Russia
120,101.66238308,3.11386985,Kamarul Rodzmier,114164951,2020-05-24 11:47:41,KUL - SA,city,"Kuala Lumpur, Wilayah Persekutuan Kuala Lumpur",Malaysia
16940,-104.787092,41.1352835,Wendy,1141649520331128833,2020-04-14 11:10:21,,city,"Cheyenne, WY",United States
82,73.88438199999999,18.520764,Satheesh Kumar,114164973,2020-04-05 15:54:51,Pune,city,"Pune, India",India
82,73.75521653,19.95267004,DJ Danny,1141650013,2020-06-01 05:04:10,Vadodara/Gujarat,city,"Nashik, India",India
200,41.454834000000005,39.168456,Dilan Tekin,1141650407967657985,2020-03-23 19:45:15,"Varto, Mu",poi,Varto,Trkiye
65,5.7662285,43.7820015,Transfo Hippique,1141650513412395008,2020-04-26 11:53:19,"Paris, France",city,"Sainte-Tulle, France",France
205,-2.8904995,56.641179,Bruce Logan,1141650641821085696,2020-03-20 16:26:24,"Forfar, Scotland",city,"Forfar, Scotland",United Kingdom
151,6.7102565,6.2012195,EDAinspires,1141650758691164160,2020-03-18 03:54:11,"Lagos, Nigeria",city,"Asaba, Nigeria",Nigeria
82,83.61579350000001,26.4403055,V!$h@| Gupta,1141650759525662720,2020-03-31 04:54:32,"Uttar Pradesh, India",city,"Rudrapur, India",India
82,74.13238199999999,18.6955765,Praveen Bhosale,1141650869601165312,2020-02-19 05:43:26,"Pune, India",city,"Shikrapur, India",India
193,100.585711,13.733137,pui,1141650874244034560,2020-04-23 14:51:42,,city,"Khlong Tan Nuea, Thailand",Thailand
88,139.667967,35.143561,yoshikazu,1141650882410369024,2020-02-22 04:48:18,  ,poi,,Japan
222,112.80023100000001,-7.314341000000001,ituk,1141650909736263680,2020-05-18 18:19:59,,city,"Rungkut, Indonesia",Indonesia
200,36.9276755,37.5606085,Hakan Mehmetcikolu,114165092,2020-02-14 07:17:52,Adana/Trkiye,city,"Kahramanmara, Trkiye",Trkiye
189,17.980058999999994,59.333671,Silvia.,114165106,2020-04-15 05:06:54,"Estocolmo, Suecia",city,"Estocolmo, Suecia",Suecia
31080,-118.611,34.1689,Shock & Awe Fitness,1141651788,2020-02-14 15:41:53,Los Angeles,city,"Los Angeles, CA",United States
222,107.47,-6.587219999999999,Eka Fauziah M,114165204,2020-04-12 00:42:47,Cimahi,city,"Pasawahan, Indonesia",Indonesia
205,-3.1645119999999998,53.2665755,Christina ,1141652075786526721,2020-05-24 07:55:03,"Wales, United Kingdom",city,"Bagillt, Wales",United Kingdom
88,133.867043,34.783814,XIX the lounge@OKAYAMA,1141652351620567045,2020-03-05 09:14:45, ,city,"Kita-ku, Okayama",Japan
9,145.0422836,-37.8895005,Rushane Foster,1141652596714876929,2020-03-09 12:11:31,Jamaica,city,"Melbourne, Victoria",Australia
9,145.47718999999998,-38.0709035,xc1usivv,1141652688305717248,2020-04-18 15:26:26,"Melbourne, Victoria",city,"Pakenham, Victoria",Australia
193,99.1213165,10.4969645,,1141652767787741184,2020-05-14 20:18:15,,city,", ",
222,106.689866,-6.1749410000000005,BUNGKUS MARTABAK,1141652999225278466,2020-05-08 16:34:39,,poi,McD Sarinah,Indonesia
171,121.320718,14.056015499999999,mina's hair extension,1141653206738452480,2020-05-06 08:01:43,,city,"San Pablo City, Calabarzon",Republic of the Philippines
205,-0.6846559999999999,53.595147,Tony collings,1141653248018980864,2020-05-26 10:27:29,"Crosby, England",city,"Crosby, England",United Kingdom
47900,-77.26325200000001,38.900207,OIAC,1141653385,2020-03-10 17:54:45,"Washington, D.C.",city,"Vienna, VA",United States
82,73.03588549999999,19.0967305,Risha Bhavsar,1141653397625626624,2020-03-22 12:54:21,,city,"Navi Mumbai, India",India
88,136.687116,36.506127,,1141653443632721921,2020-02-22 02:42:07, ,city,"Kanazawa-shi, Ishikawa",Japan
178,18.676047,-33.980289,Nkoebe,1141653490542026752,2020-03-05 13:37:34,,city,"Blue Downs, South Africa",South Africa
200,40.5008435,38.8909765,kzlba,1141653763805106177,2020-03-27 20:23:12,"Bingl Merkez, Bingl",city,"Bingl, Trkiye",Trkiye
215,19.759596,-17.912005999999998,Isdor,1141653840560889856,2020-04-20 06:37:37,,poi,Kavango River Lodge,Namibia
96,47.910278000000005,29.328670000000002,,1141654163719446528,2020-02-19 10:47:05,,poi,class  ,Kuwait
205,-1.5391575000000002,53.958474,Hannah Waring (actress),1141654195638099968,2020-03-10 18:47:16,,city,"Pannal, England",United Kingdom
205,-1.216432,54.67899,Natasha-jayne,1141654252915482626,2020-02-24 09:30:20,,city,"Hartlepool, England",United Kingdom
82,72.87424399999999,19.174139999999998,shiv,1141654350,2020-03-31 09:49:03,"Mumbai, India",city,"Mumbai, India",India
35620,-73.80750800000001,40.914286,Ariadne Livaditis,1141654779002855424,2020-02-25 20:25:48,,city,"Pelham, NY",United States
8,-58.379348,-34.649148,DIEGO ,1141654838,2020-04-28 02:01:33,Barracas.,poi,BarracasCity,Argentina
82,80.1344695,27.394039000000003,Shailesh Pratap Singh,1141654917729284096,2020-03-28 04:46:43,,city,"Hardoi, India",India
8,-64.50573,-31.42225,Ivan,1141654998,2020-02-15 17:21:20,Crdoba,city,"Villa Carlos Paz, Argentina",Argentina
222,98.75239599999999,3.6681755,namamuu,1141655225670832128,2020-03-01 16:32:15,unknown,city,"Percut Sei Tuan 1, Indonesia",Indonesia
88,127.71085649999999,26.25399,OKIROCK ,1141655278108069889,2020-02-19 09:54:55, ,city, ,
171,125.36798600000002,6.1673170000000015,K,1141655372668665856,2020-03-18 04:06:57,,city,"Alabel, Soccsksargen",Republic of the Philippines
41740,-117.10498899999999,32.810012,.,1141655406,2020-02-27 07:04:00,in my mental,city,"San Diego, CA",United States
175,41.743687,27.639615999999997,.,1141655486846119936,2020-03-01 09:51:00,,poi,  ,Kingdom of Saudi Arabia
200,29.0052225,41.0213205,Dersimli Cemo,1141655554470883329,2020-04-04 12:31:55,,city,"stanbul, Trkiye",Trkiye
38,-73.4704055,4.0882915,Karen Collazos,1141655683504443392,2020-03-12 19:22:33,"Villavicencio, Colombia",city,"Villavicencio, Colombia",Colombia
162,21.0,52.25,Tomasz Kuriata,114165607,2020-03-06 18:08:23,"Wrocaw, Dzieroniw, Polska",city,"Warszawa, Polska",Polska
65,1.8313495,50.110099,Jessy ,114165619,2020-02-14 00:05:37,"Abbeville, France",city,"Abbeville, France",France
88,141.577589,38.907846,@,1141656766448406528,2020-06-09 12:38:06,,poi, ,Japan
88,139.76426429,35.67052878,@_@,1141657010506588160,2020-03-21 07:10:25,,city,"Chuo-ku, Tokyo",Japan
31080,-118.369645,34.0870095, DJ Joshua D,11416572,2020-04-01 21:56:15,"Los Angeles, CA",city,"West Hollywood, CA",United States
35620,-74.43624,40.448774,Tyrone11,1141657225276076032,2020-02-24 19:35:50,,city,"Milltown, NJ",United States
29820,-115.13516499999999,36.060964500000004,Tyrone11,1141657225276076032,2020-02-26 19:29:24,,city,"Paradise, NV",United States
41860,-122.45269850000001,37.67877950000001,Tyrone11,1141657225276076032,2020-02-28 09:27:11,,city,"Daly City, CA",United States
222,110.350594,-7.8023095,Saraah,1141657525810429952,2020-03-20 04:34:06,Indonesia,city,"Wirobrajan, Indonesia",Indonesia
95,127.6019425,37.003992,effa ,1141657633,2020-04-21 13:32:14,"Eumseong-gun, Republic of Korea",city,"Eumseong-gun, Republic of Korea",Republic of Korea
205,0.014989500000000003,51.4715045,Tom Powell,1141657655301365760,2020-02-18 14:30:00,"Greenwich, London",city,"Greenwich, London",United Kingdom
53,24.7382145,59.42500749999999,Tom Powell,1141657655301365760,2020-02-19 11:09:48,"Greenwich, London",city,"Tallinn, Estonia",Estonia
205,0.014989500000000003,51.4715045,Tom Powell,1141657655301365760,2020-03-04 01:44:19,"Greenwich, London",city,"Greenwich, London",United Kingdom
200,39.7140255,40.9691995,Trimicankz,1141658036362252290,2020-02-19 11:46:07,,city,"Trabzon, Trkiye",Trkiye
41940,-121.8825,37.335676,Narinder Kaur,1141658301194788867,2020-02-14 06:46:20,The Shire,poi,Tommie Smith & John Carlos Lawn,United States
119,-98.429573,19.2652435,Diego,1141658431,2020-06-05 16:28:56,"Puebla, Mxico",city,"San Martn Texmelucan, Puebla",Mexico
175,46.685077,24.7219435,    ,1141659079,2020-03-17 22:33:24,,city,",   ",  
69,-1.5216785,6.688604,DJ FLASH,1141659483887865856,2020-05-26 13:31:31,,city,"Anwuinaso, Ghana",Ghana
222,106.6778875,-6.2026825,Putra,1141659624514306049,2020-02-14 06:55:36,"Kota Tangerang, Banten",city,"Cipondoh, Indonesia",Indonesia
222,110.366928,-7.79056,iyp,1141659677693886464,2020-03-16 15:42:11,,poi,Angkringan Malioboro,Indonesia
88,136.3650685,34.6458025,,1141659726863716352,2020-02-25 11:07:15,,city,"Tsu-shi, Mie",Japan
205,-0.046179000000000005,51.550616999999995,RNRU Homerton Hospital,1141659772573405186,2020-03-24 18:55:51,Homerton Hospital,poi,Homerton Hospital,United Kingdom
222,116.8354115,-1.2568735000000002,r  z  l,1141660105743556608,2020-04-02 13:54:31,"Seoul, Republic of Korea",city,"Balikpapan Tengah, Indonesia",Indonesia
65,0.23288000000000003,49.41946,Diamentouch,114166031,2020-03-24 09:05:16,,city,"Honfleur, France",France
120,100.2873965,5.3667565,macrus ,1141660376,2020-03-16 11:39:03,,city,"Mukim 13 (Paya Terubong), Pulau Pinang",Malaysia
205,-1.2334334999999998,51.75428599999999,KrazeyHazey,1141660486687174656,2020-03-17 09:56:33,"Oxfordshire, England",city,"Oxford, England",United Kingdom
171,121.0311415,14.7108935,jc Yangyang World Domination,1141660658796097537,2020-02-23 11:35:54,Republic of the Philippines,city,"Caloocan City, National Capital Region",Republic of the Philippines
222,110.4265505,-7.068175,REZA,1141660946655371264,2020-02-15 03:42:38,Pekalongan - Semarang,city,"Banyumanik, Indonesia",Indonesia
175,50.055943,26.569495,fadel,1141661083813502977,2020-02-23 09:48:32,,city,"Tarout, Kingdom of Saudi Arabia",Kingdom of Saudi Arabia
205,-0.077341,51.514901,Try To Cook Like Mum,1141661433823989760,2020-02-20 15:02:50,,poi,The St. Botolph Building,United Kingdom
158,168.91808899999998,-44.661488500000004,Try To Cook Like Mum,1141661433823989760,2020-03-19 09:59:29,,city,"Queenstown-Lakes District, New Zealand",New Zealand
205,-0.33706250000000004,51.595833,Try To Cook Like Mum,1141661433823989760,2020-05-06 14:02:21,,city,"Harrow, London",United Kingdom
38,-75.42854548,6.17140366,G-Man,114166146,2020-02-19 20:51:15,,city,"Rionegro, Colombia",Colombia
33100,-80.2592,26.2707,G-Man,114166146,2020-03-29 22:18:25,,city,"Coral Springs, FL",United States
205,-0.1590345,52.8139975,Fun Funky Living at A & B,1141661600526589952,2020-03-18 08:15:47,"Stamford, England",city,"Pinchbeck, England",United Kingdom
82,84.97829300000001,24.778674,Kumar rabi kant,1141661790,2020-04-10 17:23:31,"Gaya, India",poi,HDFC Bank ATM,India
21,-51.1593095,-30.099836,Neusa Pierdona Maitelli,1141662236311719937,2020-05-15 20:38:19,,city,"Porto Alegre, Brazil",Brazil
88,136.687116,36.506127, Brasstek(),1141662249020297217,2020-02-14 11:46:39,,city, ,
82,77.43841,28.626745,Adarsh,1141662390607474688,2020-04-05 16:02:42,,poi,Crossings Republik,India
120,101.69753261,3.16310132,arie soetjipto,114166252,2020-03-12 10:05:26,"T: -6.209266,106.80485",city,"Kuala Lumpur City, Kuala Lumpur Federal Territory",Malaysia
222,106.838734,-6.223312,arie soetjipto,114166252,2020-05-07 03:57:40,"T: -6.209266,106.80485",city,"Setia Budi, Indonesia",Indonesia
222,112.62202099999999,-7.17639,irsyad raharjo,1141662836109664256,2020-06-04 00:26:15,konohagakure,city,"Kebomas, Indonesia",Indonesia
88,139.73951449999998,35.56689400000001,DA_JUN,114166287,2020-02-15 05:14:19,LOVE,city, ,
31080,-117.85108899999999,33.842863,Chaeyonc  ,1141662945375449089,2020-02-24 17:54:06,"Anaheim, CA",city,"Anaheim, CA",United States
88,136.2160935,36.046813,shiibou_1_5,1141663267531526145,2020-04-02 02:28:00, ,city, ,
151,7.0554809999999994,5.476259,mhizzpresh choco,1141663457382752256,2020-03-20 12:45:00,,poi,Owerri Mall,Nigeria
222,112.132365,-8.08732,nay,1141663694088110081,2020-04-28 05:58:27,Indonesia,city,"Sanan Kulon, Indonesia",Indonesia
82,76.64565999999999,12.2844425,Nitin Sagar,1141663851173203968,2020-03-27 17:33:27,,city,"Mysore, India",India
200,36.854238,37.576879999999996,Mehmet Burakhan Grnmez,1141663984900292609,2020-03-12 20:59:18,REPUBLIC KAHRAMANMARA,poi,TEKEREK MAHALLES,Turkey
65,5.1825975,46.209747,carole,114166405,2020-02-20 06:47:53,st denis les bourg,city,"Saint-Denis-ls-Bourg, France",France
82,80.1589465,23.115596,Ayushi Shrivastava,1141664066550714368,2020-03-22 14:59:33,Delhi,city,"Jabalpur, India",India
178,27.4728735,-26.912771000000003,Gman Soul,1141664207773011969,2020-05-05 19:52:56,,city,"Parys, South Africa",South Africa
21,-43.441578,-22.911421500000003,M,1141664405102518273,2020-02-26 19:01:00,,city,"Rio de Janeiro, Brasil",Brasil
96,47.900290999999996,29.316065999999996, .,1141664449994121216,2020-06-10 06:05:18,,poi, ,Kuwait
65,4.8422,45.7597,douunia ,1141664989658456064,2020-03-12 14:47:34,"Lyon, France",city,"Lyon, France",France
96,47.713665999999996,29.318407500000003,~,1141665008763494400,2020-03-14 10:53:59, ,city,"Saad Al Abdullah, Kuwait",Kuwait
82,77.095086,28.638489500000002,Rakesh Roy,1141665172857266176,2020-02-20 04:06:05,"Bhagalpur, India",city,"New Delhi, India",India
173,39.8704135,57.65081, ,1141665236694589440,2020-05-22 09:45:57,,city,", ",
42660,-122.3306025,47.614816999999995,Ric,1141665265,2020-02-16 18:04:49,"University District, Seattle",city,"Seattle, WA",United States
38900,-122.630908,45.536402,Ric,1141665265,2020-03-14 22:38:03,"University District, Seattle",city,"Portland, OR",United States
42660,-122.3306025,47.614816999999995,Ric,1141665265,2020-03-16 01:15:10,"University District, Seattle",city,"Seattle, WA",United States
193,99.9087295,14.337403,Democ,1141665466147958790,2020-03-05 13:37:18,,city,"Yung Thalai, Thailand",Thailand
69,-1.612222,6.693627,NaNa kojo Alpha,1141665669970300928,2020-05-18 17:41:59,Kuamsi ,city,"Kumasi, Ghana",Ghana
222,110.2701399,-7.457378200000001,Elfiyani Fauziyah,1141665732305903617,2020-05-05 09:11:15,"Magelang, Jawa Tengah",city,"Tegalrejo, Indonesia",Indonesia
9,153.16751000000002,-27.62583,Adam Tiyce,114166620,2020-05-30 06:38:24,"Brisbane, Australia",city,"Brisbane, Queensland",Australia
82,77.095086,28.638489500000002,Virender Dahiya,1141666378501492736,2020-02-17 00:43:23,BARONA. .Harayana ,city,"New Delhi, India",India
222,103.907303,-2.5983389999999997,Do Kyungsoo ,1141666512433905664,2020-02-15 02:24:14,"Kota Palembang, Sumatera Selat",city,"Keluang, Indonesia",Indonesia
9,150.931975,-33.848244,neil hammoude,1141666569426067457,2020-03-04 02:38:27,"Sydney, New South Wales",city,"Sydney, New South Wales",Australia
50,31.249709000000003,30.050058,samaa.,1141666626997297153,2020-03-08 09:57:49,,poi,Cairo Le Meridian Hotel,Egypt
200,26.4096465,40.131109499999994,Aynur Can,114166665,2020-03-17 04:51:50,,city,"anakkale, Trkiye",Trkiye
82,76.6516685,10.8057815,Hemanth Sreekumar,114166687,2020-03-06 09:59:59,India,city,"Pallakad, India",India
171,121.67015149999999,17.569698000000002,Jre,1141667174588669952,2020-03-09 11:02:27,"Enrile, Cagayan Valley ",city,"Enrile, Cagayan Valley",Republic of the Philippines
175,46.688508,24.787432,  ,1141667208030015490,2020-02-19 18:33:16,"Riyadh, Kingdom of Saudi Arabi",poi,   | Midan Alsham,Kingdom of Saudi Arabia
88,136.51890300000002,34.893414,,1141667721953726464,2020-02-16 14:19:29,,city,"Suzuka-shi, Mie",Japan
21,-43.272088000000004,-22.8615,im pereira,1141667736768208897,2020-02-26 14:30:14,,poi,Telefrico do Alemo - Estao Itarar,Brasil
151,8.527467000000001,12.005,mohd peace,1141667856788197377,2020-02-21 07:25:02,"Hadejia, Nigeria",city,"Kano, Nigeria",Nigeria
88,139.7820505,35.739796500000004,,1141667895480471552,2020-02-14 04:27:37,,city, ,
21,-43.959822499999994,-19.918692,Kleverson Leo,1141667992473919489,2020-05-12 17:23:28,"Belo Horizonte, Brasil",city,"Belo Horizonte, Brasil",Brasil
205,-2.23348,53.4569525,Patrick,1141668000313028608,2020-04-01 15:27:14,,city,"Manchester, England",United Kingdom
88,136.90866530000002,35.12668309,,114166840,2020-03-02 04:50:49,,city,  ,
19740,-104.9220935,39.713563,BISH,1141668552,2020-02-21 04:46:37,"Denver, CO",city,"Denver, CO",United States
33100,-80.09317999999998,26.456147499999997,BISH,1141668552,2020-03-25 20:07:19,"Denver, CO",city,"Delray Beach, FL",United States
19740,-104.9220935,39.713563,BISH,1141668552,2020-04-10 23:19:23,"Denver, CO",city,"Denver, CO",United States
205,-2.7219439999999997,55.595674,daniela,1141668956526321664,2020-02-24 08:43:22,"Melrose, Scotland",city,"Melrose, Scotland",United Kingdom
186,-1.987711,43.2778715,Paula Rodrguez,1141669069051109378,2020-02-18 15:01:15,,city,"San Sebastin, Espaa",Espaa
151,7.7168785,11.1143145,Saifullah Kauranwali,1141669190627209217,2020-02-28 09:03:39,"Kudan, Nigeria",city,"Sabon-Gari, Nigeria",Nigeria
171,125.4432615,7.317582499999999,peyyout,1141669329550757890,2020-02-15 09:41:29,"Davao City, Davao Region",city,"Davao City, Davao Region",Republic of the Philippines
82,78.774968,10.075938,mekha,1141669352900419586,2020-05-28 08:07:53,"Madurai , Karaikudi",poi,Pandian cinemas,India
95,127.01182902,37.47926214,Euna,114166942,2020-03-26 04:04:07,"Seoul, Korea",city, ,
14460,-71.05675,42.321483,,1141669498031882240,2020-03-20 14:02:41,"Boston, MA",poi,Sugar Bowl,United States
39300,-71.390321,41.764587,,1141669498031882240,2020-04-14 22:14:18,"Boston, MA",poi,Rim Nahm,United States
14460,-71.0887125,42.3136695,Sydney,1141669498031882240,2020-06-11 13:10:27,"Boston, MA",city,"Boston, MA",United States
21,-39.1944855,-14.514651999999998,Tarcila ,1141669620107108353,2020-03-14 14:20:39,"Uruuca, Brasil",city,"Uruuca, Brasil",Brasil
21,-38.4141355,-12.0983055,,1141669762168172546,2020-05-03 01:41:08,Brasil,city,"Alagoinhas, Brasil",Brasil
88,139.745379,35.652789,943200,1141669794489327616,2020-06-05 23:25:27,(*),city,"Minato-ku, Tokyo",Japan
82,89.4670025,26.6310105,Riangshu Roy,1141669800961118209,2020-05-09 02:45:19,"West Bengal, India",city,"Alipurduar, India",India
189,17.980058999999994,59.333671,Roa,1141670854855708673,2020-02-18 04:06:41,Serbien,city,"Stockholm, Sverige",Sverige
82,80.228206,13.066614,Prabu Maharajan,1141670976708435969,2020-02-24 13:02:46,,city,"Egmore Nungambakkam, India",India
88,136.45817,35.204732,,1141671062339330048,2020-02-14 07:33:03,,poi,,
65,2.347003,48.8588335,Seyba Camara,1141671104764895237,2020-04-01 14:33:35,,city,"Paris, France",France
175,42.173123,27.9120315, ,1141671576,2020-02-14 08:46:51,,city,",   ",  
222,103.8641995,-2.2400721000000003,,1141672875293700102,2020-06-03 05:11:50,,city,"Bayung Lencir, Indonesia",Indonesia
205,-2.5853900000000003,51.457877,Lawrence Bowden,114167297,2020-03-13 08:24:48,Bristol,city,"Bristol, England",United Kingdom
21,-40.501347499999994,-7.630905,Honrio Alencar,1141673204429275137,2020-04-15 15:09:14,"Araripina, Brasil",city,"Araripina, Brasil",Brasil
82,82.540088,26.4336605,Narendra Kumar Jaiswal,1141673222238326795,2020-02-21 07:07:48,,city,"Akbarpur, India",India
88,139.273675,35.972570000000005,,114167338,2020-02-23 02:53:12,,poi,,
82,75.74752099999999,26.909683,Chetanya Vashisth,1141673589256515584,2020-04-16 18:58:52,"Jaipur, India",city,"Jaipur, India",India
222,112.44381750000001,-7.4647875,fintul,1141673626371940352,2020-04-04 10:10:59,"Jombang, Indonesia",city,"Mager Sari, Indonesia",Indonesia
171,121.104887,14.646970999999999,aisha kimi,1141673671699959809,2020-02-17 16:14:36,,city,"Marikina City, National Capital Region",Republic of the Philippines
50,32.54694,29.970053000000004,,1141673774607192064,2020-02-29 15:23:21,Egypt,poi,BANQUE  MISR,Egypt
151,3.3386055,6.4931125000000005,Blqck ,1141673843049881601,2020-02-14 20:53:44,,city,"Lagos, Nigeria",Nigeria
200,31.830576,36.5968065,Yasemin Koak,1141673856131842050,2020-04-14 18:54:41,,city,"Alanya, Trkiye",Trkiye
222,110.58969750000001,-7.9814515,Pil,1141673870480379906,2020-02-15 12:10:58,Yogyakarta,city,"Wonosari, Indonesia",Indonesia
205,-3.1798,51.4970015,Only Time Will Tell: A Father's Journey,1141673889329745921,2020-02-27 09:52:29,"Cardiff, Wales",city,"Cardiff, Wales",United Kingdom
82,78.48587599999998,28.918439000000003,Mairaj Ali,1141673956891668480,2020-03-29 09:02:40,,city,"Amroha, India",India
85,8.880844999999999,44.449498999999996,Maurizio Forlini,1141674016836657155,2020-02-16 08:51:25,"Genova, Liguria",city,"Genova, Liguria",Italia
88,135.70060999999998,34.9492495,san,1141674037480841217,2020-03-26 09:51:45,,city,"Muko-shi, Kyoto",Japan
175,39.2541285,21.5857105,   ,1141674184172552195,2020-02-21 05:02:15,"Jeddah, Kingdom of Saudi Arabi",city,"Jeddah, Kingdom of Saudi Arabia",Kingdom of Saudi Arabia
42340,-81.149725,32.0395223,Esther Udochukwu,1141674691159085060,2020-04-18 03:53:57,United States,city,"Savannah, GA",United States
171,121.0627355,14.683012,zai zai,1141674841495334912,2020-04-10 19:36:50,,city,"Quezon City, National Capital Region",Republic of the Philippines
205,-2.5853900000000003,51.457877,Brush up and Blush up,1141674923540324353,2020-02-15 10:09:27,"Bristol, England",city,"Bristol, England",United Kingdom
205,-2.4692695,50.6274375,robert mills,114167493,2020-02-26 22:05:44,weymouth,city,"Weymouth, England",United Kingdom
87,43.043279999999996,36.845693,yasser,1141675259629834241,2020-04-23 19:15:29,Iraq,poi,Duhok,Iraq
171,124.364228,7.0061035,hoe,1141675467969191936,2020-02-23 08:52:55,,city,"Datu Anggal, Autonomous Region Of Muslim Mindanao",Republic of the Philippines
82,78.5982595,17.365102999999998,omshekar,1141675515276750850,2020-03-13 16:34:39,Sri Ram Colony,city,"Hayathnagar, India",India
222,110.35186850000001,-7.8559135,L I O N Y,1141675647896449024,2020-02-14 04:33:43,"Yogyakarta, Indonesia",city,"Sewon, Indonesia",Indonesia
222,107.678881,-6.921403,arif nursyabani,1141675905367961600,2020-02-23 13:44:02,"Bandung, Indonesia",city,"Arcamanik, Indonesia",Indonesia
40140,-117.21792,33.921924000000004,Valerie,1141675911902711809,2020-02-22 02:13:30,,city,"Moreno Valley, CA",United States
46520,-157.799589,21.3199435,Sabre+.+,1141675970685890562,2020-02-15 11:09:10,"Honolulu, HI",city,"Honolulu, HI",United States
28660,-97.6547945,31.053384499999996,Frank Montez,1141676012968861698,2020-05-01 12:58:36,,city,"Harker Heights, TX",United States
82,75.74752099999999,26.909683,jitendra bhardwaj,1141676048779599872,2020-03-09 03:24:58,"Mumbai, India",city,"Jaipur, India",India
88,132.704328,33.828951,,114167614,2020-06-10 23:36:54,,poi, (Matsuyama Airport) (MYJ),
222,106.85680900000001,-6.225842,Avail Exclude Tebet,1141676504545296384,2020-02-14 02:10:29,Jakarta,city,"Tebet, Indonesia",Indonesia
57,15.78661956,47.671056899999996,Bernhard Kirschner,114167657,2020-03-14 14:35:31,Kirchbach,city,"Reichenau an der Rax, sterreich",sterreich
191,9.65865,47.426319899999996,Bernhard Kirschner,114167657,2020-03-25 19:25:09,Kirchbach,city,"Lustenau, sterreich",sterreich
57,15.43671864,47.14293514,Bernhard Kirschner,114167657,2020-05-10 18:17:13,Kirchbach,city,"Stattegg, sterreich",sterreich
88,130.97350799999998,34.142483,naoyo,1141676967554473984,2020-03-08 12:22:49,,city,"Shimonoseki-shi, Yamaguchi",Japan
120,117.6445355,4.4774199999999995,adli.,1141677452923555840,2020-05-28 05:33:06,,city,"Tawau, Sabah",Malaysia
17980,-84.917307,32.4823035,Shennard Pursley,1141677697,2020-03-06 16:36:36,Colga,city,"Columbus, GA",United States
205,-2.1540125000000003,53.0193965,Dave Ball,1141677890762891264,2020-05-25 18:52:03,,city,"Stoke-on-Trent, England",United Kingdom
175,46.946701000000004,24.492314,Mubarak Alhajeri,1141678006924128256,2020-02-26 12:35:31,Kuwait,poi,   - King Khalid Airport,  
96,47.961287,29.251901,Mubarak Alhajeri,1141678006924128256,2020-02-28 17:12:28,Kuwait,poi,Terminal 4, 
222,109.38826040000001,-6.881105499999999,lio,1141678656571396097,2020-02-29 06:50:41,,city,"Pemalang, Indonesia",Indonesia
88,140.98121099999997,42.3691095,,1141679090077802496,2020-05-13 12:15:49,,city, ,
38,-76.49608,3.364182,Herlobert,1141679113771593728,2020-05-16 17:23:34,,city,"Candelaria, Colombia",Colombia
171,121.0627355,14.683012,patwick #DefendPressFreedom,1141679195535204352,2020-05-06 13:03:32,"Quezon City, Manila",city,"Quezon City, National Capital Region",Republic of the Philippines
88,139.61948700000002,35.513121000000005,@,1141679213021241344,2020-02-20 09:35:06,,poi,3,Japan
175,49.6276765,25.458642,.,1141679600046616576,2020-06-02 21:38:10,"Los Angeles, CA",city,"Ahsa, Kingdom of Saudi Arabia",Kingdom of Saudi Arabia
71,8.636605500000002,50.1212355,   Chhiwat Oum sara,1141679748994818048,2020-02-17 23:00:30,"Frankfurt on the Main, Germany",city,"Frankfurt am Main, Deutschland",Deutschland
82,88.352242,22.6127055,Sital Das,1141679888446840834,2020-03-21 07:51:22,,city,"Kolkata, India",India
171,123.71763600000001,13.150132000000001,droodrooooo,1141679999021248512,2020-02-29 07:21:15,,poi,"Daraga, Albay",Republic of the Philippines
35620,-73.9685415,40.780709,Prettier Than U!!!!,114168013,2020-02-25 08:13:46,"Bakersfield, CA",city,"Manhattan, NY",United States
171,124.09827,13.671694,katyyyyy,1141680290454130688,2020-06-05 09:41:38,,city,"San Andres, Bicol Region",Republic of the Philippines
171,120.96262050000001,14.115378,Neneng B,1141680334108446721,2020-04-30 00:00:45,,city,"Tagaytay, Calabarzon",Republic of the Philippines
21,-38.0293165,-5.2996,Ccero neto da silva gmaiil.com,1141680738900819969,2020-03-02 16:06:21,,city,"Tabuleiro do Norte, Brasil",Brasil
175,46.612441,24.806285,N,1141680916663820288,2020-02-23 13:48:19,"Riyadh, Kingdom of Saudi Arabia",poi,8Oz Speciality Coffee,Kingdom of Saudi Arabia
88,139.611583,35.314403000000006,AzzHate99,1141681074579206146,2020-02-18 03:16:18,,city,  ,
88,139.7091805,35.701657,,1141681156783427585,2020-02-16 08:59:02,2931,city,"Shinjuku-ku, Tokyo",Japan
15180,-97.49916800000001,25.90612,ireland,1141681459,2020-02-28 08:18:54,w my fav ,poi,Washington Park,United States
32580,-98.152419,26.3475255,ireland,1141681459,2020-02-28 18:20:52,w my fav ,city,"Edinburg, TX",United States
15180,-97.477426,25.972105499999998,ireland,1141681459,2020-02-29 00:42:45,w my fav ,city,"Brownsville, TX",United States
32580,-98.152419,26.3475255,ireland,1141681459,2020-03-01 14:36:56,w my fav ,city,"Edinburg, TX",United States
15180,-97.477426,25.972105499999998,ireland,1141681459,2020-03-01 21:47:45,@ the beach w my fav ,city,"Brownsville, TX",United States
32580,-98.0619645,26.1891085,ireland,1141681459,2020-03-02 18:02:26,@ the beach w my fav ,city,"Donna, TX",United States
15180,-97.477426,25.972105499999998,ireland,1141681459,2020-03-03 04:43:45,@ the beach w my fav ,city,"Brownsville, TX",United States
32580,-98.152419,26.3475255,ireland,1141681459,2020-03-04 19:43:52,@ the beach w my fav ,city,"Edinburg, TX",United States
15180,-97.477426,25.972105499999998,ireland,1141681459,2020-03-04 22:56:48,@ the beach w my fav ,city,"Brownsville, TX",United States
32580,-98.152419,26.3475255,ireland,1141681459,2020-03-05 19:40:47,@ the beach w my fav ,city,"Edinburg, TX",United States
15180,-97.477426,25.972105499999998,ireland,1141681459,2020-03-06 00:42:53,@ the beach w my fav ,city,"Brownsville, TX",United States
32580,-97.91102149999999,26.1492485,ireland,1141681459,2020-03-12 19:51:20,somewhere w u ,city,"Mercedes, TX",United States
15180,-97.477426,25.972105499999998,ireland,1141681459,2020-03-12 20:27:48,somewhere w u ,city,"Brownsville, TX",United States
200,26.4096465,40.131109499999994,N ,1141681497885302784,2020-03-01 14:41:16,Baclar / anakkale ,city,"anakkale, Trkiye",Trkiye
33100,-80.32799849999999,26.0278895,Ma. Eugenia Chamorro,1141681623987085312,2020-03-26 09:22:24,,city,"Pembroke Pines, FL",United States
167,51.401427000000005,25.317956,AliAlhajri,1141681770150187008,2020-02-24 15:17:23,,poi, ,Qatar
171,121.08213799999999,14.303894,Ruthy,1141682005697896451,2020-02-29 00:07:51,"Santa Rosa City, Calabarzon",poi,Brent International School,Republic of the Philippines
88,140.1350115,35.393048, a.k.a ,1141682233268289542,2020-02-15 17:04:05,,city,"Ichihara-shi, Chiba",Japan
200,32.844496,39.915073,Hs,1141682337010409474,2020-06-02 19:03:50,"Ankara, Trkiye",poi,Hava Kuvvetleri Komutanl,Trkiye
191,8.609193000000001,46.538752,Norman Gobbi,114168255,2020-02-16 05:50:22,Ticino - Svizzera,city,"Airolo, Svizzera",Svizzera
19100,-97.1031385,33.030083000000005,Sharon White,1141682618364309504,2020-04-19 20:14:21,,city,"Flower Mound, TX",United States
9,115.75891558,-32.36415147,Port Kennedy Auto Parts & Batteries,1141683063044227072,2020-03-29 21:52:51,"Port Kennedy, Perth (WA)",city,"Perth, Western Australia",Australia
175,46.685077,24.7219435,Yan Yan Diaz Isla,1141683157986467840,2020-04-12 11:12:42,,city,"Riyadh, Kingdom of Saudi Arabia",Kingdom of Saudi Arabia
21,-43.0596095,-22.904549000000006,R10 do mirante,1141683172268265473,2020-02-14 01:12:24,complexo do caramujo ,city,"Niteri, Brasil",Brasil
200,36.754856,40.680153000000004,Ahmet Yldrm,1141683279462092803,2020-04-17 15:39:56,"Amasya, Trkiye",poi,Alakbel yaylas,Trkiye
82,78.48394350000001,17.4314645,Y Pankaj Bhatti,1141683339864104960,2020-04-16 16:33:03,,city,"Medchal, India",India
29740,-106.74965949999999,32.274336500000004,,1141683368,2020-03-05 05:35:59,UAE / US,city,"University Park, NM",United States
151,7.171363,4.469734,cokoinfomedia,1141683595939069952,2020-04-30 16:42:59,Bonny Island,poi,Bonny River Nigeria,Nigeria
26420,-95.4464865,29.838495,Joshua McMillan,1141683824,2020-02-15 04:24:09,"Houston, TX",city,"Houston, TX",United States
12420,-97.8083795,30.455692,Joshua McMillan,1141683824,2020-02-26 00:24:38,"Houston, TX",city,"Anderson Mill, TX",United States
26420,-95.4464865,29.838495,Joshua McMillan,1141683824,2020-03-01 02:50:28,"Houston, TX",city,"Houston, TX",United States
242,120.66838999999999,24.14819,,1141683871,2020-03-04 08:49:23,TPE,city,", ",
171,121.4349335,14.5084745,celestine,1141683979545825281,2020-05-13 10:20:26,capt,city,"Santa Maria, Calabarzon",Republic of the Philippines
200,28.2565755,36.8771255,Mervewith,1141684137243361280,2020-05-12 22:27:24,"Bolu, Trkiye",city,"Marmaris, Trkiye",Trkiye
200,34.660455,36.8196825,mihrii,1141684211843248128,2020-04-18 12:44:20,Mersin,city,"Mersin, Trkiye",Trkiye
88,139.772183,35.699864,Cafe,1141684240687353856,2020-02-15 13:40:42,(),poi, ,
71,7.420488000000001,51.493789,citiesr4living,1141684240830144513,2020-03-05 13:56:14,"Dortmund, Germany",poi,FH Dortmund - FB Informatik,Deutschland
8,-58.53773138,-34.87472158,Funes Ulises,1141684358,2020-03-26 05:02:08,"Jos Mara Ezeiza, Argentina",city,"Jos Mara Ezeiza, Argentina",Argentina
88,139.633489,35.607655,,1141684388364636161,2020-02-17 04:52:23,,poi,,
87,44.098764,36.168314,Hisham Yashar,1141684469897842693,2020-04-18 11:59:34,,poi,Erbil/Irak,Iraq
21,-44.5230265,-22.441994,.,1141684579641810947,2020-02-16 02:40:11,,city,"Resende, Brasil",Brasil
120,101.65226700000001,2.918083,Awan Biru Kitchen,1141684714706653184,2020-06-04 02:26:28,,poi,Awan Biru Kitchen,Malaysia
222,106.8022175,-6.18947,Finnn (Sundanese girl),1141684764832702469,2020-02-27 12:08:45,Jakarta Capital Region,city,"Palmerah, Indonesia",Indonesia
200,31.7368705,38.8113305,Betl Yanar,1141684773225734144,2020-03-25 05:10:30,"Konya, Trkiye",city,"Yunak, Trkiye",Turkey
171,121.23552600000001,14.524284,abcdjkslp,1141685109025693696,2020-02-15 04:11:46,,poi,Tomas Claudio Memorial College,Republic of the Philippines
82,78.00876,30.320672499999997,Md Abrar Khan,1141685187551490048,2020-04-25 21:35:39,,city,"Dehradun, India",India
38900,-122.630908,45.536402,luosijia0000,1141685283676536833,2020-05-03 13:30:54,,city,"Portland, OR",United States
82,78.1433485,9.9630895,Madurai 180*,1141685497107927045,2020-02-16 12:50:49,"Madurai South, India",city,"Madurai North, India",India
205,-0.017990000000000003,51.454107,CEO of DTN,1141685559754219521,2020-04-23 00:15:48,"Lewisham, London",city,"Lewisham, London",United Kingdom
171,126.3332905,8.1782015,NM Nemrac,1141685642511781888,2020-02-19 13:48:34,,city,"City Of Bislig, Caraga",Republic of the Philippines
21,-48.45979749999999,-1.2729295,moon',1141685844375408641,2020-05-02 19:11:12,Come meu cu pfvr @t3nnct,city,"Belm, Brasil",Brasil
222,106.793356,-6.483147,sayang hangyul.,1141686038412197891,2020-03-01 10:36:39,Kab. Subang,poi,Pemda cibinong,Indonesia
35620,-73.9487755,40.655138,kostas Matsangos,1141686384,2020-05-01 22:41:48,,city,"Brooklyn, NY",United States
205,-2.128075,53.260459999999995,Laura | Lifestyle Blogger,1141686426226122752,2020-03-11 11:00:34,"Cheshire, England",poi,The Rustic Coffee Co,United Kingdom
161,73.06521592,33.69386247,Laura | Lifestyle Blogger,1141686426226122752,2020-05-07 22:28:31,"Cheshire, England",city,"Islamabad, Pakistan",Pakistan
205,-2.1048896,53.29907829999999,Laura | Lifestyle Blogger,1141686426226122752,2020-05-22 13:14:55,"Cheshire, England",city,"Bollington, England",United Kingdom
205,-2.8793305,53.35825850000001,Whelan Pest Prevention Liverpool,1141686485965516800,2020-02-15 16:46:27,"Widnes, England",city,"Garston, England",United Kingdom
96,47.988194,29.373265999999997, ,1141686592635101184,2020-02-22 17:38:09,Kuwait,city,"Al Mirqab, Kuwait",Kuwait
82,86.557712,23.844553,Siddharth Sharma,1141686596405567488,2020-03-13 11:24:09,,city,"Dhanbad, India",India
222,112.02029499999999,-7.8286929999999995,Dianaayusuf,1141686605402427392,2020-05-06 12:53:50,"Tangerang, Banten",city,"Kota Kediri, Indonesia",Indonesia
88,141.4078,43.0944955,47,114168666,2020-02-18 13:50:37,  ,city,  ,
29620,-84.55789899999998,42.712049,Terry,1141686696679038979,2020-03-22 12:11:20,,city,"Lansing, MI",United States
21,-43.1975,-22.908,Black Visionrio,114168687,2020-02-17 14:16:56,Rio de Janeiro,city,"Rio de Janeiro, Brasil",Brasil
120,101.1800865,4.258837000000001,xxqaaxx,1141686890891894787,2020-02-29 01:08:53,Malaysia,city,"Chenderiang, Perak",Malaysia
88,130.7487335,33.8342865,Reeeon/YOUTUBE,1141686906918330369,2020-05-08 07:43:33,,city,  ,
21,-38.3284335,-12.8563165,@Anarcofeminista,1141687223378677760,2020-04-02 17:00:07,,city,"Lauro de Freitas, Brasil",Brasil
33100,-80.2333285,25.7823535,Kay McCabe,1141687335798673408,2020-03-18 23:17:31,"Knoxville, TN",city,"Miami, FL",United States
12060,-84.35520749999999,33.6178565,Kay McCabe,1141687335798673408,2020-03-26 02:46:44,"Knoxville, TN",city,"Forest Park, GA",United States
28940,-83.9638415,35.982470500000005,Kay McCabe,1141687335798673408,2020-03-26 23:07:58,"Knoxville, TN",city,"Knoxville, TN",United States
222,106.809173,-6.2445845,Fachrizal Akbar,114168739,2020-02-27 11:30:46,Allah's Earth,city,"Kebayoran Baru, Indonesia",Indonesia
171,120.9839865,14.5914565,,1141687413967708160,2020-03-24 06:29:22,sa bahay ng crush q,city,"Manila City, National Capital Region",Republic of the Philippines
171,126.2242605,6.700627000000001,Madam Katie ,114168748,2020-02-15 06:30:56,philippines,city,"City of Mati, Davao Region",Republic of the Philippines
162,22.884965,51.302143,Borys Pandov #FBPE ,1141687813664137216,2020-05-22 18:38:22,Polska,city,"czna, Polska",Polska
82,80.9,25.2,Thakur Vikrant Singh,1141687988390207488,2020-03-29 02:22:41,"Chitrakoot Dham, India",city,"Chitrakoot Dham, India",India
96,48.03156724,29.32640313,,1141688006748844033,2020-02-17 15:32:33,"Salwa, Kuwait",city,"Al Jabriyah, Kuwait",Kuwait
193,100.369407,13.7821895,porn somchit,1141688095231733760,2020-03-31 06:56:47,,city,", ",
51,-7.41628647,53.05999312,Sam Moody,114168833,2020-05-20 19:39:05,Ireland,city,"Laois, Ireland",Ireland
21,-51.73088,-17.904707000000005,luizz,1141688580873621504,2020-04-14 02:46:44,Jatas,city,"Jata, Brasil",Brasil
154,83.957359,28.210389000000003,Abhi,1141688880049074177,2020-03-03 05:20:18,,poi,Phewa Tal / Fewa Lake,Nepal
30,106.528655,29.577044,CDMMinner,1141689157313368064,2020-05-30 20:36:32,People's Republic of China,poi,,
205,0.07886299999999999,51.58499000000001,Aroon the Baboon,1141689176036913152,2020-04-20 18:38:05,"London, England",city,"Ilford, London",United Kingdom
88,135.57433,34.408054,,1141689196865708033,2020-02-29 17:04:41,,city,"Kawachinagano-shi, Osaka",Japan
55,-89.2124635,13.681588,Rafael Carpio,1141689284774236161,2020-05-20 02:23:15,,city,"Aguilares, El Salvador",El Salvador
222,113.811415,-7.911866000000001,Nala Faradika N,1141689355,2020-03-05 23:33:23,  Sidoarjo,city,"Bondowoso, Indonesia",Indonesia
175,43.100372,17.256104999999998, ,1141689817320890373,2020-04-23 22:52:18,,poi,,  
113,-9.5820285,30.422609,Habbou Moha,1141689832269369349,2020-04-15 22:11:44,,city,"Agadir, Royaume du Maroc",Royaume du Maroc
200,31.13889566,40.85057616,A.S.K.,114168994,2020-03-03 04:35:01,stanbul / Sakarya,city,"Dzce, Trkiye",Trkiye
80,19.129828,47.4812305,rem ARABACI,1141690074100314113,2020-05-27 07:38:52,"Bolu, Trkiye",city,"Budapest, Hungary",Hungary
178,28.184066499999997,-25.752605499999998,Koketso,1141690358377721858,2020-04-06 12:41:58,,city,"Pretoria, South Africa",South Africa
88,139.65879750000002,36.0221085,,1141690423653441536,2020-03-18 09:25:15,,city,"Shiraoka-machi, Saitama",Japan
60,23.8303145,61.631931,Iivari Kunttu,1141690450199363584,2020-02-18 16:53:33,,city,"Tampere, Finland",Finland
82,78.6637835,23.7715545,Shriom singh thakur,1141690458399051777,2020-02-14 03:18:07,"Jabalpur, India",city,"Sagar, India",India
21,-43.441578,-22.911421500000003,Marli Rigo,1141690535989657600,2020-05-05 14:32:34,,city,"Rio de Janeiro, Brazil",Brazil
21,-44.3025505,-2.6292855,Weslley Wirlley,1141690595439796224,2020-02-22 15:32:20,,city,"So Lus, Brazil",Brazil
51,-6.395643,53.90604200000001,michael floyd,1141691084831154178,2020-04-05 07:45:25,,city,"Louth, Ireland",Ireland
71,7.2437725,51.6639625,Emirhan Talha Dnmez,1141691192582770688,2020-02-21 17:49:19,"Kln, Deutschland",city,"Oer-Erkenschwick, Deutschland",Germany
193,101.2758815,12.672839999999999,,1141691204016324608,2020-04-04 16:06:30,,city,"Tha Pradu, Thailand",Thailand
82,94.0219225,24.6142635,Bicky Elangbam,1141691437496410112,2020-04-08 07:21:44,singjamei,city,"Thoubal, India",India
178,18.6858265,-34.039671500000004,MAYANGA,1141691445931364352,2020-03-12 18:11:00,"Khayelitsha, South Africa",city,"Khayelitsha, South Africa",South Africa
151,3.3028989999999996,6.6249460000000004,Blossoming,1141691735787167745,2020-03-05 14:08:46,,poi,NYSC Camp (Lagos),Nigeria
128,4.3581900000000005,51.2605565,Jun Ishiwata,1141691748,2020-02-18 11:56:43,,city,"Antwerpen, Belgi",Belgi
151,3.3180660000000004,6.590611,Viutu Kuju,1141691778074066944,2020-04-20 23:21:07,"Ibadan, Nigeria",city,"Ikeja, Nigeria",Nigeria
171,121.18178200000001,13.939445000000001,onin,1141691947070844933,2020-03-21 13:40:01,"Lipa City, Calabarzon",city,"Lipa City, Calabarzon",Republic of the Philippines
193,100.7983925,13.580281500000002,benz,1141692227577470979,2020-03-07 02:23:52,", ",city,", ",
12260,-82.063185,33.4407175,Derrick Willard,1141692234007556097,2020-02-18 13:08:00,"Augusta, GA",city,"Augusta, GA",United States
82,77.095086,28.638489500000002,Maanya Vaidyanathan,1141692254886617088,2020-02-26 12:53:19,"New Delhi, India",city,"New Delhi, India",India
26420,-95.4464865,29.838495,Alexis-WATCH TFATWS AUG 2020,1141692664129249285,2020-02-26 23:34:29,"Houston, TX",city,"Houston, TX",United States
38,-76.25091950000002,4.132556500000001,julian Mena,1141692691232776192,2020-04-13 20:40:53,,city,"Andaluca, Colombia",Colombia
205,-0.147047,51.516096999999995,VETS (Veterans Employment Transition Support),1141692708907565057,2020-03-10 14:10:09,United Kingdom,poi,Royal Society of Medicine,United Kingdom
186,-4.852206000000002,39.952182,Enrique Bolaos Higueruela,1141692792336506882,2020-04-02 18:48:57,"Talavera de la Reina, Espaa",city,"Talavera de la Reina, Spain",Spain
205,-4.2417515,55.85830249999999,Springburn Home Economics,1141692964982444032,2020-03-30 10:40:35,"Glasgow, Scotland",city,"Glasgow, Scotland",United Kingdom
21,-45.506655,-23.0860165,Radio do Sonho,1141693009928577024,2020-03-08 23:04:29,Taubat - Terra de Adoradores,city,"Taubat, Brasil",Brasil
164,-8.559379499999999,37.938144,Vilson Fernandes,1141693032636571648,2020-03-08 21:59:47,"Santiago do Cacm, Portugal",city,"Santiago do Cacm, Portugal",Portugal
186,2.1412275000000003,41.392657,RA B. (Ramn Ballester),1141693825276162048,2020-02-15 08:51:21,"Barcelona, Espaa",city,"Barcelona, Espaa",Espaa
51,-6.05506911,53.37072262,owensie,114169397,2020-03-03 21:54:54,"Dublin City, Ireland",city,"Fingal, Ireland",Ireland
82,70.89601250000003,22.2624275, ,1141694100,2020-05-09 04:24:55,,city,"Rajkot, India",India
171,120.9873905,14.8512035,,1141694214389919745,2020-05-27 13:13:01,,city,"Santa Maria, Central Luzon",Republic of the Philippines
41700,-99.161377,29.353128,Jordan,1141694413527273472,2020-03-12 19:17:08,,city,"Hondo, TX",United States
38,-75.619213,6.270883,Sat UberSex Medellin,1141694475665924097,2020-05-02 18:00:35,,city,"Medelln, Colombia",Colombia
117,58.660166000000004,23.551159,Dhaval Darji,1141694609073926144,2020-02-28 18:30:09,"Mumbai, India",poi,Al Tanoor Resturant Shangri-La,Oman
33980,-76.785101,34.7344145,Bryson Willis,1141694808047702018,2020-03-30 23:35:35,,city,"Morehead City, NC",United States
222,124.8699435,1.4732610000000002,pinq,1141695600573865984,2020-06-06 07:00:11,,city,"Wenang, Indonesia",Indonesia
186,-1.8406345000000002,42.6125805,Maider Oroz,1141695793209970688,2020-05-24 18:22:25,"Madrid, Comunidad de Madrid",city,"Mendigorra, Espaa",Spain
200,30.381503,40.7592495,Aye,1141695823509692416,2020-02-15 18:39:19,,city,"Sakarya, Trkiye",Trkiye
175,46.685077,24.7219435,,1141695924311404545,2020-02-29 16:04:00,",   ",city,"Riyadh, Kingdom of Saudi Arabia",Kingdom of Saudi Arabia
41620,-111.99231699999999,40.6030705,erik humphries,1141696254641987584,2020-04-18 03:57:27,,city,"West Jordan, UT",United States
82,77.499214,13.824413,Dj,1141696276481789953,2020-03-26 14:30:25,,poi,Mayura Ice Cream Parlour,India
119,-100.346074,25.676051,ngeLo,1141696424,2020-02-25 04:16:24,,poi,Mirador del Obispado,Mxico
88,138.59244750000002,35.6888995,4/12,114169645,2020-02-26 11:17:50,,city, ,
222,107.552623,-6.8845795,fik,1141696685485121536,2020-03-09 12:39:09,,city,"Cimahi Tengah, Indonesia",Indonesia
88,139.76817063,35.70752536,akiw),114169688,2020-02-17 04:01:29,,city, ,
82,73.19235499999998,19.270371,Shyam Mhatre,1141697012833775616,2020-03-03 22:31:24,,city,"Kalyan Dombivali, India",India
222,110.3168365,-7.8147389999999985,Dee,1141697135877865472,2020-02-17 11:43:13,"Yogyakarta, Indonesia",city,"Kasihan, Indonesia",Indonesia
175,39.61997477,24.46774467,  ,1141697154,2020-02-14 11:17:49,"K Perlis,Johor Orchard",city,"Al Madinah Al Munawwarah, Kingdom of Saudi Arabia",Kingdom of Saudi Arabia
120,100.2,6.433330000000001,  ,1141697154,2020-04-12 14:22:32,"K Perlis,Johor Orchard",city,"Hutan Aji, Perlis",Malaysia
82,85.10203849999998,25.569474,Dilipkumar,1141697199660785666,2020-06-05 16:18:04,,city,"Patna, India",India
38,-74.24367099999999,4.2622835,alex castaeda,1141697313582268417,2020-02-27 19:16:07,"Santa Catarina, Brasil",city,"Bogot, D.C., Colombia",Colombia
200,39.197963,38.667615500000004,Recep DERVOLU,1141697363213508613,2020-06-06 17:19:52,"Hatay, Trkiye",city,"Elaz, Trkiye",Trkiye
171,121.7770555,16.7694305,AnnAnn,1141697492007866368,2020-02-14 04:47:51,,city,"Angadanan, Cagayan Valley",Republic of the Philippines
82,80.88440750000002,26.8251695,Ajay singh,1141697558365913088,2020-05-15 09:21:40,,city,"Lucknow, India",India
222,103.618904,-1.594378,Wahyu Ramadhan,114169779,2020-02-14 11:00:29,"Kota Jambi, Jambi",city,"Telanaipura, Indonesia",Indonesia
175,49.6276765,25.458642,Call me,1141697989766987776,2020-03-13 22:08:49,,city,"Ahsa, Kingdom of Saudi Arabia",Kingdom of Saudi Arabia
151,3.3180660000000004,6.590611,Elizabeth,1141698241400061952,2020-03-01 15:27:25,,city,"Ikeja, Nigeria",Nigeria
171,125.644256,7.211825,@Gail,1141698487400071168,2020-02-29 06:14:10,Davao City,poi,Tesda KorPhil Training Center,Republic of the Philippines
222,111.91173799999999,-7.590125,kuzzzzzzzz,1141698700424568833,2020-03-16 15:42:21,,city,"Nganjuk, Indonesia",Indonesia
186,-3.654526,40.1809345,Monika Yanez,114169881,2020-06-03 13:25:08,"Madrid, Comunidad de Madrid",city,"Valdemoro, Espaa",Espaa
88,139.73870300000002,35.686009999999996,@AKI,1141698840065527808,2020-03-15 09:44:09, ,poi,HUNGRY HEAVEN HAMBURGERS ,Japan
82,83.0654805,26.039812,RAHUL YADAV,1141698902233505793,2020-02-27 15:08:29,,city,"Azamgarh, India",India
88,139.4737255,35.72719700000001,,1141699034089791488,2020-02-14 00:10:00,,city,"Kodaira-shi, Tokyo",Japan
31140,-85.757692,38.232756,andy,1141699198326325248,2020-05-23 20:34:25,"Louisville, KY",poi,Van James Coin Laundry,United States
88,136.827279,35.103587,P,1141699303871660032,2020-03-18 10:14:31,,poi,COCO'S ,Japan
82,81.861362,25.426997,Sharad Dwivedi,1141699582415343616,2020-02-14 04:46:06,"Uttar Pradesh, India",poi,New yamuna bridge,India
222,112.7467231,-7.2937582999999995,Fairis Azral,1141699599066787840,2020-03-20 13:22:21,"Kota Surabaya, Jawa Timur",city,"Wonokromo, Indonesia",Indonesia
14,90.4970285,23.6144025,Waanjai MewGulf *NIMU*,1141699745406078977,2020-02-14 01:36:28,Bangladesh,city,"Narayanganj, Bangladesh",Bangladesh
200,29.0052225,41.0213205,mit Karalar,114170012,2020-02-16 21:01:51,,city,"stanbul, Trkiye",Trkiye
51,-8.3498705,53.6975265,Leitrim Daily,1141700311511457792,2020-02-22 14:47:21,"Leitrim, Ireland",city,"Roscommon, Ireland",Ireland
21,-43.980515999999994,-19.882282,Dri,1141700416222236673,2020-02-19 15:46:14,"Minas Gerais, Brasil",poi,Supermix Concreto,Brasil
24340,-85.66829150000002,42.83039100000001,Shelby B,1141700534,2020-02-20 06:21:56,"Grandville, MI",city,"Cutlerville, MI",United States
11460,-83.60180249999998,42.245713,Shelby B,1141700534,2020-03-15 14:02:55,"Grandville, MI",city,"Ypsilanti, MI",United States
19820,-83.265121,42.312628,Shelby B,1141700534,2020-06-03 03:46:06,"Grandville, MI",city,"Dearborn Heights, MI",United States
11460,-83.60180249999998,42.245713,Shelby B,1141700534,2020-06-03 22:16:29,"Grandville, MI",city,"Ypsilanti, MI",United States
24340,-85.7573235,42.903701,Shelby B,1141700534,2020-06-05 04:00:36,"Grandville, MI",city,"Grandville, MI",United States
45900,-85.599065,44.7595575,Shelby B,1141700534,2020-06-05 20:46:03,"Grandville, MI",city,"Traverse City, MI",United States
24340,-85.7573235,42.903701,Shelby B,1141700534,2020-06-08 15:39:47,"Grandville, MI",city,"Grandville, MI",United States
19820,-83.265121,42.312628,Shelby B,1141700534,2020-06-09 11:25:09,"Grandville, MI",city,"Dearborn Heights, MI",United States
11460,-83.60180249999998,42.245713,Shelby B,1141700534,2020-06-10 00:09:30,"Grandville, MI",city,"Ypsilanti, MI",United States
24340,-85.7573235,42.903701,Shelby B,1141700534,2020-06-11 03:20:05,"Grandville, MI",city,"Grandville, MI",United States
200,27.006511,38.4079305,ye ur,1141700623341117441,2020-04-23 13:05:43,"zmir, Trkiye",city,"zmir, Trkiye",Trkiye
222,107.77430600000001,-6.9220619999999995,,1141700810,2020-02-25 11:41:50,"Seoul, Republic of Korea",city,"Cikeruh, Indonesia",Indonesia
65,-0.561187,43.764829,Centre Hospitalier de Saint Sever,1141700914711093250,2020-03-20 13:40:15,,city,"Saint-Sever, France",France
193,103.738338,16.0740025,Emmy,1141700974228062208,2020-02-18 14:13:15,,city,", ",
21,-49.261299,-16.642782500000003,Juju Vale spanic,1141701285617557505,2020-03-28 00:57:26,"Goinia, Brasil",city,"Goinia, Brasil",Brasil
178,24.763833,-28.745686,Nyisist.,1141701451,2020-02-14 07:08:42,Kimberley,city,"Kimberley, South Africa",South Africa
173,131.929463,43.445456,Anushka Pervocvet,1141701480048553984,2020-05-11 03:38:44, ,poi,,
200,27.006511,38.4079305,Ece,1141701495668256768,2020-02-14 10:06:34,"zmir, Trkiye",city,"zmir, Trkiye",Turkey
82,78.3852855,17.3950375,Seshufrds,1141701524378099717,2020-03-03 15:13:28,"Hyderabad, India",city,"Rajendra Nagar, India",India
21,-46.417166,-18.636639,JacobinoLobato - O Lobo Capitalista,1141701712790663169,2020-04-12 23:34:48,Patos de Minas/MG,city,"Patos de Minas, Brasil",Brasil
88,135.161711,35.11606,#CAM,1141702046329917441,2020-04-12 04:57:14,,poi,,
16980,-87.732013,41.8335845,pressure,114170205,2020-03-20 02:59:44,chicago.,city,"Chicago, IL",United States
39300,-71.39425200000001,41.890441,Stephanie,1141702067955884037,2020-05-27 06:13:20,"Rhode Island, USA",city,"Central Falls, RI",United States
8,-60.216182499999995,-33.346388000000005,bambino,1141702159,2020-05-01 21:16:46,,city,"San Nicols de los Arroyos, Argentina",Argentina
171,121.16399750000001,14.860594,,1141702270263779328,2020-03-11 11:12:15,Bahay nila allen,city,"San Jose Del Monte, Central Luzon",Republic of the Philippines
200,29.0052225,41.0213205,Ylmaz,1141702323414208512,2020-02-17 19:23:30,,city,"stanbul, Trkiye",Trkiye
82,72.853544,19.0440095,SHAIKH ANMOL,1141702339876675584,2020-04-23 14:32:55,"Mahim, Mumbai",neighborhood,"Dharavi, Mumbai",India
40140,-117.220413,33.8091385,Jose,1141702447926112257,2020-03-04 02:18:41,,city,"Perris, CA",United States
205,-4.1494,50.5469,yes,1141702555665403904,2020-05-03 22:26:46,,poi,Tavistock Tennis Club,United Kingdom
41940,-121.8737305,37.331159,AYE BRUH CHECK IT OUT  SZN,1141702566801104897,2020-02-18 14:22:54,,city,"San Jose, CA",United States
41860,-122.2286855,37.791994,AYE BRUH CHECK IT OUT  SZN,1141702566801104897,2020-02-18 22:18:11,,city,"Oakland, CA",United States
29820,-115.13516499999999,36.060964500000004,AYE BRUH CHECK IT OUT  SZN,1141702566801104897,2020-02-20 01:47:17,,city,"Paradise, NV",United States
31080,-118.4119065,34.0207895,TEDDY R.I.P.,1141702566801104897,2020-02-28 17:56:33,,city,"Los Angeles, CA",United States
65,4.835099,45.75782150000001,Maxime Massot,1141702593049243650,2020-05-20 20:17:00,"Bourgoin-Jallieu, France ",city,"Lyon, France",France
120,103.7388765,1.582298,Gelta Tauke,1141702640037814274,2020-04-23 01:00:13,"Kota Batam, Kepulauan Riau",city,"Tebrau, Johor",Malaysia
82,77.4233395,28.773568,Arjun Kumar Singh,1141702800750997504,2020-02-19 17:42:44,"Ghaziabad, India",city,"Ghaziabad, India",India
119,-103.23313,25.244223,@Britneydeglz,1141702885656453121,2020-02-16 05:49:28,,city,"Torren, Coahuila de Zaragoza",Mxico
38300,-79.9806895,40.431389,Roadglide412,1141703418844778496,2020-05-20 13:09:16,,city,"Pittsburgh, PA",United States
205,-4.2417515,55.85830249999999,Chris J W Healy,1141703535907807232,2020-02-14 12:11:01,"Glasgow, Scotland",city,"Glasgow, Scotland",United Kingdom
88,139.740671,35.635596, | ,114170358,2020-03-16 02:07:33,,poi, (Takanawa Gateway Sta.),
71,9.7964,53.646392000000006,peter bassen,1141703604631457793,2020-02-14 05:22:11,,city,"Pinneberg, Deutschland",Deutschland
96,48.1038125,29.146718,  ,1141703741684551680,2020-02-14 14:20:47,,city,"Al Riqqa, Kuwait",Kuwait
152,7.032503,52.236996000000005,Maryvonne Hesselink,1141704017346748417,2020-03-15 08:07:50,,poi,Overdinkel,The Netherlands
222,100.35607900000001,-0.93848,Ohbabyy,1141704021075349505,2020-02-29 03:47:56,"Padang, Plat BA ",poi,Universitas Eka Sakti - AAI,Indonesia
65,2.403581,49.008,FLOODED,1141704024313552897,2020-02-14 08:00:42,"Villiers-le-Bel, France",city,"Villiers-le-Bel, France",France
33460,-93.272976,44.975596,Nathan Atkins,1141704264009605122,2020-02-29 02:05:16,"Minneapolis, MN",poi,801 Chophouse,United States
82,82.85996850000002,22.3922755,Gskumar,1141704274994352128,2020-05-26 14:01:44,,city,"Korba, India",India
222,107.5871455,-6.889274,julyaneaneee,1141704365075398656,2020-03-22 07:46:27,,city,"Sukajadi, Indonesia",Indonesia
175,39.2541285,21.5857105, ,1141704842,2020-02-20 13:37:16,,city,",   ",  
222,111.13989199999999,-6.7020884999999994,Alexandria,1141704942421344256,2020-02-22 15:12:30,Indonesia,city,"Juwana, Indonesia",Indonesia
82,72.1161995,21.809607,Reema Ramanuj,1141705051,2020-03-22 08:41:35,,city,"Bhavnagar, India",India
82,78.312764,17.522099,Sai Ram Sumanth,1141705254460768256,2020-03-14 12:53:00,"Hyderabad, India",neighborhood,"Ram Chandram Puram, Sangareddi",India
88,127.67953999999999,26.213644,wmk@,1141705445632925696,2020-02-21 02:17:16,,poi,TOWER RECORDS,
88,130.424799,33.527846999999994,,114170557,2020-02-22 10:45:38,,poi,,
205,-2.23348,53.4569525,quinn,1141705924521988096,2020-04-24 15:57:49,,city,"Manchester, England",United Kingdom
222,110.2107955,-7.544830499999999,Donsky,1141706143691001856,2020-02-14 15:56:38,,city,"Mertoyudan, Indonesia",Indonesia
82,86.104414,25.171904,@satish36,1141706172501651458,2020-04-06 02:48:25,,poi,kiul Junction,India
88,139.745379,35.652789,ARONA SPA HANARE ,1141706263731924994,2020-04-03 07:47:40, ,city,"Minato-ku, Tokyo",Japan
96,47.70487328,29.30276118,RHS,1141706552161779713,2020-02-16 05:44:19,,city,"Saad Al Abdullah, Kuwait",Kuwait
171,121.15268200000001,13.942533,(),1141706646386704385,2020-03-08 08:29:52,"Lipa City, Calabarzon",poi,Big Ben Complex,Republic of the Philippines
120,101.680805,2.904732,'KHalid  ',1141706891225194496,2020-02-19 01:43:44,,city,"Dengkil, Selangor",Malaysia
117,58.15478450000001,23.650904999999998,'KHalid  ',1141706891225194496,2020-04-08 09:55:27,,city,"Al Seeb, Oman",Oman
171,120.98317879,14.5900508,JM,1141706932924760064,2020-02-16 11:04:26,Manila City,city,"Manila City, National Capital Region",Republic of the Philippines
38,-74.24367099999999,4.2622835,OrlandoM,1141707064521240576,2020-05-27 01:56:00,"Medelln, Colombia",city,"Bogot, D.C., Colombia",Colombia
82,79.00067800000001,10.772534,Mersal Dhanush Vj,1141707249204596736,2020-02-15 13:02:27,"Thanjavur, India",city,"Thanjavur, India",India
35620,-74.24240950000002,40.948353000000004,Coachlaurenholden,1141707314615001088,2020-03-11 17:04:37,"Teaneck, NJ",city,"Wayne, NJ",United States
41860,-122.2286855,37.791994,VibeMap - Find Your Vibe,1141707454629027841,2020-02-21 16:58:51,"California, USA",city,"Oakland, CA",United States
88,135.76742291,35.01754222,,114170752,2020-04-09 03:43:12,,city,  ,
82,81.8010265,25.2305425,S.K Maurya,1141707937884205063,2020-03-20 03:41:27,"Lucknow, India",city,"Karchana, India",India
171,123.01666944,11.33333056,Jin Tot,114170796,2020-04-28 17:35:16,Republic of the Philippines,city,"Sara, Western Visayas",Republic of the Philippines
49180,-80.2605,36.1028,IG: duviebeauty,1141708052594405376,2020-02-22 22:13:15,"Greensboro, NC",city,"Winston-Salem, NC",United States
21,-40.470364,-20.307374499999998,Paula Pereira,1141708075260420096,2020-03-03 13:48:52,,city,"Cariacica, Brasil",Brasil
82,72.99456649999998,20.413642000000003,Kaushal Patel,1141708091295059968,2020-03-27 06:55:04,"Vapi, India",city,"Vapi, India",India
41860,-122.2286855,37.791994,Caitie,1141708112191057920,2020-05-31 07:18:41,,city,"Oakland, CA",United States
222,109.20161399999999,-7.409785,Teman biasa,1141708337832030208,2020-03-15 08:09:48,bundarannyebar,poi,"Masjid Besar Syekh Makhdum Wali Pasir, Karanglewas",Indonesia
69,-0.3772645,5.5033005,Becky Lynch deserves everything,1141708390168760320,2020-02-19 20:34:20,,city,"Krokrobite, Ghana",Ghana
222,117.49578000000001,2.1510830000000003,mankind,1141708473685532672,2020-03-10 08:39:11,"Kalimantan Timur, Indonesia",poi,SMA Negeri 1 Berau,Indonesia
161,73.208279,34.1525005,Usman Ghani Khan,1141708562600738816,2020-03-20 13:54:56,"Abbottabad, Pakistan",city,"Abbottabad, Pakistan",Pakistan
82,77.5584485,12.9231145,Preethi Agnes,114170863,2020-04-28 10:29:47,India,city,"Bengaluru South, India",India
8,-58.442643,-34.604315,G.J.G. Arquitectura,1141708773435817984,2020-03-18 13:54:35,Ciudad Autnoma de Buenos Aire,city,"Ciudad Autnoma de Buenos Aires, Argentina",Argentina
82,77.095086,28.638489500000002,Shanky,1141709270,2020-03-29 09:44:37,,city,"New Delhi, India",India
21,-44.1754915,-22.487255,Da nike ,1141709389763665920,2020-03-15 23:26:10,"Volta Redonda, Brasil",city,"Barra Mansa, Brasil",Brasil
88,135.505216,34.663468,,1141709532155879424,2020-02-15 14:09:05,,poi,,
82,85.8648255,26.212101500000006,Kumar Santosh,1141709562157785088,2020-05-09 02:50:41,Patna ,city,"Darbhanga, India",India
65,2.347003,48.8588335,Koss,1141709709147332610,2020-03-29 16:21:18,"Paris, France",city,"Paris, France",France
19380,-83.87714799999999,39.715765000000005,Ralph Lauren Don ,1141709741321854976,2020-05-05 03:33:00,"Cleveland, OH",poi,Central State University,United States
205,-0.33394250000000003,53.765817000000006,Lady Louise,1141709778,2020-02-16 00:20:52,Hull,city,"Hull, England",United Kingdom
82,77.095086,28.638489500000002,Ravi Singh,1141709818316505089,2020-05-30 15:02:41,,city,"New Delhi, India",India
21,-46.51211650000001,-22.5984895,Anglica Oliveira,1141709921257476096,2020-04-07 09:57:14,Brazil,city,"Socorro, Brasil",Brazil
222,112.345469,-7.622684,diyah ayu,1141709939678703619,2020-04-20 01:30:29,"Kota Surabaya, Jawa Timur",poi,Sumber Boto,Indonesia
30,120.108197,33.379021,tomshizhimao,1141710111775215616,2020-02-15 15:20:42,", ",poi,,People's Republic of China
88,139.08359099999998,35.994221,,114171030,2020-03-07 02:29:36,,poi,,
200,30.680889,36.89007,User9876636698344745,1141710430764752898,2020-06-11 11:03:15,"Antalya, Trkiye",city,"Antalya, Trkiye",Trkiye
151,3.8733009,7.452839,Adeosun Oluwafemi MakanjuWealth,1141710610335522816,2020-02-15 22:40:28,"Ibadan, Nigeria",city,"Ibadan, Nigeria",Nigeria
21,-39.758652000000005,-7.375083,dj Vinicius silva de Saquarema oficial,1141710644992983040,2020-04-08 16:40:27,,poi,Serra de Antero e Cleide,Brasil
24,-66.108166,43.8375495,David Buckland,1141710721903988738,2020-02-20 00:53:36,,city,"Yarmouth, Nova Scotia",Canada
222,95.347015,5.534591000000001,Ajimnamoto,1141710783799128071,2020-02-16 15:27:25,Indonesia,city,"Baiturrahman, Indonesia",Indonesia
200,28.954340999999996,40.226213,Kamuran Szan,1141710787523878913,2020-04-10 10:55:19,,city,"Nilfer, Trkiye",Trkiye
88,139.9901965,36.42231750000001,,1141710875398565888,2020-02-24 11:21:16, ,city, ,
21,-48.407396000000006,-14.4773345,Branca de Neve,1141711138247380992,2020-02-18 16:45:42,,city,"Niquelndia, Brasil",Brasil
25540,-72.3692,41.8714,Trunorthconstruction,1141711250415595520,2020-04-07 21:30:10,"South Windsor, CT",city,"Tolland, CT",United States
82,77.095086,28.638489500000002,rmehra13@gmail.com,1141711920753287168,2020-04-05 13:24:43,"Dwarka, New Delhi",city,"New Delhi, India",India
222,109.46686399999999,-7.6827464999999995,yupppi,1141712078098452480,2020-06-01 14:10:32,"Kebumen, Indonesia",city,"Buayan, Indonesia",Indonesia
186,-3.7035075,40.4777945,losd63a2,1141712217882148864,2020-03-16 17:14:21,,city,"Madrid, Espaa",Espaa
164,-9.158211,38.857859499999996,Dilka Duarte,1141712311708729345,2020-03-15 14:33:27,"Lisboa, Portugal",city,"Loures, Portugal",Portugal
82,85.051854,25.611138,  Operation    ,1141712501173702657,2020-03-04 06:39:41,", , ",poi,dav public school khagaul,India
24,-71.3410585,46.855857,Emily,1141712650134523904,2020-02-14 16:24:29,"Montral, Qubec",city,"Qubec, Canada",Canada
21,-43.347660999999995,-22.838504,Ya Mello ,1141712909929766913,2020-03-24 12:37:06,"Rio de Janeiro, Brasil",poi,Morro Jorge Turco,Brasil
222,110.45487,-7.806732000000001,Untung,1141713025960828928,2020-05-27 12:02:29,,city,"Berbah, Indonesia",Indonesia
171,122.830401,11.447692,Grasya,1141713325257940992,2020-03-10 23:46:12,Capiz Roxas City ,poi,"Capiz State University, Pontevedra Campu",Republic of the Philippines
200,29.0052225,41.0213205,berilsemaefe,1141713551880531970,2020-03-05 19:49:50,,city,"stanbul, Trkiye",Turkey
120,101.552669,3.0512200000000003,H,1141713615075962881,2020-02-17 16:36:56,,city,"Damansara, Selangor",Malaysia
91,36.863620000000004,-1.2748635,Evans,1141713674,2020-03-06 15:22:45,Nairobi,city,"Nairobi, Kenya",Kenya
205,-1.3953955,54.09053950000001,MusicBusinessSchool,114171379,2020-02-17 13:50:42,London UK,city,"Boroughbridge, England",United Kingdom
82,79.281723,22.969482,Imrat Pal,1141713819409895424,2020-02-28 11:54:07,,poi,"Narsimhapur, SH-22",India
120,102.526993,2.0867225,Ahmad Nadzmi,1141713885386297345,2020-02-16 20:09:07,"Johore, Malaysia",city,"Kesang, Johor",Malaysia
3,50.018752,40.503847, ,1141714533964292101,2020-05-02 07:45:50,Azerbaijan,poi,Mataa qsbsi / Mashtaga settlement,Azerbaijan
41940,-121.8737305,37.331159,Mara Lora - AIM HDI San Fran,1141714797102321664,2020-03-15 09:15:18,"San Jose, CA",city,"San Jose, CA",United States
193,104.42702,15.3084915,Kanun_So,1141714943873433601,2020-02-14 16:14:01,"., .",city,", ",
19820,-83.099288,42.3527865,da demon,1141715003629887488,2020-05-26 04:59:41,,city,"Detroit, MI",United States
47900,-77.3109195,38.6852235,midnight123,1141715079425134592,2020-03-06 00:54:29,,city,"Lake Ridge, VA",United States
41700,-98.5406515,29.417501,Cat Moya,1141715262686879746,2020-03-20 04:03:31,"San Antonio, TX",city,"San Antonio, TX",United States
88,139.2957855,35.6581635,,1141715272539070466,2020-03-23 14:39:13,,city, ,
18580,-97.5861895,27.947231,itzell morales,1141715299953184769,2020-03-11 02:07:20,,city,"Odem, TX",United States
119,-99.4088095,25.2737025,itzell morales,1141715299953184769,2020-03-15 04:28:26,,city,"General Tern, Nuevo Len",Mexico
13060,-95.9511125,28.980361,itzell morales,1141715299953184769,2020-03-18 01:48:48,,city,"Bay City, TX",United States
26420,-95.27599,29.4248245,itzell morales,1141715299953184769,2020-04-19 22:57:05,,city,"Alvin, TX",United States
13060,-95.9511125,28.980361,itzell morales,1141715299953184769,2020-04-20 23:23:29,,city,"Bay City, TX",United States
26420,-95.562444,29.623471999999996,itzell morales,1141715299953184769,2020-05-21 21:02:16,,city,"Stafford, TX",United States
12420,-97.754724,30.3233455,itzell morales,1141715299953184769,2020-05-23 15:50:51,,city,"Austin, TX",United States
13060,-95.9511125,28.980361,itzell morales,1141715299953184769,2020-05-31 14:03:10,,city,"Bay City, TX",United States
26420,-95.27599,29.4248245,itzell morales,1141715299953184769,2020-06-05 13:16:04,,city,"Alvin, TX",United States
13060,-95.9511125,28.980361,itzell morales,1141715299953184769,2020-06-07 19:11:01,,city,"Bay City, TX",United States
25860,-81.33066,35.7292895,LRUProvost,1141715360799834112,2020-04-01 20:37:39,,city,"Hickory, NC",United States
88,139.69896469999998,35.662034999999996,sakai no bot,114171561,2020-02-15 06:42:14,,city, ,
82,86.3659925,23.201949,KK prasad,1141715719274450944,2020-02-14 13:36:42,,city,"Puruliya, India",India
222,106.71058700000002,-6.1395764999999995,Rafidah AnfaL,1141715821,2020-02-14 01:26:45,Sukabumi - Jakarta,city,"Kalideres, Indonesia",Indonesia
82,80.2176115,13.013218499999999,Praveero,1141715984778006528,2020-02-17 10:17:46,"Chennai, India",city,"Chennai, India",India
222,112.60465500000001,-7.932600999999999,hi&,1141716048996999168,2020-02-15 08:52:28,,poi,MAN 1 Malang,Indonesia
21,-43.441578,-22.911421500000003,Me do Joo Gabriel ,1141716172414574592,2020-05-06 23:17:38,"Rio de Janeiro, Brasil",city,"Rio de Janeiro, Brasil",Brasil
82,76.879092,11.022624,Udaya bigil,1141716450001817601,2020-02-14 02:58:57,Kerala God's Own Country,city,"Coimbatore, India",India
24660,-79.85736349999998,36.090397,da$ia,1141716454649319424,2020-02-15 02:32:50,,city,"Greensboro, NC",United States
189,13.5896955,59.4169995,Erik,1141716469,2020-02-14 19:30:50,,city,"Karlstad, Sverige",Sverige
48,-69.928392,18.485775,Julianys Cigars,1141716594625830913,2020-02-24 17:26:56,"National District, Dominican R",city,"anto Domingo de Guzmn, Dominican Republic",Dominican Republic
117,58.4641695,23.549159000000003,wash,1141716754529509376,2020-04-06 21:47:44,"Muscat, Oman",city,"Muscat, Oman",Oman
205,-0.320442,51.75244,Philip Warrington,114171683,2020-02-15 15:17:10,Peterborough,city,"Saint Albans, East",United Kingdom
222,105.2455905,-5.3615895,NKBL,1141716891657838592,2020-02-26 02:41:26,,city,"Kedaton, Indonesia",Indonesia
24,-64.80061649999999,46.114532000000004,brooke maclellan,1141717080431087616,2020-02-17 19:39:26,,city,"Moncton, New Brunswick",Canada
200,29.0052225,41.0213205,@AK sevdam etin Grgl,1141717150274600960,2020-02-14 01:35:35,,city,"stanbul, Trkiye",Trkiye
82,86.480556,22.6140115,-agirlinthecity-,1141717247049650182,2020-03-25 16:36:17,"Jamshedpur, Jharkhand",city,"Jamshedpur, India",India
171,121.24252299999999,13.8185755,Geloo,1141717394861117440,2020-03-28 15:50:10,,city,"Rosario, Calabarzon",Republic of the Philippines
120,103.39263881,3.49149942,,1141717585,2020-02-22 15:13:35,,city,"Pekan, Pahang",Malaysia
44620,-89.5494475,44.540012,tina,1141717633668177920,2020-03-21 02:15:41,,city,"Stevens Point, WI",United States
175,43.521744500000004,25.887142, ,1141717656,2020-03-18 05:57:39,",   ",city,",   ",  
26420,-95.158936,29.668301,Corinne Hargrave,1141717716857962496,2020-02-16 19:30:52,,city,"Pasadena, TX",United States
45,8.973312499999997,55.7443095,Bjarni Klein Olsen,1141717843,2020-04-05 08:10:44,"Syddanmark, Danmark",city,"Billund, Danmark",Danmark
14740,-122.65579450000001,47.4939445,Allie G,1141718186,2020-02-16 03:05:37,"Lewisville, TX",city,"Port Orchard, WA",United States
69,-0.4217865,5.5365845,KING ON THE LAND,1141718419949182982,2020-05-20 23:46:55,"Greater Accra, Ghana",city,"Kasoa, Ghana",Ghana
222,112.0017995,-7.624589999999999,Park_Gae,1141718598668283904,2020-02-16 10:08:49,,city,"Tanjunganom, Indonesia",Indonesia
12580,-76.62048200000002,39.284713,Ronald hayes,1141718741564252162,2020-02-15 20:58:22,,city,"Baltimore, MD",United States
82,91.363618,23.8361225,Rohit Saha,114171892,2020-06-05 12:01:02,INDIA,city,"Agartala, India",India
21,-35.885098,-7.213893,Walter Paulo,1141718954525757440,2020-05-01 22:27:40,"Campina Grande, Brasil",poi,Conceio,Brasil
222,110.4913095,-7.3390995,Logan,1141718971642548225,2020-02-22 18:10:33,"Tanah Jawa, Indonesia",city,"Sidomukti, Indonesia",Indonesia
88,143.6290885,43.88720100000001,dai,1141719033340784640,2020-04-03 07:57:03,,city, ,
171,125.4432615,7.317582499999999,mondyyy,1141719047609843712,2020-02-14 11:34:58,Compostela,city,"Davao City, Davao Region",Republic of the Philippines
88,133.50985500000002,33.5703455,,1141719325683748865,2020-02-16 03:43:15,,city, ,
88,136.97896599999999,35.15453212,,1141719344,2020-02-24 00:36:20,,city,  ,
21,-49.62276900000001,-27.185354999999998,Aline Dyck,1141719381963132930,2020-02-14 12:13:46,"Rio do Sul, Brasil",city,"Rio do Sul, Brasil",Brazil
205,-2.077562,52.110665000000004,Pershore Abbey Community,1141719407187714049,2020-02-14 13:47:03,"Pershore, England",poi,Pershore Abbey,United Kingdom
82,76.974691,28.368525,Sagar Singh,1141719432575647744,2020-03-13 12:35:49,,city,"Gurgaon, India",India
21,-49.2884605,-25.4952495,troxa&otaria,1141719442562408448,2020-03-01 23:19:40,,city,"Curitiba, Brasil",Brasil
222,106.774506,-6.185601999999999,arya,1141719487915290624,2020-02-29 08:22:30,"Kota Cilegon, Banten",city,"Kebon Jeruk, Indonesia",Indonesia
8,-58.448062,-34.590988,Arstides Silvestris ,1141719554785259522,2020-03-10 13:10:55,Ciudad Autnoma de Buenos Aire,poi,C Complejo Art_Media,Argentina
120,100.2729335,6.4732785,Mohammad Alamin,1141719643461001216,2020-03-20 06:40:43,,city,"Oran, Perlis",Malaysia
51,-9.0333065,51.903863,Georgina Goulding,1141719656866222080,2020-04-26 18:44:49,"Cork, Ireland",city,"Cork, Ireland",Ireland
222,110.4087895,-7.7676955,Haidar,1141719868670017537,2020-02-19 14:44:24,,city,"Depok, Indonesia",Indonesia
21,-38.5026475,-12.8753345,Junyor Alves,1141719989415817218,2020-05-31 21:39:33,,city,"Salvador, Brasil",Brasil
82,77.095086,28.638489500000002,Sunilkumar,1141719996877475840,2020-05-23 16:43:52,,city,"New Delhi, India",India
222,112.0224815,-7.209200500000001,mrifki_kurniawan,1141720016,2020-06-05 22:05:19,Bojonegoro,city,"Sumberejo, Indonesia",Indonesia
222,106.70103,-6.4554800000000006,Delamhrns,1141720207058096128,2020-03-09 01:53:03,,city,"Parung, Indonesia",Indonesia
21,-41.8158325,-22.1620055,Caio Brava,1141720213093793793,2020-02-14 00:52:41,,city,"Conceio de Macabu, Brasil",Brasil
21,-42.043358000000005,-22.7372245,Ianna Gabriela,1141720255993188352,2020-03-24 04:59:35,Cabo Frio-RJ,city,"Cabo Frio, Brasil",Brasil
120,102.9758795,1.7668099999999998,Eh Wan !?,1141720268353617921,2020-02-18 08:17:46,"Batu Pahat, Johor",city,"Minyak Beku, Johor",Malaysia
222,99.254681,1.6328274999999999,Wong Kito,1141720767605825536,2020-03-20 14:35:31,,city,"Sipirok, Indonesia",Indonesia
13380,-122.430277,48.75335250000001,,1141720776,2020-05-04 02:49:51,sadighis ,city,"Bellingham, WA",United States
205,-2.1064075,52.592257999999994,,1141720822832390144,2020-03-22 12:39:25,,city,"Wednesfield, England",United Kingdom
82,73.88438199999999,18.520764,Paddy P S Lavte,1141720864779407360,2020-02-26 08:59:09,"Pune, Maharashtra India",city,"Pune, India",India
88,140.731558,38.3456355,@Dr.,1141720915618611200,2020-03-02 12:58:09,,city,"Aoba-ku, Miyagi",Japan
65,4.8335145,43.9406905,Akara Alma,1141720959214391298,2020-06-05 10:57:26,,city,"Avignon, France",France
119,-100.97649200000001,22.15195,Karina Janeth,1141721095583621121,2020-03-09 03:23:43,,poi,Plaza de Armas,Mexico
88,141.1763795,38.395436,Shota,1141721129955913728,2020-02-21 14:35:00,,city,"Higashimatsushima-shi, Miyagi",Japan
222,106.66342900000001,-6.626894999999999,Ridwan M.N,1141721145512611841,2020-04-13 05:45:33,,poi,STAI SAHID. BOGOR,Indonesia
186,-4.4240309999999985,36.764878,Iigo Montoya,1141721160197058560,2020-03-27 12:51:04,,city,"Malaga, Spain",Spain
88,135.693507,34.978715,tonerin / 3,1141721262420422657,2020-05-24 07:45:24,,poi, ,
186,-17.1673845,28.0947305,Marylin Ellis-Smith,1141721373578014720,2020-02-24 17:38:38,"Sutton Coldfield , Warwiks",city,"San Sebastin de la Gomera, Spain",Spain
205,-1.8906405,52.493966500000006,Marylin Ellis-Smith,1141721373578014720,2020-03-07 11:10:42,"Sutton Coldfield , Warwiks",city,"Birmingham, England",United Kingdom
151,7.424094,9.073663999999999,Raymond2684,1141721412421455872,2020-02-14 22:43:19,"Federal Capital Territory, Nig",city,"Abuja, Nigeria",Nigeria
171,121.0311415,14.7108935,Erlyn-24,1141721490234023938,2020-06-03 20:43:52,"Caloocan City, National Capita",city,"Caloocan City, National Capital Region",Republic of the Philippines
28260,-99.067996,40.6998,Tyler Handy,1141721546953822208,2020-04-22 15:43:37,"Nebraska, USA",city,"Kearney, NE",United States
23340,-96.508996,41.4445675,Tyler Handy,1141721546953822208,2020-05-17 20:28:13,"Nebraska, USA",city,"Fremont, NE",United States
38,-73.13269700000002,7.144792999999999,Bucaranaranja,1141721738310508545,2020-02-28 22:50:12,"Bucaramanga, Colombia",city,"Bucaramanga, Colombia",Colombia
193,98.40504399999999,7.8877785000000005,,1141721947,2020-03-07 13:01:15,"Washington, DC",city,"Phuket, Thailand",Thailand
21,-47.3981985,-22.4777315,Biochar Technologies,1141721982221914113,2020-02-14 15:34:02,Brasil,city,"Cordeirpolis, Brasil",Brasil
21,-40.627127,-19.473124,LYVIA ,1141722175440904194,2020-03-10 10:21:26,,city,"Colatina, Brasil",Brazil
39140,-112.4719605,34.762739999999994,AyeCee ,1141722221259501569,2020-06-05 18:59:37,,city,"Chino Valley, AZ",United States
222,110.6560665,-7.772277000000001,remah-remah kaepci,1141722234991435776,2020-02-15 19:00:36,,city,"Bayat, Indonesia",Indonesia
205,-2.23348,53.4569525,Claudio alex,1141722373667901440,2020-03-31 18:09:59,"Manchester, England",city,"Manchester, England",Reino Unido
160,-77.06486000000002,-12.0952955,Junior Pisfil,1141722733073580032,2020-03-27 06:53:01,,city,"Magdalena del Mar, Peru",Peru
82,77.111079,31.961168,gourab dastidar,114172291,2020-04-15 09:22:06,"Himachal Pradesh, India",poi,Kullu Town,India
8,-65.4586005,-33.6743335,Agustina Aguilera,1141723118651826185,2020-02-16 07:40:17,"San Luis, Argentina",city,"General Pedernera, Argentina",Argentina
82,81.644808,25.434179,Mr.abhash,1141723132408975362,2020-04-26 11:42:08,"Allahabad, India",city,"Allahabad Outer, India",India
16820,-78.506561,38.035582,nithin,1141723140034322434,2020-03-03 01:22:41,he/him,poi,Newcomb Game Room,United States
82,80.2176115,13.013218499999999,nithin,1141723140034322434,2020-03-26 18:37:46,NY x Cville,city,"Chennai, India",India
120,116.013465,5.5883615,@Azlan09485926,1141723338454134784,2020-02-14 00:13:22,"Kota Kinabalu, Sabah",city,"Papar, Sabah",Malaysia
40060,-77.3230515,37.5490105,Brooke Thompson,1141723349359480832,2020-03-03 15:50:09,"Richmond, VA",city,"Highland Springs, VA",United States
171,121.03131,14.407882999999998,Queen,1141723450064560128,2020-05-19 15:35:38,"Muntinlupa City, National Capi",city,"Muntinlupa City, National Capital Region",Republic of the Philippines
65,2.537169,48.7689555,VMP,1141724070121226242,2020-03-11 21:20:39,on est la hin ,city,"Sucy-en-Brie, France",France
16980,-88.62185500000001,42.422299,VMP,1141724070121226242,2020-03-12 10:42:12,on est la hin ,city,"Harvard, IL",Etats-Unis
65,2.3498385,48.74942,VMP,1141724070121226242,2020-05-04 12:56:47,c cho la,city,"Rungis, France",France
65,2.449279,48.7390625,Ferhat Ozan,1141724131760726016,2020-04-27 07:29:00,"Paris, France",city,"Villeneuve-Saint-Georges, France",France
21,-43.119101,-22.616096,Larissa Tavares,1141724227072135169,2020-05-25 18:07:15,"Mag, Brasil",city,"Mag, Brasil",Brazil
205,-2.054982,51.427240999999995,Mark Harding,114172434,2020-03-09 08:00:43,,poi,Bowood Hotel Spa & Golf Resort,United Kingdom
82,77.3699235,28.367609499999997,virender,1141724563,2020-03-25 15:17:20,", ",city,"Greater Faridabad, India",India
205,-3.2030084999999997,55.943195499999995,Little City Treat,1141724579230081025,2020-05-19 12:24:48,"Edinburgh, Scotland",city,"Edinburgh, Scotland",United Kingdom
47300,-119.3195265,36.319486,carlosdiaz66,1141724600310685696,2020-04-21 19:47:38,,city,"Visalia, CA",United States
30,113.284236,23.132308,Shahid Khattak,1141724679838695424,2020-03-13 09:48:16,China Guangzhou,poi,Sun Yat-sen University Of Medical Sciences,People's Republic of China
151,3.5488340000000003,6.779071999999998,Ruth Adeboye,1141724686746886144,2020-05-20 10:13:13,,city,"Atan, Nigeria",Nigeria
31080,-117.824049,33.810159000000006,savanah,1141724924,2020-04-02 19:48:13,"Los Angeles, CA",city,"Orange, CA",United States
41740,-117.320879,33.226316,savanah,1141724924,2020-05-24 05:31:40,"Los Angeles, CA",city,"Oceanside, CA",United States
31080,-118.063704,33.9289335,savanah,1141724924,2020-05-25 00:50:58,"Los Angeles, CA",city,"Santa Fe Springs, CA",United States
82,73.016594,19.111129000000002,Akshat Lawhale,1141724937834487809,2020-04-14 10:55:02,"Ghansoli, Navi Mumbai",poi,Millennium Business Park (MBP),India
200,28.968957,41.037865999999994,Samet,1141725065127583746,2020-02-20 08:19:05,"Samsun, Trkiye",city,"stanbul, Trkiye",Trkiye
35620,-73.9487755,40.655138,Alejandro,1141725146371317770,2020-03-01 18:58:41,"Queens, NY",city,"Brooklyn, NY",United States
119,-99.8229825,25.8446055,Robledo,1141725150481661952,2020-02-23 22:41:56,,city,"Doctor Gonzlez, Nuevo Len",Mxico
21,-43.1746405,-21.2345285,Silva Apolo,1141725425883897856,2020-03-03 19:43:20,mg brasil,city,"Rio Pomba, Brasil",Brasil
38,-76.215424,3.8503355000000004,Carlos Augusto Echeverry Ramrez,1141725451032903683,2020-05-11 16:41:32,,city,"Guadalajara de Buga, Colombia",Colombia
171,121.0627355,14.683012,Ainaprc,1141725461224943616,2020-02-14 02:45:06,,city,"Quezon City, National Capital Region",Republic of the Philippines
88,135.50536699999998,34.4721155,,1141725463401730048,2020-02-26 01:12:32,,city, ,
151,3.3180660000000004,6.590611,Nocturnal Aj,1141725863584686080,2020-04-02 12:34:20,"Lagos, Nigeria",city,"Ikeja, Nigeria",Nigeria
82,77.795101,20.939507,Raja Ajeet,1141725936276201472,2020-05-06 19:25:40,"Amravati, Maharashtra, india",poi,Amravati University,India
82,77.117187,28.749271000000004,Gaurav__Offical 4308,1141726024545316864,2020-03-26 10:46:29,"New Delhi, India",poi,Delhi Technological University (DTU),India
88,139.7091805,35.701657,,114172607,2020-02-17 05:49:28,,city, ,
117,57.395723499999995,23.7424635,YK.,1141726209849606144,2020-03-13 16:24:23,,city,"As Suwayq, Oman",Oman
222,109.1233,-6.868289,hellowin,1141726250773278721,2020-02-15 13:45:28,,poi,Raa Cha ( Suki & Bbq),Indonesia
193,101.15775699999999,12.677114999999999,,1141726393253761024,2020-02-24 04:26:18,", ",poi,PTTGC Global Chemical (Refinery Site),
38,-75.886903,8.755299,,1141726596619034625,2020-03-04 00:02:48,Montera,poi,Catedral San Jernimo de Montera,Colombia
21,-46.5955455,-23.682803,Cristiano ApreSil,1141726799375798272,2020-03-01 13:56:27,"So Paulo, Brasil",city,"So Paulo, Brasil",Brasil
171,121.104887,14.646970999999999,L E I ,1141726964513796096,2020-02-19 10:19:46,"Marikina City, National Capita",city,"Marikina City, National Capital Region",Republic of the Philippines
88,139.70460500000002,35.694977,,114172702,2020-02-26 16:47:42,,poi, ,
82,76.59674150000002,28.892771999999997,INDIAN SOCIETY OF ANAESTHESIOLOGISTS,1141727083736887296,2020-03-19 12:00:50,"Rohtak, India",city,"Rohtak, India",India
171,124.75277124,8.65223625,L' egnuj de Zayas,1141727119,2020-04-04 05:09:08,"monte de zayas, la havana cuba",city,"Jasaan, Northern Mindanao",Republic of the Philippines
222,98.7068905,3.54656,T.Fairuz Jasmine,114172713,2020-05-17 15:30:32,"T: 3.582628,98.667582",city,"Percut Sei Tuan, Indonesia",Indonesia
82,86.244069,23.5854515,Yogendra Kumar,1141727136274714625,2020-03-04 07:13:56,"Jharkhand, India",city,"Bokaro Steel City, India",India
82,82.93295549999998,25.3733755,Satyendra Kumar Singh,1141727341619470336,2020-02-21 09:27:53,,city,"Varanasi, India",India
88,136.46590756,34.96159602,,1141727406,2020-03-13 19:51:46,,city, ,
40140,-117.3149705,33.6658655,La Lili,1141727456,2020-02-16 05:21:12,Jalisco y Nayarit ,city,"Lake Elsinore, CA",United States
33,-73.08666600000001,-36.697554499999995,Chucao de Los Rios,1141727561703182336,2020-02-17 14:54:51,,city,"Talcahuano, Chile",Chile
82,84.9935233,24.7052657,Rahul Bharvi,114172764,2020-05-17 13:06:00,New Delhi,city,"Bodhgaya, India",India
8,-64.2444045,-27.7437045,Naraa,1141727654846115840,2020-02-14 03:53:50,"Banda, Argentina",city,"Banda, Argentina",Argentina
222,112.7055155,-7.9612845000000005,aku kamu dan dia,1141728164944547841,2020-03-19 14:09:52,,city,"Pakis, Indonesia",Indonesia
82,75.85323700000002,17.774206,Dhairaj,1141728260344053761,2020-02-25 18:00:16,"Shri Siddheshwar Market Yard, ",city,"Solapur, India",India
222,110.404183,-7.7760050000000005,adhyyy,1141728366443106305,2020-03-03 13:40:59,"Yogyakarta, Indonesia",poi,Kopi Gandroeng,Indonesia
171,125.3222705,6.8499979999999985,Josil,1141728706391527425,2020-04-02 07:35:59,Davao Region,city,"City Of Digos, Davao Region",Republic of the Philippines
16740,-80.84333333,35.22694444, ,1141728788713299969,2020-02-17 19:54:35,"Charlotte, NC",city,"Charlotte, NC",United States
40900,-121.7562785,38.675018,Trevor Johnston,1141728899119714304,2020-06-07 21:57:10,,city,"Woodland, CA",United States
225,55.331768999999994,25.252053,LidLid,114172893,2020-03-26 12:34:29,,poi,Deira City Center   ,United Arab Emirates
82,84.6336685,19.2068655,Amar Sahu,1141728938080768001,2020-03-25 01:45:03,,city,"Brahmapur, India",India
65,-1.8516475,48.0853205,Noty,1141728971081637888,2020-03-30 17:22:37,"Rennes, France",city,"Mordelles, France",France
119,-115.57987849999999,30.156488500000002,Marisol Manzano,1141728980,2020-02-23 21:36:39,"Ensenada, Baja California",city,"Ensenada, Baja California",Mxico
38,-76.53101600000001,3.385696,Franco86,1141728991247835142,2020-02-21 21:02:49,"Cali, Colombia Melendez",poi,Parque El Ingenio,Colombia
31080,-118.497575,34.011666,Abraham Cruz,1141729066480996353,2020-05-27 19:28:34,,poi,Santa Monica State Beach,
178,28.175811,-26.022470000000002,MfekarsonSA,1141729094389948422,2020-03-02 14:30:55,,city,"Rabie Ridge, South Africa",South Africa
12060,-84.35244449999998,33.943456999999995,chelia ,1141729249327554560,2020-03-10 20:52:03,United States,city,"Sandy Springs, GA",United States
30,113.29987,23.222661,,1141729471285911552,2020-05-06 17:27:59,,poi,,People's Republic of China
193,100.899412,12.913083,Temptation Island,1141729476943810560,2020-05-08 06:22:33,,poi,AE & EK STEAK & BEKERY,
12060,-84.427624,33.798738,.,1141729541313957888,2020-03-13 20:20:39,"Atlanta, GA",poi,Topgolf,United States
35380,-90.01100799999999,29.982601000000003,Katie Zim ,1141729697249857536,2020-03-13 23:20:50,she/her,city,"New Orleans, LA",United States
35620,-74.359399,40.682176500000004,Katie Zim ,1141729697249857536,2020-03-18 00:32:35,she/her,city,"Mountainside, NJ",United States
82,72.8593641,19.0385733,Pradeep Patwa,1141729748504047618,2020-05-09 07:00:45,,city,"Mumbai, India",India
85,9.152589,45.490997,FM PARRUCCHIERE MILANO,1141729865332379648,2020-02-25 10:43:41,"Viale Monte Ceneri 68,                           Milan, Lombardy",poi,FM Parrucchiere Milano,Italy
120,101.72479200000001,3.025678,,1141729899922591745,2020-04-23 15:08:19,,poi,Rumah Bujang,Malaysia
21,-38.151862,-4.8358500000000015,Heldermar moreira,1141730294233538562,2020-02-14 00:02:01,"Russas, Brasil",city,"Russas, Brasil",Brazil
205,-4.2417515,55.85830249999999,Sally,114173060,2020-05-30 14:21:42,hot city // another hot city ,city,"Glasgow, Scotland",United Kingdom
8,-58.9846755,-27.452821500000002,,1141730746857656320,2020-02-15 02:42:36,"Resistencia, Argentina",city,"Resistencia, Argentina",Argentina
82,77.319119,19.104956,YogeshPrince,1141731198537879552,2020-02-14 16:37:11,,neighborhood,"Jindamnagar, Nanded",India
151,7.422322500000001,10.511245,     s    ,1141731368923205632,2020-04-24 15:58:52,KD NIGERIA,city,"Kaduna, Nigeria",Nigeria
113,-5.869471,35.753778999999994,Soufiane Akarid,1141731576537145344,2020-06-03 00:33:52,"Tangier Medina, Morocco",city,"Tangier Medina, Morocco",Morocco
222,110.76574699999999,-7.556483,firdausanas,1141731616034713600,2020-02-23 19:14:56,Boyolali ,poi,Lagi Di Kost,Indonesia
171,120.96950149999999,14.430456499999998,kai,1141731624,2020-02-14 13:43:15,MNL,city,"Bacoor, Calabarzon",Republic of the Philippines
200,28.832318,40.991766,Erdi,1141731713871220736,2020-03-12 08:14:57,Fenerbahe,poi,Istanbul Kltr niversitesi Ktphanesi,Trkiye
186,2.111878,41.358305,Luis gonzalezBaeza,1141731827910135808,2020-03-16 08:21:49,,city,"L'Hospitalet de Llobregat, Espaa",Espaa
205,-2.1556405,53.41460849999999,wigglydave,1141731850752278528,2020-02-14 19:23:15,,city,"Stockport, England",United Kingdom
8,-65.2231375,-26.844098499999998,Lucas Nagle,1141731978556977152,2020-02-14 04:16:27,,city,"San Miguel de Tucumn, Argentina",Argentina
186,2.122743,41.380794,Chris Konrath,114173206,2020-02-15 14:41:51,"Lincoln, England",poi,Camp Nou,Spain
200,29.0052225,41.0213205,,1141732136862539776,2020-02-26 17:39:43,"stanbul, Trkiye",city,"stanbul, Trkiye",Turkey
222,104.027497,1.1554944999999999,Astagfirrullah,1141732276763369472,2020-04-14 19:13:34,"Kota Batam, Kepulauan Riau",city,"Batu Ampar, Indonesia",Indonesia
222,110.815729,-7.547169500000001,WeganantaRizky Mode Gratis,1141732335936610305,2020-02-14 04:57:02,"Mojolaban, Indonesia",city,"Banjarsari, Indonesia",Indonesia
82,72.87424399999999,19.174139999999998,Harsh The Strongest Avenger,1141732385551110144,2020-03-12 14:38:04,"Mumbai, India",city,"Mumbai, India",India
19100,-96.7617535,32.819858499999995,Dallas County Historical Commission,1141732485732229120,2020-03-02 00:07:40,"Dallas, TX",city,"Dallas, TX",United States
120,101.725565,3.099061,,114173249,2020-03-12 03:46:56,"Wangsa Maju, Kuala Lumpur",poi,PPUKM,Malaysia
171,121.03446399999999,14.564416,James,1141732554833162240,2020-03-05 16:10:15,,poi,Pineapple Lab,Republic of the Philippines
152,5.398453,51.8872695,Maarten,1141732616133066753,2020-04-08 23:29:11,,city,"Tiel, Nederland",The Netherlands
171,121.2416625,14.16913761,M ,1141732651,2020-02-21 04:34:41,"MNL, PH",city,"Los Banos, Calabarzon",Republic of the Philippines
200,30.5598525,38.75832850000001,Ceren akar,1141732841459462150,2020-03-15 09:23:45,,city,"Afyonkarahisar, Trkiye",Turkey
96,48.098867,29.197896999999998,.,1141733072813076481,2020-05-14 05:00:59,,poi,Abu Fatirah |  ,Kuwait
171,122.5625885,7.7751715,celestine,1141733207043264512,2020-03-09 09:40:26,"Greece, NY",city,"Ipil, Zamboanga Peninsula",Republic of the Philippines
82,76.9494235,29.7157395,Nikita Soni,1141733278983942144,2020-04-10 09:50:07,"Chandigarh, India",city,"karnal, India",India
35620,-73.8494415,40.8503475,Aida Calcano,1141733399146708992,2020-02-19 14:37:04,"Bronx, NY",city,"Bronx, NY",United States
82,81.855661,25.4617005,Rakesh kumar singh,1141733544311455744,2020-03-31 17:28:52,,city,"Allahabad, India",India
88,138.678833,35.15639,,1141733633675288576,2020-03-18 07:26:25,,poi, ,Japan
33460,-93.3682946,45.1072675,Hidlsh,1141733709923725313,2020-04-12 16:58:22,"Cosmodrome, Old Russia",city,"Brooklyn Park, MN",United States
21,-43.5786705,-22.7313695,INSTA: Jv Gomes,1141733964358594561,2020-03-26 02:16:44,Aonde o mal no me alcana ,city,"Queimados, Brasil",Brasil
82,74.7158455,20.881130499999998,Kailas Hajare,1141734009849798656,2020-04-13 07:12:45,,city,"Dhule, India",India
88,139.395741,35.9587865,@smileemielabs,1141734039948103680,2020-02-16 11:12:23,"Saitama-ken, Japan",city,"Sakado-shi, Saitama",Japan
171,125.4432615,7.317582499999999,@smileemielabs,1141734039948103680,2020-03-13 16:12:07,"Saitama-ken, Japan",city,"Davao City, Davao Region",Republic of the Philippines
222,107.60708500000001,-6.937123,Sandi Kurniawan,1141734418467287041,2020-03-14 02:25:53,"Cimahi Tengah, Indonesia",poi,Sentul International Circuit,Indonesia
205,-3.0079355,53.874422499999994,Spriggsy Run,1141734427413942272,2020-02-14 00:25:32,"North West, England",city,"Fleetwood, England",United Kingdom
222,106.8656125,-6.160423000000001,Nita,1141734546330644480,2020-02-28 07:48:22,,city,"Kemayoran, Indonesia",Indonesia
49,-80.091193,-2.512995,Victor62922211,1141734568996888576,2020-02-14 13:34:10,,city,"Guayaquil, Ecuador",Ecuador
88,136.86747150000002,35.1655625,NO-Kei,1141735146682372098,2020-02-19 07:49:40,  ,city,  ,
85,12.645313999999999,43.999523,Marianna Mulazzani,1141735562321244160,2020-04-27 14:06:43,"Riccione, Emilia Romagna",city,"Riccione, Emilia Romagna",Italy
37980,-75.117998,40.0048655,onlyxchi,1141735573914345473,2020-03-06 05:29:29,,city,"Philadelphia, PA",United States
41860,-121.934114,37.9380095,Matthew S Lopez,1141735669636591617,2020-03-28 21:20:16,,city,"Clayton, CA",United States
34900,-122.30626399999998,38.2970715,Matthew S Lopez,1141735669636591617,2020-05-08 09:41:27,,city,"Napa, CA",United States
41860,-121.934114,37.9380095,Matthew S Lopez,1141735669636591617,2020-05-17 19:30:30,,city,"Clayton, CA",United States
21,-46.5955455,-23.682803,Carlos Filho,1141735726335352832,2020-03-13 18:56:38,"So Paulo, Brasil",city,"So Paulo, Brasil",Brasil
82,71.205277,22.039379,Dilip Kalyani,1141735820212109313,2020-03-22 12:24:19,,city,"Jasdan, India",India
175,46.685077,24.7219435,ALANAZI.,1141735842949599232,2020-02-26 15:05:56,Kuwait,city,",   ",  
88,135.065104,34.696228999999995, ,1141735862574518272,2020-03-01 05:00:12,,poi,,Japan
82,77.10621891,28.47408834,chitrangana Singh,114173608,2020-05-08 19:24:11,,city,"Gurgaon, India",India
47900,-77.0143985,38.898603,LeAnn,1141736236891213824,2020-05-06 13:21:58,"Washington, DC",city,"Washington, DC",United States
21,-40.627127,-19.473124, ,1141736350502334464,2020-02-17 15:45:25,Algum lugar,city,"Colatina, Brasil",Brazil
82,77.3115368,29.4475201,Sachin Bansal,1141736411474739200,2020-02-26 08:48:35,", ",city,"Shamli, India",India
26420,-95.584618,29.8935655,K E I S H A ,1141736714,2020-03-28 16:11:13,"Texas, USA",city,"Jersey Village, TX",United States
82,72.57023199999999,23.013959,@Anita Purkayastha,1141736840174555136,2020-03-06 21:01:42,,city,"Ahmadabad City, India",India
38060,-112.1246765,33.5528625,Adam Vilich,1141736854133153793,2020-02-14 07:49:41,"Phoenix, AZ",city,"Phoenix, AZ",United States
48940,-83.828851,39.445538,"Clinton County, OH Port Authority",1141736924249505798,2020-02-20 17:37:45,Wilmington,poi,Clinton County Visitor's Bureau,United States
164,-8.312043500000001,41.465552,Jos Camara,1141736958705770503,2020-02-17 01:51:47,"Guimares, Portugal",city,"Guimares, Portugal",Portugal
21,-52.8019375,-26.256376,Jos Camara,1141736958705770503,2020-02-27 21:52:30,"Guimares, Portugal",city,"Vitorino, Brasil",Brazil
119,-100.772211,20.5226915,,1141737115,2020-02-18 22:48:51,"Celaya, Guanajuato",city,"Celaya, Guanajuato",Mxico
21,-47.067679999999996,-22.822945999999998,Monah,1141737361270853637,2020-03-08 14:08:51,"Campinas, Brasil",poi,Praa da Paz,Brasil
21,-43.231544,-22.821348999999998,sem sentimentos ,1141737436277608454,2020-04-13 15:13:06,"Tasso Fragoso, Brasil",poi,Vila Militar dos Suboficiais da Aeronutica,Brasil
21,-60.01821999999999,-3.0877689999999998,Delegado Joo Tayah,1141737559816585217,2020-06-08 16:37:57,"Manaus, Brasil",poi,Av. Carlota Joaquina (Parque 10 de Nov.),Brasil
21,-49.2884605,-25.4952495,tit| lendo raposas gays (aftg spoilers),1141737566347112449,2020-05-23 19:53:08,,city,"Curitiba, Brasil",Brasil
164,-8.561306,41.078391499999995,Elen ,1141737757531881474,2020-02-26 23:54:36,"Porto, Portugal",city,"Vila Nova de Gaia, Portugal",Portugal
222,119.49616100000001,-5.1055785,innnssss.,1141737826133745664,2020-02-27 04:25:00,Indonesia,city,"Biringkanaya, Indonesia",Indonesia
82,78.46509449999998,17.3886495,Ratnakar Maheshwaram,1141737980,2020-02-15 06:07:03,,city,"Hyderabad, India",India
222,112.7009633,-7.6535461,yyourmayessticc,1141737997391429632,2020-05-31 07:04:13,"East Java, Indonesia",city,"Pandaan, Indonesia",Indonesia
162,18.690839999999998,54.360944999999994,Rumbaa_,1141738000134615043,2020-04-30 19:57:10,Gdask ,city,"Gdask, Polska",Polska
8,-64.1980255,-31.4154565,Alejandra de los santos,1141738045303074817,2020-04-25 20:41:32,,city,"Crdoba, Argentina",Argentina
120,102.326448,2.226675,,1141738061996290049,2020-02-22 13:34:26,,poi,Kolam Air Panas Bemban,Malaysia
186,0.263606,39.956626,andres andreshuko,1141738634216914946,2020-03-03 13:04:50,,city,"Castelln de la Plana, Espaa",Espaa
21,-50.219649,-22.619329500000003,Silvio Rodrigues,1141738892988682240,2020-03-15 04:26:22,"Assis, Brasil",city,"Platina, Brasil",Brasil
21,-42.550746999999994,-22.329604,Peter ,1141739071590621189,2020-05-12 14:09:17,"Nova Friburgo, Brasil",poi,Praa Do Cascatinha,Brasil
205,-0.452501,51.4195815,The Reluctant Inquisitor,1141739093912621057,2020-02-15 20:44:15,"London, England",city,"Staines-upon-Thames, South East",United Kingdom
51,-6.2357200000000015,53.494598,The Reluctant Inquisitor,1141739093912621057,2020-05-26 20:45:45,"London, England",city,"Fingal, Ireland",Ireland
205,-2.23348,53.4569525,The Reluctant Inquisitor,1141739093912621057,2020-05-29 08:35:14,"London, England",city,"Manchester, England",United Kingdom
151,3.3386055,6.4931125000000005,QVC Travel Concierge,1141739430929190912,2020-02-21 15:06:26,Lagos,city,"Lagos, Nigeria",Nigeria
82,85.85995600000001,20.284958,PRUTHU SINGH @HOME SAVING LIVES,114173949,2020-04-06 17:34:53,BHUBANESWAR,poi,Hotel Charlie,India
120,110.333028,1.4292295,Ayenamjoonie,1141739532204691456,2020-02-23 12:56:49,,city,"Kuching, Sarawak",Malaysia
82,77.215519,28.615268,Rishgraphy,1141739545920073728,2020-04-02 10:44:55,"New Delhi, India",poi,New Delhi |  ,India
39700,-97.7914895,26.4170705,Vernon Swanberg,1141739547790839808,2020-02-15 22:38:22,,city,"Lyford, TX",United States
35620,-74.213126,40.149757,Mrs. Vollrath,1141739709519007754,2020-03-05 18:15:40,,poi,Taunton School,United States
21,-46.5955455,-23.682803,llulis,1141739748513460224,2020-04-03 03:45:12,,city,"Sao Paulo, Brazil",Brazil
35620,-73.9685415,40.780709,Colby Finch,1141739967741407233,2020-02-14 20:51:40,"New York, USA",city,"Manhattan, NY",United States
26420,-95.4464865,29.838495,Theresa,1141740008652640256,2020-02-18 03:59:26,,city,"Houston, TX",United States
82,72.636678,22.980926999999998,NISHANT BHAVSAR,1141740138554261505,2020-03-15 19:47:07,"Ahmadabad City, India",city,"Daskroi, India",India
160,-77.11947099999999,-11.9845885,elvaperu,11417402,2020-02-14 01:08:11,"Lima, Peru",city,"Callao, Peru",Peru
222,127.36698600000001,0.762831,Tinta_Rindu,1141740370868391936,2020-03-01 23:40:03,"Maluku, Indonesia",poi,"Fakultas Ekonomi, universitas khairun",Indonesia
186,-8.422813000000001,43.345661,Ignacio Maestro Saavedra,1141740389692522497,2020-05-09 10:01:29,,city,"A Corua, Espaa",Espaa
119,-99.149564,19.421193,tu macho vergon,1141740483783385090,2020-03-29 02:51:24,"Doctores, Cuauhtmoc",poi,Tribunal Superior de Justicia de la Ciudad de Mxico,Mexico
88,140.066986,35.870761,,1141740572761133057,2020-05-01 01:12:27,,city,"Abiko-shi, Chiba",Japan
65,-1.5607395,47.2381615,Sevim Fontaine,1141740633671000065,2020-04-04 06:20:05,,city,"Nantes, France",France
8,-65.334372,-26.9287045,Nadim,1141740679523164160,2020-02-15 01:24:08,"Tucumn, Argentina",city,"Lules, Argentina",Argentina
151,4.011508,7.391763,Bello Hadi,1141740694752636930,2020-05-28 22:09:11,Nigeria,poi,St Dominic Chatholic Hospital,Nigeria
88,135.3070135,34.775017999999996, @,114174070,2020-02-28 13:56:28, ,city, ,
33100,-80.0580767,26.753881300000003,And you're gonna be happy,1141740886730137601,2020-02-22 17:21:21,,city,"West Palm Beach, FL",United States
200,28.900127,40.3651165,Betul,1141740907781328897,2020-05-12 17:59:43,Bursa/Eskiehir ,city,"Mudanya, Trkiye",Turkey
205,-0.1937195,51.4516565,Sarah Tahsildar,1141740956535971840,2020-02-14 06:36:51,"London, England",city,"Wandsworth, London",United Kingdom
30,113.680893,34.796092,,1141740998399279105,2020-03-08 04:37:32,,poi,Max Mara(),People's Republic of China
88,139.601045,35.687765,@LiSA,1141741232441319425,2020-03-28 19:25:49,,poi,,Japan
82,78.7047415,14.497326500000002,Dharaneedhar Reddy,1141741313626296320,2020-03-09 08:57:41,"Cuddapah, India",city,"Cuddapah, India",India
35620,-73.12393599999999,40.9084135,alex,1141741342583918593,2020-06-03 01:56:59,,city,"Stony Brook, NY",United States
24660,-79.96341,36.082783,Southeast PTTC,1141741369725280256,2020-02-16 18:12:36,"Winston-Salem, NC",poi,Embassy Suites by Hilton,United States
45300,-82.44269399999997,27.9965945,Southeast PTTC,1141741369725280256,2020-02-17 14:23:19,"Winston-Salem, NC",city,"Tampa, FL",United States
24660,-79.85736349999998,36.090397,Southeast PTTC,1141741369725280256,2020-02-19 13:23:13,"Winston-Salem, NC",city,"Greensboro, NC",United States
38,-74.24367099999999,4.2622835,Becas INL,1141741503733219329,2020-02-29 04:06:25,"Bogot, D.C., Colombia",city,"Bogot, D.C., Colombia",Colombia
24,-78.82221799999998,43.8309855,Wade Yarrow,1141741938,2020-02-17 02:49:34,hampton and emsdale ontario,city,"Oshawa, Ontario",Canada
