currentGEOID,lon,lat,name,author_Id,created_at,location,place_type,place_full_name,place_country
200,38.3631535,38.329569000000006,Abdullah celayir,165683896,2020-05-03 07:19:18,,city,"Malatya, Trkiye",Trkiye
47900,-76.74663849999997,38.9637825,Yolandra Hancock,1656840205,2020-03-22 17:20:05,,city,"Bowie, MD",United States
24,-114.087851,51.027664,FreshInk,16568415,2020-03-29 23:27:59,"Calgary, Alberta",city,"Calgary, Alberta",Canada
186,-3.711148,40.42399,uLy,1656842088,2020-02-24 11:37:23,"Comunidad de Madrid, Espaa",poi,Hotel Riu Plaza De Espaa,Espaa
200,27.006511,38.4079305,Werve,165684256,2020-06-07 19:46:31,Ankara,city,"zmir, Trkiye",Trkiye
82,72.57023199999999,23.013959,Rohan Kalambekar,165684414,2020-03-03 16:46:32,Ahmedabad,city,"Ahmadabad City, India",India
171,122.7361375,11.5519885,Carmela Legaspi,1656844148,2020-02-15 14:36:14,Philippines,city,"Roxas City, Western Visayas",Republic of the Philippines
88,139.484804,35.924023999999996, ,1656844250,2020-02-18 05:31:53,2/LIFENOISE,poi, ,
222,111.5045185,-7.895321000000001,annas syams,165684495,2020-02-14 05:37:51,purbalingga-yogyakarta,city,"Siman, Indonesia",Indonesia
31080,-118.1567105,33.809171500000005,blkstarbrand,16568458,2020-02-23 05:42:50,"Long Beach, CA",city,"Long Beach, CA",United States
38260,-94.692546,37.391490999999995,Pitt State Track & Field,1656846422,2020-02-14 14:54:15,"Pittsburg, KS",poi,Robert W. Plaster Center,United States
171,125.36798600000002,6.1673170000000015,cm ,1656846806,2020-06-02 11:01:50,dvo,city,"Alabel, Soccsksargen",Republic of the Philippines
24,-79.34582141,43.74549367,kitty,16568478,2020-02-15 23:47:34,"Toronto, ON, Canada",city,"Toronto, Ontario",Canada
17300,-87.3221685,36.5509835,alicia,1656848593,2020-02-18 01:59:44,,city,"Clarksville, TN",United States
12060,-84.352684,33.910689,S H Yarbrough,16568486,2020-05-02 19:45:23,Atlanta ,city,"Sandy Springs, GA",United States
205,-1.9522794999999997,50.7283545,Diane Bird,165684938,2020-02-15 16:08:37,Poole,city,"Poole, England",United Kingdom
35620,-73.8494415,40.8503475,MJ,1656849565,2020-05-31 03:35:48,"New York, USA",city,"Bronx, NY",United States
26420,-95.545328,29.960496999999997,Denise Gonzalez,16568501,2020-05-02 10:36:40,,poi,Chuck E. Cheese,United States
82,72.85023000000001,19.186429999999998,lovesh nagar,1656850310,2020-03-20 14:41:31,Mumbai,poi,Malad East,India
35620,-73.99644444,40.69705556,MobileOfficeMedia,1656850867,2020-03-05 10:18:17,"Mott Haven, Bronx",city,"Brooklyn, NY",United States
37980,-75.117998,40.0048655,Issy Ojalvo,16568509,2020-06-05 18:33:04,,city,"Philadelphia, PA",United States
8,-56.68981700000001,-36.680069,~ yesi ~ ,1656851432,2020-03-02 17:47:41,"Bs As, ",city,"San Bernardo, Argentina",Argentina
82,72.847178,19.018984,Richa Singh Rajput,1656851899,2020-02-28 11:49:07,"Mumbai,India",poi,Total Sports,
91,36.8167,-1.2833299999999999,Onyango Muleka,165685194,2020-03-10 07:01:12,"Nambale,Busia county",city,"Nairobi, Kenya",Kenya
82,72.865341,19.219525,prashant kadam,165685209,2020-03-24 15:02:54,mumbai,poi,HP Petrol Pump,India
21,-54.52704250000001,-31.019153999999997,Leonardo ,1656853448,2020-02-14 18:04:13,"Dom Pedrito, Brasil",city,"Dom Pedrito, Brasil",Brasil
82,73.910077,18.5081615,Rohit Gandhi,165685597,2020-02-15 01:18:52,"New Delhi, Delhi",city,"Haveli, India",India
205,0.4571355,51.570425,amy bruce,165685654,2020-02-22 14:15:07,london,city,"Basildon, East",United Kingdom
82,74.61093933,24.90994028, ,165685670,2020-03-07 16:07:07,"Jaipur, India",city,"Chittaurgarh, India",India
222,106.89145,-6.3330255,EMA,165685718,2020-03-24 02:31:05,,city,"Ciracas, Indonesia",Indonesia
82,77.5564225,13.075209,Anagha Nadig,1656858078,2020-03-02 04:33:24,"Bengaluru, India",city,"Bengaluru, India",India
26420,-95.53985250000001,30.1812515,Chris Sanchez,1656858936,2020-02-18 01:50:05,"Conroe, TX",city,"The Woodlands, TX",United States
35620,-73.996707,40.705967,Chris Sanchez,1656858936,2020-03-03 00:08:46,"Conroe, TX",poi,Brooklyn Bridge,United States
222,110.412802,-7.877669999999999,Athena,1656859075,2020-02-15 06:15:03,"Yogyakarta, Indonesia",city,"Pleret, Indonesia",Indonesia
171,120.9873905,14.8512035,generoso III,1656860216,2020-02-21 11:23:48,,city,"Santa Maria, Central Luzon",Republic of the Philippines
41940,-122.08144250000001,37.396853,Stephen Root,1656861932,2020-02-24 22:06:58,"San Francisco, CA",city,"Mountain View, CA",United States
41860,-122.43597849999999,37.7706565,Stephen Root,1656861932,2020-03-03 20:25:30,"San Francisco, CA",city,"San Francisco, CA",United States
19740,-105.00771058,39.74823479,DavidJW ,1656862165,2020-02-20 04:58:06,"Stonegate, CO",city,"Denver, CO",United States
37980,-75.181225,39.965806,Evan Lynn,1656862998,2020-06-08 00:10:48,"Philadelphia, PA",poi,Philadelphia Museum of Art,United States
82,77.5564225,13.075209,Marcy Newman,16568637,2020-02-14 12:48:50,Bengaluru,city,"Bengaluru, India",India
24,-79.27256949999999,43.629311,Frank Yu,1656864332,2020-02-21 13:12:16,"Toronto, Ontario",city,"Toronto, Ontario",Canada
38860,-70.2727,43.6315,Marcel Da Ponte,1656864355,2020-03-30 20:01:59,USA,city,"South Portland, ME",United States
16740,-80.651287,35.196751000000006,steezyvine ,1656864648,2020-02-23 03:30:07,"Charlotte,Nc",city,"Mint Hill, NC",United States
25860,-81.32533199999999,35.73898,steezyvine ,1656864648,2020-03-11 12:36:29,"Charlotte,Nc",poi,Lenoir-Rhyne University,United States
88,127.6876045,26.2112665,,1656865260,2020-02-14 13:53:21,,city, ,
193,102.8292215,15.0256365,,165686552,2020-02-16 13:32:49,,city,"Lam Plai Mat, Thailand",Thailand
158,174.8562435,-36.595729,Isaac Mercer,1656865878,2020-05-06 08:52:30,Auckland,city,"Auckland, New Zealand",New Zealand
44060,-117.410921,47.714628000000005,vane,1656865992,2020-02-29 04:17:07,mich,poi,Tomato Street,United States
39420,-117.15426950000001,46.730821999999996,vane,1656865992,2020-02-29 23:21:54,mich,city,"Pullman, WA",United States
28420,-119.132102,46.245556,vane,1656865992,2020-03-14 01:11:29,mich,city,"Pasco, WA",United States
21,-46.784484000000006,-23.533433,Lucas,1656867313,2020-05-13 00:22:44,,city,"Osasco, Brasil",Brasil
82,73.910077,18.5081615,Rakesh Mittal,1656867866,2020-02-15 00:18:40, India,city,"Haveli, India",India
21,-50.4531895,-26.901479499999997,petra gavassi,1656869005,2020-03-13 21:18:07,"Santa Catarina, Brasil",city,"Santa Ceclia, Brasil",Brasil
222,110.4050255,-7.712573,Abecute,1656870601,2020-02-19 09:17:56,,city,"Ngaglik, Indonesia",Indonesia
38380,-101.70175400000001,34.1887265,kinley jean ,1656871027,2020-04-17 04:24:28,Probably lost ,city,"Plainview, TX",United States
31180,-101.897173,33.5705265,kinley jean ,1656871027,2020-05-19 21:04:00,Probably lost ,city,"Lubbock, TX",United States
38380,-101.70175400000001,34.1887265,kinley jean ,1656871027,2020-05-20 05:15:48,Probably lost ,city,"Plainview, TX",United States
108,-61.163633,14.672132000000001,Dream Of Brighter Days,1656871238,2020-02-22 16:47:05,Martinique,poi,Bellefontaine,Martinique
38,-75.59203684,6.17563097,Alejandro Campo,1656871417,2020-03-03 03:04:46,"Sahagn, Colombia",city,"Envigado, Colombia",Colombia
186,-0.352529,39.422484499999996,Ana Iglesias,165687315,2020-04-26 17:15:58,"Valencia, Comunidad Valenciana",city,"Valencia, Espaa",Espaa
31080,-118.48042,34.022688,Peter Grossman,16568739,2020-02-28 16:43:20,"Santa Monica, CA",city,"Santa Monica, CA",United States
31080,-118.159729,34.0352975,CHIRLA,16568741,2020-03-01 00:37:35,"Los Angeles, CA",city,"East Los Angeles, CA",United States
82,75.74752099999999,26.909683,Ritesh kumar,1656874542,2020-03-02 08:21:43,,city,"Jaipur, India",India
171,121.0393165,14.2994805,MHAY DAGOHOY,1656875700,2020-02-18 12:47:17,"Cavite City, Calabarzon",city,"Carmona, Calabarzon",Republic of the Philippines
26900,-86.1429225,39.7795625,Joel Smith,16568759,2020-02-29 11:55:00,Floating betwixt vice & virtue,city,"Indianapolis, IN",United States
88,136.746948,35.166381,,1656876763,2020-02-14 18:47:00, ,city, ,
186,3.323453,39.624744,Alejandra ,165687736,2020-05-19 08:46:45,,city,"Sant Lloren des Cardassar, Espaa",Espaa
31080,-117.99873249999999,33.692541999999996,k,1656877572,2020-02-14 01:49:15,,city,"Huntington Beach, CA",United States
82,77.498726,28.545556,Sunil Sharma,1656880212,2020-05-26 06:03:40,ghaziabad,city,"Noida, India",India
26980,-91.537062,41.647353499999994,Amanda Bishop,165688261,2020-03-15 22:53:31,Iowa City is the best city.,city,"Iowa City, IA",United States
171,120.8600795,15.1200225,baby bun,165688297,2020-04-17 10:32:03,bed ,city,"Candaba, Central Luzon",Republic of the Philippines
82,76.99832549999998,10.552611,MASS AJITH,165688344,2020-02-21 10:00:33,India,city,"Pollachi, India",India
44700,-121.3004255,37.980826,licia,1656883638,2020-02-14 22:00:15,"Stockton, CA",city,"Stockton, CA",United States
33700,-120.98746799999999,37.663817,licia,1656883638,2020-03-07 20:11:49,"Stockton, CA",city,"Modesto, CA",United States
44700,-121.2380875,37.816453499999994,licia,1656883638,2020-03-09 18:52:37,"Stockton, CA",city,"Manteca, CA",United States
46520,-157.80956300000003,21.423675,Joshua Robinson,1656884640,2020-04-11 01:13:57,,city,"Heeia, HI",United States
41860,-122.43597849999999,37.7706565,Mandy Davis Aitken,16568852,2020-02-15 02:49:05,Washington DC,city,"San Francisco, CA",United States
47900,-77.0143985,38.898603,Mandy Davis Aitken,16568852,2020-02-29 19:44:01,Washington DC,city,"Washington, DC",United States
16980,-87.732013,41.8335845,Mandy Davis Aitken,16568852,2020-03-12 22:09:42,Washington DC,city,"Chicago, IL",United States
47900,-77.0143985,38.898603,Mandy Davis Aitken,16568852,2020-05-13 14:00:31,Washington DC,city,"Washington, DC",United States
21,-54.534988799999994,-25.5155466,Jaack Cardoso,1656885572,2020-04-04 11:39:01,Goinia - Go,city,"Foz do Iguau, Brasil",Brasil
82,88.43433559,22.57115471,Suvendu Das,1656889135,2020-02-17 06:59:33,Kolkata India,city,"Bidhan Nagar, India",India
119,-99.2480095,19.318042000000002,Hunk_Zero,16568892,2020-02-21 00:35:38,Mexico,city,"lvaro Obregn, Distrito Federal",Mxico
188,31.5925765,4.8437685,TJ Pete,1656891523,2020-04-26 18:38:01,Juba,city,Juba,
21,-59.9803255,-2.572425,Ratuina,1656891918,2020-05-12 19:54:09,"Manaus, Brasil",city,"Manaus, Brasil",Brasil
19100,-97.2859135,32.7799665,KScott,1656891961,2020-05-04 21:32:45,,city,"Fort Worth, TX",United States
82,72.87424399999999,19.174139999999998,Akshita Singh Bhadauria,1656891966,2020-04-22 04:53:42,Mumbai,city,"Mumbai, India",India
193,100.4076465,14.324257000000001, ,1656893269,2020-03-02 14:28:20,"., .",city,", ",
29540,-76.202403,40.1575375,Christopher Landes,16568933,2020-02-24 14:33:48,"Lancaster, PA",city,"Akron, PA",United States
222,115.2261395,-8.705967999999999,Jasper,165689470,2020-05-05 05:35:33,Dreamville,city,Indonesia,Indonesia
88,142.24086499999999,43.545790000000004, 378 ,165689490,2020-03-07 16:31:46,,poi, ,
88,139.62464629,35.46502951,nigirimeshi,1656895046,2020-02-14 05:59:26,,city,  ,
200,29.0052225,41.0213205,Sezayi imen,165689533,2020-02-23 12:18:13,stanbul,city,"stanbul, Trkiye",Trkiye
175,39.2541285,21.5857105, ,1656897326,2020-02-26 20:42:45,,city,",   ",  
33,-71.51564599999999,-33.0263575,valparaiso #imagenes,1656897967,2020-02-19 03:19:14,,city,"Via del Mar, Chile",Chile
171,120.968701,14.3135285,Kurt Veluz,1656898128,2020-02-17 07:26:34,Lucban | Philippines,city,"Dasmarinas, Calabarzon",Republic of the Philippines
186,2.111878,41.358305,Ricardo,165689913,2020-03-10 20:53:41,"L'Hospitalet de Llobregat, Espaa",city,"L'Hospitalet de Llobregat, Espaa",Espaa
82,80.88440750000002,26.8251695,Manoj Pandey,165690064,2020-05-12 14:42:04,"Lucknow, India",city,"Lucknow, India",India
33460,-93.8420905,44.960434,Willmar Athletics,1656901070,2020-02-14 03:18:09,Willmar Senior High,city,"Watertown, MN",United States
48820,-95.040446,45.144254499999995,Willmar Athletics,1656901070,2020-02-22 02:07:09,Willmar Senior High,city,"Willmar, MN",United States
33460,-93.100951,44.944684,Willmar Athletics,1656901070,2020-02-28 16:51:11,Willmar Senior High,poi,Xcel Energy Center,United States
48820,-95.040446,45.144254499999995,Willmar Athletics,1656901070,2020-03-01 15:16:21,Willmar Senior High,city,"Willmar, MN",United States
151,8.8986345,9.843776,Pangdak YB,165690114,2020-03-02 21:34:20,"Jos,nigeria",city,"Rayfield, Nigeria",Nigeria
88,139.80211050000003,35.83833950000001,,1656902652,2020-02-27 13:30:33,,city, ,
82,88.338421,22.716309,Mahul Majumdar,165690276,2020-05-20 03:24:38,"KOLKATA, India",poi,Ruma Abodena Hospice,India
40140,-117.16452171,34.06452383,Steven Moore,16569030,2020-03-21 01:07:08,"Redlands, CA",city,"Redlands, CA",United States
49780,-82.024493,39.890265500000005,Bo Spring,1656903770,2020-03-28 23:02:41,,city,"South Zanesville, OH",United States
205,-1.5186514999999998,52.411913,Chris Pap,165690382,2020-03-18 21:45:36,,city,"Coventry, England",United Kingdom
19100,-97.079654,32.931834,Rosa M.,1656905095,2020-02-17 12:32:23,,city,"Grapevine, TX",United States
38060,-112.1246765,33.5528625,Rosa M.,1656905095,2020-03-01 04:57:14,,city,"Phoenix, AZ",United States
19100,-96.7617535,32.819858499999995,Rosa M.,1656905095,2020-03-06 05:53:26,,city,"Dallas, TX",United States
22900,-94.78095400000001,34.200615,Rosa M.,1656905095,2020-05-16 05:50:24,,poi,Broken Bow Cabins,United States
19100,-96.7617535,32.819858499999995,Rosa M.,1656905095,2020-05-20 03:38:21,,city,"Dallas, TX",United States
88,139.486649,35.558510999999996,,165690569,2020-02-21 02:34:49,,poi, ,
12940,-91.0907995,30.4591,ImTyHoe,1656906342,2020-02-14 01:33:47,"Baton Rouge, LA",city,"Baton Rouge, LA",United States
222,110.24939750000001,-7.577891999999999,awan kinton,1656906842,2020-05-02 20:19:19," , ",city,"Mungkid, Indonesia",Indonesia
10300,-84.0492745,41.9008315,HUSTLE,1656907382,2020-03-13 03:16:48,"Detroit, MI",city,"Adrian, MI",United States
24,-123.93616999999999,49.16426,Elise Boulanger,165690774,2020-02-19 07:21:12,west coast,city,"Nanaimo, British Columbia",Canada
82,83.4830555,20.700484,Biswajit Mishra~,165690902,2020-03-10 12:45:28,"Hyderabad, India",city,"Balangir, India",India
41940,-121.8737305,37.331159,S,1656910448,2020-03-04 20:01:42,Neptune,city,"San Jose, CA",United States
37980,-75.153378,40.063301,Sith Cmplx ,1656913238,2020-06-10 06:32:53,Call of Duty 4,poi,West Oak Lane,United States
128,4.36667,51.0833,Spike Bones,165691326,2020-02-23 22:01:34,Sambreville,city,"Willebroek, Belgi",Belgique
41740,-117.05778500000001,32.714794,Sara Jacobs,1656913327,2020-03-07 18:39:40,"San Diego, CA",poi,Encanto Little League,United States
205,-0.0706035,51.464686,Leo Vher Gamboa,16569134,2020-02-19 10:03:50,"SE1, London, United Kingdom.",city,"Camberwell, London",United Kingdom
193,100.3854645,13.7401425,varutthaya,165691384,2020-06-05 00:42:40,,city,", ",
48620,-97.26466,37.766783,qllon,1656914473,2020-02-20 18:14:00,"Bel Aire, KS",city,"Bel Aire, KS",United States
35980,-71.95685449999998,41.362588,ballout,1656914473,2020-03-11 18:27:57,"Bel Aire, KS",city,"Mystic, CT",United States
151,7.4078919999999995,6.859891999999999,charles udoye,1656914935,2020-04-06 03:40:44,"Enugu,Nigeria",poi,"University of Nigeria,Nsukka",Nigeria
171,121.08195400000001,14.655082,lijah #DefendPressFreedom,1656918961,2020-05-13 13:03:42, ,poi,The Kitchen,Republic of the Philippines
171,121.0392605,14.5847555,A J,1656919303,2020-02-28 20:47:12,Mars,city,"Mandaluyong City, National Capital Region",Republic of the Philippines
152,4.324361,52.0372525,eerepeer,165691942,2020-05-09 08:12:10,,city,"Rijswijk, Nederland",Nederland
38,-76.5225,3.4372199999999995,Giusseppe ,165691949,2020-04-23 07:35:19,"Cali, VAC, CO",city,"Candelaria, Colombia",Colombia
160,-77.063592,-12.0784275,danielmklopp,16569222,2020-02-16 20:41:37,"Lima, Peru, South America",city,"Magdalena Vieja, Peru",Peru
24,-114.4670645,51.18940600000001,Brennen Lenaghan ,1656922482,2020-02-14 05:08:49,,city,"Cochrane, Alberta",Canada
200,29.0052225,41.0213205,Senem Deniz abuk,165692251,2020-02-14 15:10:24,stanbul,city,"stanbul, Trkiye",Trkiye
88,132.44895200000002,34.3857005,,1656923329,2020-04-16 15:22:21,,city,  ,
31080,-118.24222749999998,33.966404,sandra,1656923522,2020-02-23 04:59:28,,city,"Florence-Graham, CA",United States
205,-0.14893599999999999,51.500091999999995,Ruth Waring FCILT,165692422,2020-02-22 14:25:06,Leamington Spa (and Donegal),city,"London, England",United Kingdom
24,-114.00923999999999,51.2746875,Lindsay Adams,1656924565,2020-05-18 23:55:04,"Rocky View County, Alberta",city,"Airdrie, Alberta",Canada
31080,-117.99873249999999,33.692541999999996,Ryan Molina,16569249,2020-02-14 04:58:14,"Orange County, California",city,"Huntington Beach, CA",United States
42660,-122.3306025,47.614816999999995,Ryan Molina,16569249,2020-02-25 00:24:43,"Orange County, California",city,"Seattle, WA",United States
31080,-117.9056455,33.6636085,Ryan Molina,16569249,2020-02-29 18:17:33,"Orange County, California",city,"Costa Mesa, CA",United States
24,-75.80014150000001,45.248791,CTVMorningLiveOttawa,16569278,2020-04-06 16:35:50,"Ottawa, ON",city,"Ottawa, Ontario",Canada
35620,-74.00076130000001,40.7207559,goldwestvintage,1656927895,2020-02-18 22:08:48,SF,city,"Manhattan, NY",United States
16980,-87.88593399999999,41.980641999999996,goldwestvintage,1656927895,2020-03-09 00:50:27,SF,city,"Chicago, IL",United States
35620,-74.00076130000001,40.7207559,goldwestvintage,1656927895,2020-03-11 17:42:43,SF,city,"Manhattan, NY",United States
41860,-122.46600000000001,37.8899,goldwestvintage,1656927895,2020-03-17 04:41:23,SF,city,"Tiburon, CA",United States
35620,-74.00076130000001,40.7207559,goldwestvintage,1656927895,2020-03-19 17:18:25,SF,city,"Manhattan, NY",United States
41860,-122.50918495,37.94711599,goldwestvintage,1656927895,2020-05-03 00:52:14,SF,city,"Larkspur, CA",United States
35620,-74.00076130000001,40.7207559,goldwestvintage,1656927895,2020-05-06 17:43:28,SF,city,"Manhattan, NY",United States
41860,-122.46600000000001,37.8899,goldwestvintage,1656927895,2020-05-12 00:53:50,SF,city,"Tiburon, CA",United States
35620,-74.00076130000001,40.7207559,goldwestvintage,1656927895,2020-05-13 17:27:03,SF,city,"Manhattan, NY",United States
41860,-122.46600000000001,37.8899,goldwestvintage,1656927895,2020-05-14 00:27:44,SF,city,"Tiburon, CA",United States
35620,-74.00076130000001,40.7207559,goldwestvintage,1656927895,2020-05-20 17:00:13,SF,city,"Manhattan, NY",United States
34900,-122.29899999999999,38.3048,goldwestvintage,1656927895,2020-05-22 21:45:43,SF,city,"Napa, CA",United States
41860,-122.46600000000001,37.8899,goldwestvintage,1656927895,2020-05-27 00:09:42,SF,city,"Tiburon, CA",United States
35620,-74.00076130000001,40.7207559,goldwestvintage,1656927895,2020-06-03 17:08:34,SF,city,"Manhattan, NY",United States
171,125.06606399999998,7.902982000000001,Jerrie Mae ,1656928320,2020-02-15 03:57:37,"CGY | BUK, Philippines",city,"City of Valencia, Northern Mindanao",Republic of the Philippines
38060,-112.1246765,33.5528625,Christian Torrez,165692894,2020-04-09 05:00:17,"Phoenix, AZ",city,"Phoenix, AZ",United States
35620,-73.9487755,40.655138,Owen Zidar,16569310,2020-03-07 19:31:32,"Princeton, NJ",city,"Brooklyn, NY",United States
45940,-74.665028,40.34965,Owen Zidar,16569310,2020-03-20 23:50:52,"Princeton, NJ",city,"Princeton, NJ",United States
38860,-70.656987,43.1386065,BRogers03909,16569314,2020-02-16 18:17:17,,city,"York Harbor, ME",United States
38,-73.184811,5.8097755,Juan Garcia,165693176,2020-03-28 05:57:47,New Zealand,city,"Paipa, Colombia",Colombia
193,100.618267,13.989163000000001,Chulalak Butruengsak,165693224,2020-02-16 09:17:11,"Bangkok, Thailand",poi,Future Park (),Thailand
42340,-81.314899,31.940074,DeeBee Barnwell,16569325,2020-03-31 00:10:53,"Atlanta, GA Native, Global",city,"Richmond Hill, GA",United States
222,113.71521499999999,-8.1802265,Bagas Yanuar Kafabi,165693511,2020-04-28 14:04:44,"Jember, Indonesia",city,"Sumbersari, Indonesia",Indonesia
222,110.397709,-7.817205499999999,Dim dim ba dim dim,165693520,2020-04-16 15:38:04,yogyakarta/surabaya,city,"Kotagede, Indonesia",Indonesia
47900,-77.0143985,38.898603,williamg99,16569354,2020-03-20 20:13:58,,city,"Washington, DC",United States
38,-74.24367099999999,4.2622835,observatoriovictimas,1656935593,2020-03-04 15:16:40,,city,"Bogot, D.C., Colombia",Colombia
193,100.510183,13.912398499999998,oscar isaac is GUATEMALTECO,165693637,2020-02-19 16:29:07,Tailandia,city,", ",Tailandia
85,12.5451455,41.8984165,SEAWEED BRAIN ,165693637,2020-03-21 19:24:15,Tailandia,city,"Roma, Lazio",Italia
91,36.863620000000004,-1.2748635,Kariuki Muchori,165693665,2020-04-01 06:56:22,Kenya,city,"Nairobi, Kenya",Kenya
17140,-84.4164,39.3983,Aura Lee Elder,16569370,2020-05-21 00:26:55,"Cincinnati, Ohio",city,"Princeton, OH",United States
21,-49.261299,-16.642782500000003,Anna,1656937034,2020-02-15 15:00:15,"Goinia, Brazil",city,"Goinia, Brazil",Brazil
193,100.628344,13.7254145,Dawn,165693776,2020-02-20 01:57:23,Bangkok,city,"Suan Luang, Thailand",Thailand
222,106.789773,-6.3451445,nurul fadilla,1656938568,2020-04-30 19:23:55,Indonesia,city,"Lima, Indonesia",Indonesia
82,75.74752099999999,26.909683,Rajendra Prakkash,165693881,2020-03-03 13:15:50,"Jaipur, India",city,"Jaipur, India",India
26420,-95.3778145,30.0635145,Eric Ryan Levels,1656938984,2020-03-19 15:11:30,"Houston, Tx",city,"Spring, TX",United States
11100,-101.845,35.1993,SlimTHICK,165693909,2020-03-05 05:54:41,"San Antonio, Tx",city,"Amarillo, TX",United States
16300,-91.713432,42.0596565,ana,1656939998,2020-02-21 21:18:30,"Cedar Rapids, IA",city,"Hiawatha, IA",United States
119,-105.1485805,20.6970525,ana,1656939998,2020-03-19 07:06:37,"Cedar Rapids, IA",city,"Puerto Vallarta, Jalisco",Mexico
16300,-91.6828545,41.976528,ana,1656939998,2020-03-23 05:00:11,"Cedar Rapids, IA",city,"Cedar Rapids, IA",United States
171,121.1242275,14.606717499999998,labli,1656940375,2020-03-25 01:42:00,MNL,city,"Cainta, Calabarzon",Republic of the Philippines
8,-60.77609,-31.68188,|Diego M| ,1656940843,2020-05-26 03:54:26,,city,"Santo Tom, Argentina",Argentina
41940,-122.14403,37.414371,Luis Arciniegas,16569409,2020-02-26 22:17:50,"California, USA",city,"Palo Alto, CA",United States
41860,-122.29550955,37.5093794,Luis Arciniegas,16569409,2020-04-06 04:24:25,"California, USA",city,"Belmont, CA",United States
88,133.74231550000002,34.543449,,165694171,2020-04-07 22:12:46,,city, ,
49,-80.754077,-1.827575,KOL,1656943105,2020-02-24 21:31:52,"Guayas, Ecuador",poi,Playa Montaita,Ecuador
203,39.274383,-6.784412,zahir ally zorro,1656943386,2020-03-11 05:59:25,tanzania,poi,Tanzania House of Talent,Tanzania
14460,-70.872366,42.810590000000005,Kipp,1656943472,2020-03-31 01:00:03,,poi,United States Post Office,United States
161,73.08714300000001,33.732659999999996,Haris Mir,1656943597,2020-02-19 10:08:22,Islamabad,poi,Islamabad Marriott Hotel,Pakistan
82,73.712642,16.261971,shri parkar,1656944246,2020-04-03 10:43:48,,city,"Kankauli Mahal, India",India
44660,-97.0802045,36.129689,Gypsy Rose Blanchfart,1656945234,2020-03-16 23:30:36,,city,"Stillwater, OK",United States
171,120.6619125,15.0677605,omhe,1656945462,2020-03-13 06:43:40,"San Fernando City, Central Luzon",city,"San Fernando City, Central Luzon",Republic of the Philippines
34980,-86.5869,35.9897,IoT Botnet,16569456,2020-03-04 00:41:12,Extremely South Pittsburgh,city,"La Vergne, TN",United States
200,39.488594,39.73737,Sefa BEDR,165694614,2020-03-05 20:36:20,Erzicnan,poi,Erzincan,Trkiye
21,-46.17859,-23.51126,Rodolfo Nascimento,16569463,2020-03-08 11:23:59,"Mogi das Cruzes, SP, Brasil",city,"Mogi das Cruzes, Brasil",Brazil
36740,-81.2831215,28.784184000000003,Gianna Granito,1656946465,2020-03-15 05:25:10,,city,"Sanford, FL",United States
39060,-76.1047545,40.654715,Gianna Granito,1656946465,2020-04-03 19:42:19,,city,"Orwigsburg, PA",United States
120,101.4790765,3.1231455,,1656946531,2020-03-06 11:59:25,,city,"Bukit Raja, Selangor",Malaysia
41180,-90.517684,38.7930465,2GuysTalking,16569469,2020-03-04 19:11:41,"St, Louis, MO  USA",city,"St Charles, MO",United States
151,5.7847,5.5561,Dr. Voke Faith,165694733,2020-04-08 06:44:34,"Delta, Nigeria",city,"Warri, Nigeria",Nigeria
85,11.66046983,46.11543782,alexia cociancich,165694858,2020-02-15 14:32:34,Italy,city,"Castello Tesino, Trentino-Alto Adige",Italy
16740,-80.58713,35.462924,Isha Jain,1656949128,2020-03-06 20:26:52,,poi,Cracker Barrel Old Country Store,United States
41740,-117.11910400000001,32.705059000000006,Mount Olive Baptist,1656949250,2020-03-22 20:17:05,"San Diego, CA",poi,Mt. Olive Baptist Church,United States
12060,-84.44443199999999,33.64015,Justin Slaughter,16569497,2020-03-15 14:26:39,"Maryland, USA",poi,South Terminal,United States
47900,-77.12949950000002,38.952451,Justin Slaughter,16569497,2020-04-04 22:52:51,"Maryland, USA",city,"Brookmont, MD",United States
10580,-73.7242486,42.906985799999994,Corey Bourassa,16569498,2020-06-07 18:11:34,"Albany, New York",city,"Halfmoon, NY",United States
186,-3.68890643,40.42000881,La Chica Olimpica 96 OLY EiffelLeBron,1656952712,2020-03-01 05:59:20,"Florida, USA",city,"Madrid, Spain",Spain
36740,-81.4129,28.304000000000002,La Chica Olimpica 96 OLY EiffelLeBron,1656952712,2020-03-04 18:08:24,"Florida, USA",city,"Kissimmee, FL",United States
17980,-84.99135628,32.45232838,La Chica Olimpica 96 OLY EiffelLeBron,1656952712,2020-03-18 15:27:15,"Florida, USA",city,"Columbus, GA",United States
36740,-81.3229,28.6596,La Chica Olimpica 96 OLY EiffelLeBron,1656952712,2020-05-24 23:30:36,"Florida, USA",city,"Casselberry, FL",United States
205,-1.41302743,54.86520433,Jamie K Wilson,165695476,2020-04-04 12:56:59,Sunderland,city,"Doxford Park, England",United Kingdom
193,100.5985275,7.194903999999998, ,165695494,2020-03-22 15:36:49,"Thailand,Songkhla",city,", ",
31080,-118.131964,34.17731,tate,1656955291,2020-02-26 23:55:04,"Pasadena, CA",city,"Pasadena, CA",United States
42200,-119.5123185,34.397580000000005,tate,1656955291,2020-05-16 04:32:47,"Pasadena, CA",city,"Carpinteria, CA",United States
31080,-118.5032585,34.415631,tate,1656955291,2020-05-17 02:00:56,"Pasadena, CA",city,"Santa Clarita, CA",United States
40140,-117.72176100000001,33.9725155,tate,1656955291,2020-05-17 21:00:03,"Pasadena, CA",city,"Chino Hills, CA",United States
31080,-117.84968700000002,34.1355205,tate,1656955291,2020-05-18 05:06:35,"Pasadena, CA",city,"Glendora, CA",United States
151,3.3180660000000004,6.590611,nezees accessories,1656955441,2020-02-14 05:30:59,Planet earth ,city,"Ikeja, Nigeria",Nigeria
88,136.95978300000002,35.071538000000004,,165695591,2020-04-29 04:59:38,,poi,,
151,7.424094,9.073663999999999,JuicyRy',1656956000,2020-02-18 22:40:37,"Abuja, NIGERIA",city,"Abuja, Nigeria",Nigeria
186,-3.75151902,40.3389889,MAYKEL CELI,165695608,2020-02-22 16:01:00,LEGANES-MADRID-ESPAA-ECUADOR,city,"Legans, Espaa",Espaa
58,14.420539999999999,50.086709899999995,MAYKEL CELI,165695608,2020-03-07 13:38:11,LEGANES-MADRID-ESPAA-ECUADOR,city,"Praga, Repblica Checa",Repblica Checa
186,-3.754346,40.334472999999996,MAYKEL CELI,165695608,2020-03-26 18:35:51,LEGANES-MADRID-ESPAA-ECUADOR,city,"Legans, Espaa",Espaa
88,135.328257,35.430929,@,165695668,2020-06-01 09:55:00,,poi, ,
171,120.61327408,16.39924625,Tigger,1656956826,2020-02-23 03:21:53,Republika ng Pilipinas,city,"Baguio City, Cordillera Admin Region",Republic of the Philippines
38300,-80.00016,40.44358,ProperPGH,1656956869,2020-03-19 20:22:14,"139 7th St, Pittsburgh, PA",city,"Pittsburgh, PA",United States
35380,-90.081487,29.960590000000003,Getmade MacGuyver Minded MUA Social Beauty Speaker,1656956906,2020-02-15 03:14:25,United States,poi,University Medical Center of New Orleans,United States
205,-2.6420435,53.6956315,longy007,1656957158,2020-02-19 06:17:28,"Preston, England",city,"Whittle-le-Woods, England",United Kingdom
82,77.286407,28.561006,Faiz,1656957685,2020-05-02 06:40:48,"New Delhi, India",poi,Jamia Millia Islamia,India
47900,-77.0143985,38.898603,Kindred Motes,1656958189,2020-02-20 02:31:47,"Washington, DC",city,"Washington, DC",United States
172,-66.0116515,18.4408955,Kindred Motes,1656958189,2020-02-25 18:14:38,"Washington, DC",city,"Isla Verde, USA",United States
35620,-73.9487755,40.655138,Kindred Motes,1656958189,2020-02-28 15:49:01,"Washington, DC",city,"Brooklyn, NY",United States
47900,-77.0143985,38.898603,Kindred Motes,1656958189,2020-02-29 23:54:48,"Washington, DC",city,"Washington, DC",United States
82,88.352242,22.6127055,AMIT CHOUDHARY,1656961219,2020-04-08 16:01:50,Kolkata,city,"Kolkata, India",India
26420,-95.4464865,29.838495,Ximena,1656962870,2020-03-16 23:00:41,htx,city,"Houston, TX",United States
88,144.0828014,44.1211239, ,165696299,2020-02-14 20:25:58, ,city, ,
205,-0.133956,51.510695,Lewis Cater,16569634,2020-02-16 00:36:39,"London, England",poi,Picturehouse Central,United Kingdom
151,3.3180660000000004,6.590611,Bankole Oluwadara,165696368,2020-05-09 07:33:21,,city,"Ikeja, Nigeria",Nigeria
40140,-116.361297,33.7405385,GeekMuzik,165696371,2020-02-14 18:51:08,Southern California,city,"Palm Desert, CA",United States
175,46.602447999999995,24.765234,,1656964094,2020-02-22 19:24:57,"Florida, USA",poi,El Lechazo Restaurant,  
47900,-77.0143985,38.898603,Kat,1656965520,2020-02-20 06:26:34,Texas,city,"Washington, DC",United States
41700,-99.161377,29.353128,Kat,1656965520,2020-02-21 16:59:15,Texas,city,"Hondo, TX",United States
20580,-100.4806255,28.713144500000002,Kat,1656965520,2020-03-22 22:37:27,Texas,city,"Eagle Pass, TX",United States
41700,-99.161377,29.353128,Kat,1656965520,2020-03-25 00:40:52,Texas,city,"Hondo, TX",United States
175,46.685077,24.7219435,  ,1656966199,2020-02-14 10:48:46,Riyadh / Shaqra,city,",   ",  
16980,-88.31475,41.699383000000005,Flash Gordon,165696835,2020-05-22 21:46:43,,poi,Just Tires,United States
27780,-78.8284265,40.247936,Karyl,16569686,2020-03-27 23:34:13,,city,"Windber, PA",United States
222,106.808194,-6.3944565, ,1656969594,2020-02-23 10:25:16,"DKI Jakarta, Indonesia",city,"Pancoran Mas, Indonesia",Indonesia
222,123.05981398,0.54292462,madip,165697060,2020-02-28 10:48:18,Somewhere in eastern Indonesia,city,"Kota Selatan, Indonesia",Indonesia
9,150.43377800000005,-34.476924,Debra Bourne,16569725,2020-03-31 18:31:59,Australia,city,"Bowral - Mittagong, New South Wales",Australia
200,29.096246,37.7721435,smail Arsoy,165697300,2020-05-09 00:52:28,"Denizli, Trkiye",city,"Denizli, Trkiye",Trkiye
171,121.0392605,14.5847555,camilla ,1656973038,2020-04-30 08:27:45,"Marilao, Central Luzon",city,"Mandaluyong City, National Capital Region",Republic of the Philippines
21,-48.614005999999996,-26.824671999999996,Liith,165697312,2020-02-23 14:11:59,,poi,Praia de So Miguel,Brasil
152,4.684829,52.3004295,Liith,165697312,2020-03-06 11:51:47,,city,"Haarlemmermeer, Nederland",Nederland
173,61.367855500000005,55.15589900000001,Liith,165697312,2020-03-22 06:52:04,,city,", ",
11900,-82.0964045,39.320384,madison,1656973632,2020-02-14 03:14:09,"Ohio, USA",city,"Athens, OH",United States
18140,-83.0677285,39.849472999999996,madison,1656973632,2020-03-13 19:41:15,"Ohio, USA",city,"Grove City, OH",United States
17140,-84.6564475,38.989258,Madison,1656973632,2020-05-19 14:38:45,"Ohio, USA",city,"Florence, KY",United States
28940,-84.086323,36.160277,Madison,1656973632,2020-05-19 18:23:57,"Ohio, USA",city,"Hillvale, TN",United States
12060,-84.43310600000001,33.7671945,Madison,1656973632,2020-05-20 03:20:44,"Ohio, USA",city,"Atlanta, GA",United States
18140,-83.0677285,39.849472999999996,Madison,1656973632,2020-06-02 16:57:00,"Ohio, USA",city,"Grove City, OH",United States
40140,-117.5621525,34.12167,bought the zip,1656974982,2020-05-09 07:21:01,,city,"Rancho Cucamonga, CA",United States
37100,-119.16538899999999,34.181956,bought the zip,1656974982,2020-05-10 03:07:36,,city,"Oxnard, CA",United States
40140,-117.5621525,34.12167,bought the zip,1656974982,2020-05-14 05:55:14,"Oxnard, CA",city,"Rancho Cucamonga, CA",United States
37100,-119.16538899999999,34.181956,bought the zip,1656974982,2020-05-16 08:22:26,"Oxnard, CA",city,"Oxnard, CA",United States
82,78.3852855,17.3950375,VENKAT ESHWARLU,1656977642,2020-06-10 12:06:49,Hyderabad,city,"Rajendra Nagar, India",India
205,-0.13712850000000001,51.4220524,Angie Farrar,165697773,2020-03-28 15:23:54,"London, UK",city,"Lambeth, London",United Kingdom
171,120.97026644,14.22848868,lakambini bottom,165697820,2020-02-28 21:25:43,,city,"Silang, Calabarzon",Republic of the Philippines
35620,-73.99474000000001,40.72469,jeanieforever,16569783,2020-02-18 01:35:34,In dreams,city,"Manhattan, NY",United States
38900,-122.678249,45.518237,jeanieforever,16569783,2020-02-19 06:34:47,In dreams,city,"Portland, OR",United States
31700,-71.464,42.7579,jeanieforever,16569783,2020-02-21 02:04:04,In dreams,city,"Nashua, NH",United States
35620,-74.0183555,40.7772977,jeanieforever,16569783,2020-02-26 22:24:27,In dreams,city,"Weehawken, NJ",United States
135,6.1619205,49.578139,Brett,165697950,2020-02-15 17:29:44,Luxembourg,city,"Hesperange, Luxembourg",Luxembourg
46060,-111.135516,32.3880115,Dave Silver,1656980312,2020-04-10 23:43:00,"Arizona, USA",city,"Marana, AZ",United States
151,3.39583,6.45306,BlackBoyCulture,165698215,2020-03-28 01:48:12,Lagos,city,"Lagos, Nigeria",Nigeria
225,54.374848,24.492668,Jayanth Maydipalle,165698252,2020-02-27 07:13:38,"Orlando, FL",poi,ADNOC,United Arab Emirates
171,123.8713375,9.661768499999999,zandra,1656982639,2020-02-26 15:07:28,Carmen Bhl,city,"Tagbilaran City, Central Visayas",Republic of the Philippines
41740,-117.320879,33.226316,Ella ,1656982730,2020-02-14 18:07:13,,city,"Oceanside, CA",United States
38060,-112.1246765,33.5528625,Ella ,1656982730,2020-02-24 02:37:13,,city,"Phoenix, AZ",United States
41740,-117.320879,33.226316,Ella ,1656982730,2020-03-01 03:19:10,,city,"Oceanside, CA",United States
38060,-111.7375655,33.4057545,Ella ,1656982730,2020-03-11 01:32:27,,city,"Mesa, AZ",United States
222,106.425063,-6.2552415,fahhhhhh,1656983215,2020-06-11 09:47:21,Indonesia,city,"Cisoka, Indonesia",Indonesia
37980,-75.264843,39.8692185,Katherine Borg,1656983994,2020-02-22 15:06:47,"Sacramento, CA - Irvine, CA",city,"Lester, PA",United States
47900,-77.0143985,38.898603,Katherine Borg,1656983994,2020-02-23 20:22:13,"Sacramento, CA - Irvine, CA",city,"Washington, DC",United States
40900,-121.318722,38.641304999999996,Katherine Borg,1656983994,2020-03-30 04:45:37,"Sacramento, CA - Irvine, CA",city,"Carmichael, CA",United States
19100,-96.7617535,32.819858499999995,heather leigh,16569841,2020-02-22 16:08:26,Dallas,city,"Dallas, TX",United States
33460,-93.50666667,44.97416667,Pedro McFarland,1656984265,2020-04-08 21:42:37,"Yes, I was there!",city,"Wayzata, MN",United States
82,73.8262495,24.4594275, ,1656986094,2020-03-08 14:07:53,udaipur,city,"Udaipur, India",India
46060,-110.91557350000001,32.1893905, ,1656986502,2020-04-23 07:34:01,"Tucson, AZ",city,"Tucson, AZ",United States
96,48.067819,29.277994, ,1656986502,2020-05-07 03:48:17,"Tucson, AZ",city,"Mishrif, Kuwait",Kuwait
47900,-77.0143985,38.898603,Catherine M,16569882,2020-03-17 12:48:44,,city,"Washington, DC",United States
200,29.0052225,41.0213205,umu,165698872,2020-04-03 08:26:14,"Istanbul, Anadolu",city,"stanbul, Trkiye",Trkiye
21,-47.796623,-15.776254000000002,Hermnio Neto,16569892,2020-05-22 10:33:27,"Braslia, Brasil",city,"Braslia, Brasil",Brasil
88,135.6180375,34.668202,,1656991927,2020-05-25 05:59:48,Terre,city, ,
41860,-122.1228365,37.894740500000005,DavidBSmith,16569927,2020-03-14 18:39:40,San Francisco CA,city,"Lafayette, CA",United States
96,48.0129795,29.297036,.   ,165699354,2020-02-22 15:02:45,Kuwait- & MiltonKeynes,city,"Al Salam, Kuwait",Kuwait
160,-79.89896200000003,-6.8839975,#AnimalLover#veganinprocess,1656995252,2020-02-15 21:34:28,"Barcelona, Spain ",city,"Santa Rosa, Peru",Peru
186,2.111878,41.358305,#AnimalLover#veganinprocess,1656995252,2020-03-25 17:13:26,"Barcelona, Spain ",city,"L'Hospitalet de Llobregat, Espaa",Espaa
38060,-112.1246765,33.5528625,Alejandra,1656996349,2020-05-31 18:21:26,"Phoenix, Az",city,"Phoenix, AZ",United States
31080,-118.4119065,34.0207895,UtahimeWondercon,1656997231,2020-02-14 03:43:11,"Los Angeles, CA",city,"Los Angeles, CA",United States
37100,-119.034349,34.22532750000001,UtahimeWondercon,1656997231,2020-03-07 16:42:19,"Los Angeles, CA",city,"Camarillo, CA",United States
31080,-118.4119065,34.0207895,UtahimeWondercon,1656997231,2020-03-13 03:44:22,"Los Angeles, CA",city,"Los Angeles, CA",United States
200,29.0052225,41.0213205,Engin Tosun,165699854,2020-05-06 14:43:51,"Istanbul, Turkey",city,"stanbul, Trkiye",Trkiye
82,81.300689,25.902694,ASHISH TIWARI,1656998983,2020-04-10 22:06:23,"Bela Pratapgarh, India",poi,Unchahar Railway Station,India
26420,-95.4464865,29.838495,jennifer kubecka,1656999505,2020-02-16 15:22:37,,city,"Houston, TX",United States
85,11.401689999999999,45.28485,Pol n Beers,165700068,2020-05-19 09:04:16,"Pressana, VR",city,"Pressana, Veneto",Italia
28140,-94.927743,39.321147499999995,Bob King,16570043,2020-04-26 23:32:54,Kansas City,city,"Leavenworth, KS",United States
119,-86.79627536,21.12356704,Ana Perez Priego,165700458,2020-05-25 05:02:42,Cancun Mexico,city,"Benito Jurez, Quintana Roo",Mxico
31080,-118.1573375,33.99507,Marra,1657005296,2020-02-14 04:35:23,"Huntington Beach, CA",city,"Commerce, CA",United States
35620,-73.53009250000001,40.7681405,Dianne Baumert-Moyik,16570094,2020-02-18 21:36:57,"Melbourne, FL",city,"Hicksville, NY",United States
37340,-80.649699,28.117874,Dianne Baumert-Moyik,16570094,2020-03-30 03:00:03,"Melbourne, FL",city,"Melbourne, FL",United States
71,9.3726795,53.6798865,Jens Jordan,1657014248,2020-02-21 05:40:00,,city,"Hamburg, Deutschland",Deutschland
82,82.4531245,24.9349935,Shivendra Singh,165701465,2020-05-11 09:41:58,"Lucknow, India",city,"Mirzapur-Vindhyachal, India",India
88,140.084546,36.092128,,165701655,2020-02-22 07:21:18,,city, ,
88,136.87752,35.4016805,,165701714,2020-02-24 14:25:58,5291,city, ,
41740,-117.2397795,33.184920500000004,Samer said,1657017739,2020-02-19 16:01:18,,city,"Vista, CA",United States
171,121.081724,14.696210999999998,Chris Arcilla ,165701880,2020-02-18 15:23:42,,poi,San Pascual St. Manggahan Commonwealth,Republic of the Philippines
120,101.6846865,3.124524,Adila,165701915,2020-02-17 09:55:33,,city,"Kuala Lumpur, Wilayah Persekutuan Kuala Lumpur",Malaysia
186,-6.530795,37.696938,Isidoro Durn,165701953,2020-03-06 14:32:43,Nerva,city,"Nerva, Espaa",Espaa
31080,-118.1567105,33.809171500000005,Lisa L. Noble,16570197,2020-02-19 22:02:41,"Long Beach, CA",city,"Long Beach, CA",United States
14860,-73.56458178,41.06922193,John Isley,16570214,2020-02-18 22:10:26,New York,city,"Stamford, CT",United States
27260,-81.36925226,30.16735571,John Isley,16570214,2020-03-10 20:23:04,New York,city,"Sawgrass, FL",United States
35620,-73.92150833,40.86744444,John Isley,16570214,2020-04-01 01:36:14,New York,city,"Manhattan, NY",United States
47900,-77.4204,39.4263,John Isley,16570214,2020-05-27 17:40:22,New York,city,"Frederick, MD",United States
43580,-96.39715,42.4739475,Lea Phillips,16570224,2020-02-15 21:52:39,"Sioux City, IA",city,"Sioux City, IA",United States
21,-41.941329,-22.470358500000003,Gabis,1657022514,2020-02-14 15:52:53,"Rio das Ostras, Brasil",city,"Rio das Ostras, Brasil",Brasil
88,135.5361145,34.740564000000006,O,165702615,2020-02-19 11:57:42,/,city,  ,
39060,-76.259159,40.6910355,john slifko,1657028826,2020-02-16 02:39:03,,city,"Minersville, PA",United States
200,27.17777576,38.44792357,Enes Burak Aslan,1657029092,2020-02-29 15:55:33,"zmir, Trkiye",city,"zmir, Trkiye",Trkiye
31080,-118.39235915,33.84440497,Enes Burak Aslan,1657029092,2020-03-31 18:03:47,"zmir, Trkiye",city,"Redondo Beach, CA",United States
41940,-122.02878,37.317939,nastyy,1657030008,2020-04-30 16:21:39,"Bay Area, CA",poi,Cupertino Library,United States
41860,-122.295229,37.5162205,nastyy,1657030008,2020-05-07 21:30:58,"Bay Area, CA",city,"Belmont, CA",United States
41940,-122.043373,37.313083000000006,nastyy,1657030008,2020-05-08 04:35:54,"Bay Area, CA",city,"Cupertino, CA",United States
41860,-121.95953100000001,37.813777,nastyy,1657030008,2020-05-29 05:09:45,"Bay Area, CA",city,"Danville, CA",United States
41940,-121.95522849999999,37.28083700000001,nastyy,1657030008,2020-05-29 16:21:02,"Bay Area, CA",city,"Campbell, CA",United States
33700,-120.98746799999999,37.663817,nastyy,1657030008,2020-06-09 07:12:46,"Bay Area, CA",city,"Modesto, CA",United States
38900,-122.630908,45.536402,Craig Winslow,16570302,2020-02-27 16:58:53,"Portland, OR",city,"Portland, OR",United States
24860,-82.4546665,34.858283,b,1657030466,2020-04-11 03:38:24,yoonmintaekook,city,"Parker, SC",United States
88,130.85886200000002,32.726282,,165703107,2020-02-21 11:58:58,Kumamoto,city, ,
35380,-90.085128,29.935158,nelly jelly,1657033555,2020-02-23 04:26:39,27,poi,Handa Wanda,United States
242,121.558571,25.01846,JacoChangtpc,1657033807,2020-06-02 11:18:14,,poi,,
88,139.620963,35.465032, LA,1657034244,2020-02-16 01:21:08,TOKYO/JAPAN ,poi, (JOINUS),
222,112.45564099999999,-7.032842,Robi,165703523,2020-04-20 14:14:04,SUB,city,"Karangbinangun, Indonesia",Indonesia
88,139.738826,35.701817,YAMATOU,1657035306,2020-02-21 10:06:42,111-0041 1-7-9,poi,(),
82,73.3255375,19.452389,Bharat  Vanjarani,165703531,2020-03-28 09:40:39,", ",city,"Shahapur, India",India
88,141.063192,38.369792,,1657036135,2020-06-08 11:23:45,,poi,  (Matsushima),
82,91.55975749999999,26.259671,Bhupen kumar Borah,1657037575,2020-02-16 02:41:36,"Assam, India",city,"Guwahati, India",India
205,-0.4871305,52.6555175,Stamford Living,165703798,2020-02-18 11:17:28,"Stamford, UK",city,"Stamford, England",United Kingdom
186,-4.8729125,36.507495,Marina Lima,165703966,2020-03-19 11:35:27,MARBELLA,city,"Marbella, Espaa",Espaa
184,103.860647,1.315294,tatsanee srichay,165703982,2020-02-19 11:42:47,singapore,poi,Bendemeer Light,Singapore
205,-0.23851864,52.57097362,BURGHLEY,165704055,2020-02-14 08:22:37,Peterborough,city,"Peterborough, England",United Kingdom
16540,-77.65433949999998,39.9340275,ferretdance03,16570417,2020-02-21 01:36:53,,city,"Chambersburg, PA",United States
33100,-80.2333285,25.7823535,ferretdance03,16570417,2020-03-07 22:31:14,,city,"Miami, FL",United States
16540,-77.65433949999998,39.9340275,ferretdance03,16570417,2020-03-23 01:54:27,,city,"Chambersburg, PA",United States
205,-2.8740285,53.7804995,Avgeek Mel,1657042380,2020-02-14 07:43:15,"North West, England",city,"Kirkham, England",United Kingdom
200,29.0052225,41.0213205,LYAS SAYDAL,1657042495,2020-04-22 02:34:28,"Baakehir, stanbul",city,"stanbul, Trkiye",Trkiye
175,50.038021,26.488116499999997,abbassoso,1657042603,2020-04-28 09:08:48,",   ",city,",   ",  
30,121.408649,37.536084,Chris Yang,1657043624,2020-02-23 15:00:38,The University of Hong Kong,poi, | Yantai,People's Republic of China
24,-75.80014150000001,45.248791,Sohaila Moghadam,1657043971,2020-03-09 23:14:36,,city,"Ottawa, Ontario",Canada
24,-123.123581,49.257639000000005,Bronwen Smith,16570442,2020-02-29 07:44:46,Vancouver,city,"Vancouver, British Columbia",Canada
88,140.432143,37.586085,@_(:3z)_,165704538,2020-03-08 04:27:01,,poi, ,
95,127.20376200000001,37.293771,Brenda Sotelo,1657047445,2020-05-15 11:01:48,Republic of Korea,poi, (EVERLAND),Republic of Korea
82,72.83667,18.95037,AK,165704768,2020-03-20 09:10:19,MUMBAI ,city,"Mumbai, India",India
88,139.64866,35.4442,,165704917,2020-04-07 00:33:42,,city,  ,
14460,-71.2099,42.3377,Bridget H-M,16570504,2020-03-23 14:28:16,Boston,city,"Newton, MA",United States
31700,-71.4939,42.865,Bridget H-M,16570504,2020-04-03 14:57:44,Boston,city,"Merrimack, NH",United States
171,120.9839865,14.5914565,Clark Esperanza,1657050966,2020-02-15 05:39:32,UP Baguio,city,"Manila City, National Capital Region",Republic of the Philippines
186,2.1412275000000003,41.392657,Javier Valero,165705261,2020-02-19 11:45:55,"Barcelona, Spain",city,"Barcelona, Espaa",Espaa
88,135.92921,35.077423,,1657053000,2020-05-03 00:04:59,,city, ,
222,110.84131399999998,-6.8001130000000005,shodiqun,1657053703,2020-06-11 02:15:37,,city,"Kudus, Indonesia",Indonesia
222,119.4223375,-5.1886470000000005,Ridwan Limpo,1657054428,2020-05-21 06:46:10,"Makassar, Indonesia",city,"Tamalate, Indonesia",Indonesia
88,139.793229,35.734699,(),165705481,2020-04-30 03:17:04,,poi,,
82,77.095086,28.638489500000002,Anurag Bhatia,1657055330,2020-02-25 09:19:16,"New Delhi, Delhi",city,"New Delhi, India",India
88,136.98915,35.0589445, ,165705643,2020-02-20 10:07:35,,city,  ,
26420,-95.4464865,29.838495,00 ,1657056612,2020-02-20 06:18:30,"Houston, TX",city,"Houston, TX",United States
26420,-95.4464865,29.838495,TheEroticBall,1657056854,2020-02-17 21:09:20,,city,"Houston, TX",United States
200,29.0052225,41.0213205,GVEN,1657057178,2020-02-14 03:22:33,"stanbul, Trkiye",city,"stanbul, Trkiye",Trkiye
43780,-86.1531435,41.674541999999995,Daniel Schulz,16570574,2020-02-15 06:15:53,"South Bend, IN",city,"Mishawaka, IN",United States
19100,-97.2757585,33.0189255,Mrs. Coach Henley,1657058270,2020-02-23 03:59:36,"Fort Worth, TX",city,"Roanoke, TX",United States
222,109.0,-7.7333300000000005,a n o m a l i,1657059938,2020-03-01 14:04:25,,city,"Cilacap Selatan, Indonesia",Indonesia
12060,-84.43310600000001,33.7671945,Jeff Cohran,16570602,2020-02-16 02:36:23,East Atlanta. ,city,"Atlanta, GA",United States
186,-0.35576820000000003,39.45718714,Jeff Cohran,16570602,2020-05-18 14:32:56,East Atlanta. ,city,"Valencia, Spain",Spain
12060,-84.43310600000001,33.7671945,Jeff Cohran,16570602,2020-06-07 19:05:48,East Atlanta. ,city,"Atlanta, GA",United States
31080,-118.4119065,34.0207895,Name cannot be blank,16570605,2020-02-18 18:56:28,Alexandria,city,"Los Angeles, CA",United States
47900,-77.1289505,38.8468865,Name cannot be blank,16570605,2020-02-21 14:33:37,Alexandria,city,"Bailey's Crossroads, VA",United States
32540,-95.7664,34.933,Dawn Davis-Lowe,16570652,2020-02-23 16:44:44,"T: 36.186577,-95.990024",city,"McAlester, OK",United States
19100,-96.940272,32.870715999999994,Dawn Davis-Lowe,16570652,2020-03-14 19:05:44,"T: 36.186577,-95.990024",city,"Irving, TX",United States
44660,-97.0515,36.1269,Dawn Davis-Lowe,16570652,2020-05-09 21:51:21,"T: 36.186577,-95.990024",city,"Stillwater, OK",United States
19100,-96.96295595,32.88122015,Dawn Davis-Lowe,16570652,2020-05-15 00:02:29,"T: 36.186577,-95.990024",city,"Irving, TX",United States
31080,-117.85108899999999,33.842863,Tommy Gonzalez,1657065391,2020-02-24 02:20:18,"Anaheim, CA",city,"Anaheim, CA",United States
175,46.685077,24.7219435,Amir ali,165706717,2020-05-19 09:26:42,,city,"Riyadh, Kingdom of Saudi Arabia",Kingdom of Saudi Arabia
88,139.70510900000002,35.653602,,1657067880,2020-05-06 02:53:41,,poi,she knows,
200,31.830576,36.5968065,celikcan ,165706835,2020-05-01 10:21:19,alanya,city,"Alanya, Trkiye",Trkiye
35620,-74.0121,40.2224,Asbury Lanes,16570688,2020-03-20 12:18:43,"Asbury Park, NJ",city,"Asbury Park, NJ",United States
222,106.825442,-6.145419499999999,Anya,165706942,2020-03-16 07:42:11,,city,"Tamansari, Indonesia",Indonesia
88,140.609779,37.8024345,,1657069633,2020-03-16 16:44:38,,city, ,
222,106.826796,-6.168961,Fajar Indri Hapsari,165707055,2020-02-20 12:39:09,Nomaden,city,"Gambir, Indonesia",Indonesia
41180,-90.247824,38.653771,Jennifer Feldman,16570716,2020-02-14 12:51:21,"St Louis, MO",city,"St Louis, MO",United States
34980,-86.791549,36.200008000000004,Jennifer Feldman,16570716,2020-03-01 04:00:15,"St Louis, MO",city,"Nashville, TN",United States
41180,-90.328675,38.645911,Jennifer Feldman,16570716,2020-03-03 18:57:09,"St Louis, MO",city,"Clayton, MO",United States
41860,-122.43597849999999,37.7706565,asshole kid,1657071696,2020-05-29 22:42:41,408,city,"San Francisco, CA",United States
200,36.865866,37.58812500000001,ali ceren,1657071811,2020-03-30 10:49:57,,neighborhood,"Haydar Bey, Kahramanmara",Trkiye
88,141.21222868,38.42730746,MaaaBo,1657073504,2020-02-15 14:13:35,,city, ,
51,-9.583597,51.879962,John Clair,165707360,2020-02-16 06:25:21,"Kerry, Ireland",city,"Kerry, Ireland",Ireland
88,140.62316,38.003432000000004,,1657074704,2020-03-11 04:08:01,,poi, ,
24580,-88.09198549999998,44.4297195,Todd in De Pere,1657074763,2020-02-15 18:33:10,Planet Earth,city,"De Pere, WI",United States
71,11.8013,48.2001685,Gabriele Heigl,1657076503,2020-04-14 10:05:29,Mnchen,city,"Pliening, Deutschland",Germany
222,100.4528235,-1.14941,liafebriyni,1657078045,2020-04-15 20:12:22,Padang,city,"Koto XI Tarusan, Indonesia",Indonesia
31080,-118.4119065,34.0207895,BAMBI 3D COMING 2022,1657078555,2020-03-25 07:34:24,"Los Angeles, CA",city,"Los Angeles, CA",United States
82,77.50097857,12.91824513,Nirbhay kumar,1657078740,2020-04-25 13:10:45,BANGALORE,city,"Bengaluru South, India",India
25620,-89.338039,31.310637,Evan Hogan,1657078938,2020-06-01 23:10:17,"Biloxi, MS",city,"Hattiesburg, MS",United States
12060,-84.3889,33.7566,Julie E. Bloemeke,16570796,2020-05-11 15:34:06,"Atlanta, Georgia",city,"Atlanta, GA",United States
9,150.931975,-33.848244,DRPhoto,165707978,2020-02-27 19:50:22,Sydney Australia,city,"Sydney, New South Wales",Australia
178,18.88188009,-33.92025467,Lead SA,165708235,2020-04-04 16:43:58,South Africa,city,"Stellenbosch, South Africa",South Africa
205,-2.3495665,53.4753035,Sally Kershaw-strode,165708249,2020-02-19 07:53:00,,city,"Salford, England",United Kingdom
47900,-77.02038999999998,39.039832,LVL sosa,165708334,2020-03-03 14:21:48,"Germantown, MD",city,"Kemp Mill, MD",United States
88,139.6345155,35.636514,KAN ARAI,1657084338,2020-03-23 00:13:33,,city, ,
21,-46.30092418,-23.98493396,Nathan Godoi,1657086085,2020-02-24 20:21:55,"Caldas Novas, Brasil",city,"Santos, Brasil",Brasil
65,2.380911,48.861659,Rori DuBoff,16570891,2020-02-29 07:56:06,New York City,poi,Atelier des Lumires,France
14860,-73.3425245,41.144642,Rori DuBoff,16570891,2020-03-30 01:42:09,New York City,city,"Westport, CT",United States
213,105.77332,10.051844000000001,T.JINNAI@VN,165708952,2020-02-19 04:14:14,Can Tho,poi,Lotteria,Vit Nam
31080,-118.4119065,34.0207895,Daniel ( _),1657091833,2020-02-14 04:21:21,"Los Angeles, Ca",city,"Los Angeles, CA",United States
19820,-83.157747,42.507218,Thomas Kennedy,165709196,2020-05-26 17:37:24,,city,"Royal Oak, MI",United States
47260,-76.069946,36.8025415,Kat Talks Back,16570925,2020-05-23 17:44:53,,city,"Virginia Beach, VA",United States
31080,-117.9152615,34.138088499999995,Cheyenne S,1657092962,2020-02-14 21:26:27,,city,"Azusa, CA",United States
222,108.56763013,-6.76062743,Shofy Dzihni Djaja,165709324,2020-02-21 02:32:17,Gerbang Permai Cirebon,city,"Mundu, Indonesia",Indonesia
34820,-78.8755,33.7042,Rob Murphy,16570953,2020-02-23 15:08:07,Golden Mile,city,"Myrtle Beach, SC",United States
23860,-79.0488,33.5516,Rob Murphy,16570953,2020-03-03 21:25:49,Golden Mile,city,"Murrells Inlet, SC",United States
34820,-78.8755,33.7042,Rob Murphy,16570953,2020-04-19 22:51:22,Golden Mile,city,"Myrtle Beach, SC",United States
60,24.7496065,60.465429500000006,Eija Vallinheimo,1657095397,2020-03-19 05:58:38,"Nurmijrvi, Suomi",city,"Nurmijrvi, Suomi",Suomi
34980,-86.81428000000001,36.14268,isellfood,16570956,2020-03-25 20:14:47,TN,city,"Nashville, TN",United States
19100,-96.7741,32.911423,Stuart,16570966,2020-05-06 16:49:43,"Dallas, TX",poi,Medical City Building A,United States
19100,-97.3698,32.7311,Tina Grizzle,16570983,2020-03-09 00:08:42,"Jackson, MS",city,"Fort Worth, TX",United States
119,-104.78834,20.523329999999998,Fernando viera,1657098492,2020-02-23 03:26:00,"Puerto Vallarta, Jalisco",city,"Mascota, Jalisco",Mxico
20500,-79.04899300000001,35.913503999999996,Matt Mitchell,16570987,2020-02-15 18:05:49,"Raleigh, NC",poi,Coker Arboretum,United States
39580,-78.657837,35.8439815,Matt Mitchell,16570987,2020-02-27 23:24:12,"Raleigh, NC",city,"Raleigh, NC",United States
178,27.968098,-26.2761385,Owethu Dee,165709940,2020-02-25 15:45:16,"Johannesburg, South Africa",city,"Johannesburg, South Africa",South Africa
222,110.94025400000001,-7.800060999999999,Nna,165710049,2020-02-20 15:39:27,INA,city,"Wonogiri, Indonesia",Indonesia
41940,-121.8737305,37.331159,Julie Carmona Read,1657101092,2020-03-15 21:11:29,"San Jose, CA",city,"San Jose, CA",United States
26420,-95.9901755,30.083158,Prese,1657101751,2020-02-21 01:07:44,,city,"Prairie View, TX",United States
222,106.82537037,-6.22647313,Haikal Bagas,1657101770,2020-03-11 01:55:47,"Bogor, Jawa Barat",city,"Setia Budi, Indonesia",Indonesia
171,121.104887,14.646970999999999, ,1657102328,2020-03-04 05:09:43,+63 ,city,"Marikina City, National Capital Region",Republic of the Philippines
200,37.31993026,37.03683753,Ayhan,165710627,2020-02-16 16:47:53,Bozyk,city,"Gaziantep, Trkiye",Trkiye
205,0.404968,51.726193,William Drake,165710715,2020-04-16 15:37:21,CHELMSFORD,poi,Hanging Gardens Garden Centre,United Kingdom
82,73.180515,22.276914,Sandeepshahdigital,1657108700,2020-05-20 12:02:14,Vadodara,city,"Vododara, India",India
222,106.752205,-6.647944,Reski krishna Pasa,165710883,2020-02-20 15:12:58,Bogor,city,"Ciomas, Indonesia",Indonesia
222,106.7648215,-6.115696,Agus Budiyanto,165710996,2020-02-14 02:49:01,"Jakarta, Bandung",city,"Penjaringan, Indonesia",Indonesia
205,-2.451174,52.6671545,kallum,1657110704,2020-03-01 13:55:32,,city,"Telford, England",United Kingdom
186,-2.010869,43.2162115,ezekiel,1657110780,2020-02-19 22:55:53,Basque Country,city,"Andoain, Espainia",Espainia
26900,-86.1429225,39.7795625,Shelby,16571112,2020-02-17 16:55:09,"Indianapolis, IN",city,"Indianapolis, IN",United States
152,5.779671,53.4084385,Sijtse de Jager,165711164,2020-04-26 12:16:27,Netherlands,city,"Ameland, The Netherlands",The Netherlands
82,73.8262495,24.4594275,Kamlesh Deora,165711169,2020-02-15 15:57:51,Udaipur rajasthan,city,"Udaipur, India",India
205,-0.558325,53.0754855,Alexandra Bavin,165711251,2020-04-05 09:32:21,Lincolnshire,city,"Welbourn, England",United Kingdom
128,5.0,51.0,Anita Furlan ,16571133,2020-05-16 15:28:43,,city,"Diest, Belgi",Belgium
222,109.6880825,-6.8923515,Rela Habibah,165711480,2020-02-25 01:46:32,Surabaya,city,"Pekalongan Timur, Indonesia",Indonesia
82,85.10203849999998,25.569474,ABHISHEK GUPTA,1657114950,2020-02-23 17:42:41,"Patna, India",city,"Patna, India",India
21,-35.73746055,-9.62102865,Sidney Siqueira,165711532,2020-04-29 03:15:11,Viosa/AL,city,"Macei, Brasil",Brasil
222,107.07796200000001,-6.317982,,1657115790,2020-04-02 09:12:35,"Madrid,spain",poi,PT Astra International Tbk - Daihatsu,Indonesia
186,-0.0944845,38.9005835,Simas,165711761,2020-02-15 21:39:22,"Valencia, Espaa",city,"Oliva, Espaa",Espaa
88,130.3942705,33.663443,   ,165711764,2020-02-23 14:11:02,  ,city,  ,
9,145.21601900000005,-37.726267,Matt,16571187,2020-04-25 06:13:26,"Melbourne, Oz.",neighborhood,"North Warrandyte, Melbourne",Australia
173,48.047137,46.36466950000001,IG: Medicalbeautyblog,165711923,2020-02-14 12:46:19,Russia,city,"Astrakhan, Russia",Russia
151,7.03389395,4.80185095,Gaff Multimedia,165711957,2020-03-08 12:37:09,"Nigeria, Port Harcourt",city,"Port Harcourt, Nigeria",Nigeria
65,1.40625,47.98992167,Gaff Multimedia,165711957,2020-03-25 18:40:29,"Nigeria, Port Harcourt",city,"Le Me, France",France
151,7.0642,4.8164,Gaff Multimedia,165711957,2020-04-08 10:58:10,"Nigeria, Port Harcourt",city,"Port Harcourt, Nigeria",Nigeria
88,135.48478300000002,34.699582,MASADA KOHKI ,165711964,2020-03-17 05:20:04,RYO-ZAN-PAK(),poi,RYO-ZAN-PAK,
31080,-117.87619174,33.65635515,gohumble,16571216,2020-02-14 01:10:32,"Costa Mesa, CA",city,"Newport Beach, CA",United States
47900,-77.4308,38.8939,Chester Grimes,16571220,2020-02-14 12:21:56,DMV,city,"Chantilly, VA",United States
88,133.100782,35.467184499999995,ShinyaV_artzTV,165712221,2020-02-17 12:39:51,,city, ,
26420,-95.3694,29.7602,damn jayso,1657122542,2020-02-22 22:59:51,,city,"Houston, TX",United States
152,4.73426437,52.39934237,Hanan Muzaffar,165712268,2020-03-02 13:51:44,,city,"Haarlemmerliede en Spaarnwoude, Nederland",The Netherlands
82,79.43402439,28.3843984,shagun gupta,1657122907,2020-03-05 10:33:38,bareilly,city,"Bareilly, India",India
36140,-74.94575649999999,38.9496005,gab,1657123273,2020-04-04 19:08:25,Paradise,city,"West Cape May, NJ",United States
47900,-77.56911993,39.1077024,Jeffrey Widom,16571252,2020-03-20 16:37:43,,city,"Leesburg, VA",United States
37980,-75.17230928,39.89113568,Jeffrey Widom,16571252,2020-05-11 15:30:25,,city,"Philadelphia, PA",United States
47900,-77.56911993,39.1077024,Jeffrey Widom,16571252,2020-05-15 14:32:37,,city,"Leesburg, VA",United States
16740,-80.8467855,35.209059,Dick Sommelier,16571265,2020-02-17 02:10:09,Deznutsopolis,city,"Charlotte, NC",United States
37980,-75.117998,40.0048655,Alex #SlaySZN,165712765,2020-04-21 23:52:11,Worcester,city,"Philadelphia, PA",United States
88,139.77586200000002,35.670638000000004,,1657128378,2020-05-18 13:24:51,2518 1F,city, ,
186,-3.71192176,40.4120739,J.Julio Garca,165712868,2020-03-02 21:12:02,Barcelona,city,"Madrid, Espaa",Espaa
82,78.45622,17.420823000000002,Shimla Akkineni,165712925,2020-02-16 03:39:23,"Hyderabad, India ",poi,Hyderabad,India
189,15.67559065,56.21926393,Pierre Lfgren,1657129843,2020-02-14 17:18:40,,city,"Karlskrona, Sverige",Sverige
16980,-87.732013,41.8335845,Aaron Keefner,16571303,2020-02-26 05:37:04,"Chicago, Illinois",city,"Chicago, IL",United States
222,106.5208465,-6.250499,nama panjangku,1657131427,2020-02-18 04:47:06,"indonesia raya ,tangerang ",city,"Cikupa, Indonesia",Indonesia
24,-78.328113,44.3147895,Martha Hunter ,1657133492,2020-06-02 22:25:38,,city,"Peterborough, Ontario",Canada
173,39.7048,47.2263, ,1657133593,2020-05-12 13:35:41,,city,"--, ",
9,145.0531355,-37.9725665,myles devlin,165713455,2020-03-02 03:21:20,,city,"Melbourne, Victoria",Australia
71,6.96747,50.957617,Svenja,165713585,2020-02-27 11:25:08,Law @ University of Cologne,city,"Cologne, Germany",Germany
120,101.67387545,2.91290686,fazlimohammad,165713635,2020-05-20 14:40:37,malaysia,city,"Putrajaya, Putrajaya Federal Territory",Malaysia
24,-79.30782099999999,43.668539,Winterr,1657137258,2020-02-15 15:17:20,Toronto,poi,Starbucks,Canada
82,80.62048850000001,16.610865,Prasad Naik,1657137613,2020-04-05 17:02:32,"Vijayawada, India",city,"Vijayawada, India",India
222,112.57492250000001,-7.2715905,Shadow,1657138224,2020-05-04 02:56:57,Indonesia,city,"Menganti, Indonesia",Indonesia
205,-2.2076585,51.425725,Ben Bower,165713850,2020-03-10 21:34:28,"Bath, UK",city,"Corsham, England",United Kingdom
80,19.129828,47.4812305,Iana Dashkovska,165713893,2020-02-14 12:03:11,,city,"Budapest, Hungary",Hungary
200,37.920234,40.977059000000004,altugtemel,1657140056,2020-05-08 19:51:43,Ayegl,city,"Ordu, Trkiye",Trkiye
85,12.5451455,41.8984165,Genny,1657140799,2020-02-18 23:17:16,,city,"Roma, Lazio",Italia
82,84.0333605,26.309622499999996,L.D. Ideal Academy,1657140918,2020-05-25 08:37:17,"khampar,bhatpar rani,deoria,U.P",city,"Bhatpar Rani, India",India
205,-0.1341723,51.48231371,Lee Loveridge,165714099,2020-03-23 07:52:17,"Bromley, London",city,"Wandsworth, London",United Kingdom
26420,-95.3694,29.7602,GIO CHAMBA,1657141032,2020-02-14 18:58:58,"Houston, TX",city,"Houston, TX",United States
12420,-97.78569,30.172690000000003,GIO CHAMBA,1657141032,2020-03-03 01:13:28,"Houston, TX",city,"Austin, TX",United States
26420,-95.37203000000001,29.7505,GIO CHAMBA,1657141032,2020-03-07 15:24:51,"Houston, TX",city,"Houston, TX",United States
65,-2.9032419999999997,47.607490500000004,Laurel,1657141039,2020-02-24 15:19:30,"San Francisco, California, USA",city,"Baden, France",France
11500,-85.87539,33.59919,Cindy Hughes Lynch,16571419,2020-03-10 15:17:32,Alabama,city,"Hobson City, AL",United States
16180,-119.70094209999999,39.1828951,,1657142395,2020-06-02 08:22:23,,city,"Carson City, NV",United States
205,-1.4407025,54.9779205,James Kavanagh,165714281,2020-03-11 10:26:14,"South Shields, England",city,"South Shields, England",United Kingdom
82,77.258972,28.539571999999996,Pavnesh yadav,1657143625,2020-03-19 03:28:31,", ",poi,Reels,India
178,27.661465500000002,-26.1874785,Segametsi ,1657143996,2020-02-29 13:28:27,"Kimberly, South Africa",city,"Randfontein, South Africa",South Africa
151,3.3180660000000004,6.590611,Adegoke Omotola,165714503,2020-03-03 12:12:25,"Lagos, Nigeria",city,"Ikeja, Nigeria",Nigeria
80,18.44124,47.194563,ie ,1657145449,2020-03-27 16:42:50,,city,"Szkesfehrvr, Hungary",Hungary
119,-98.2613415,19.119304500000002,LUIS ABRAHAM DAZ,165714786,2020-02-19 07:26:03,Puebla,city,"Cuautlancingo, Puebla",Mxico
47900,-77.0908695,38.81738,Jason Patnosh,16571511,2020-03-09 13:23:34,Maryland,city,"Alexandria, VA",United States
24860,-82.3422685,34.7959415,Daniel Moncada,1657152439,2020-05-31 22:25:53,"Greenville, SC",city,"Greenville, SC",United States
205,-0.2631405,51.5651955,drizyBaby,165715252,2020-03-06 12:28:45,"Hillingdon, London",city,"Brent, London",United Kingdom
222,109.92141000000001,-7.016468,Rafi Radifan,1657152973,2020-03-22 03:17:01,"Yogyakarta, Indonesia",poi,Alun - Alun Limpung,Indonesia
71,6.5846795,50.3128905,Harald Elsen,165715347,2020-04-08 07:16:29,"Gnnersdorf, Rheinland-Pfalz",city,"Lissendorf, Deutschland",Deutschland
82,77.095086,28.638489500000002,LanguageGuru,1657154450,2020-02-22 13:08:14,,city," , ",
95,127.981286,37.327273999999996,,165715518,2020-03-06 05:14:57,. ,city,"Wonju-si, Republic of Korea",Republic of Korea
36540,-96.11738299999999,41.214746000000005,Jackson,1657156123,2020-04-02 23:47:17,"Omaha, NE",poi,Sam's Club,United States
186,-15.459848999999998,28.103013,Aurora Parrilla,165715634,2020-02-14 09:09:20,"Las Palmas, Islas Canarias",city,"Las Palmas de Gran Canaria, Espaa",Espaa
38,-75.56791401,6.20914091,Ma consuelo Vargas C,165715657,2020-04-24 15:34:15,colombia,city,"Medelln, Colombia",Colombia
175,46.685077,24.7219435, ,1657156699,2020-05-11 11:41:42,",   ",city,",   ",  
51,-7.463941500000002,53.558034000000006,Thomas Mc Loughlin,1657157180,2020-05-03 10:24:35,,city,"West Meath, Ireland",Ireland
205,-1.742982,53.210381999999996,Sheldon Village,165715996,2020-02-27 07:32:00,"Sheldon, Derbyshire",poi,Magpie Lead Mine,United Kingdom
82,91.4370365,26.437286,Narayan Baishya,1657160316,2020-04-01 06:19:04,,city,"Nalbari, India",India
193,98.285481,7.867888000000001,peter chang,1657160334,2020-05-06 08:39:11,", ",poi,,
41860,-122.40785,37.78679,Kaye,165716108,2020-02-15 08:17:47,,city,"San Francisco, CA",United States
205,-2.2472365,53.018155500000006,Kaye,165716108,2020-03-16 12:24:37,,city,"Newcastle-under-Lyme, England",United Kingdom
33940,-107.86674,38.48544250000001,kimspangrude,16571612,2020-02-19 21:06:51,"Montrose, CO",city,"Montrose, CO",United States
88,138.96146028,36.39103411,mariko,165716151,2020-05-01 07:40:46,,city, ,
21,-47.07952599,-23.02834647,Calusne farms,165716217,2020-04-13 09:24:11,Campinas - sp,city,"Campinas, Brasil",Brasil
222,106.79190449999999,-6.1618445,chiropractor mania,1657163702,2020-02-21 09:42:21,,city,"Grogol Petamburan, Indonesia",Indonesia
46660,-83.30251200000002,30.856084499999998,Pimp C,1657164210,2020-02-20 18:06:40,"Atlanta, GA",city,"Valdosta, GA",United States
12060,-84.355457,33.522945,Pimp C,1657164210,2020-03-25 21:00:10,"Atlanta, GA",poi,Clayton County,United States
151,3.3180660000000004,6.590611,Karen Kossy,1657164859,2020-05-21 06:03:15,Nigeria,city,"Ikeja, Nigeria",Nigeria
222,112.44415500000001,-7.346807000000001,Sayyidah N.F (),1657166492,2020-05-14 16:17:02,Mojokerto-Jombang,poi,Dawarblandong Mojokerto,Indonesia
222,107.2016625,-6.8080859999999985,L,1657167302,2020-04-29 12:03:46,,city,"Karangtengah, Indonesia",Indonesia
193,100.609175,14.043821,NPV ,165716935,2020-03-24 00:00:54,"Bangkok, Thailand",city,"Khlong Nueng, Thailand",Thailand
88,141.36126299999998,43.1001895,,165716957,2020-05-25 02:19:13,,city,  ,
65,3.53862714,45.30109372,Sarah J.,165717033,2020-02-22 22:15:40,,city,"Saint-Didier-sur-Doulon, France",France
151,3.3386055,6.4931125000000005,Raheem Kuku,165717252,2020-02-14 11:12:39,"Lagos, Nigeria",city,"Lagos, Nigeria",Nigeria
175,39.20435527,21.54612446,B_B,165717285,2020-03-10 08:06:32, ,city,",   ",  
205,-2.23348,53.4569525,Ruby-Ann,165717286,2020-02-28 17:33:56,"Manchester, England",city,"Manchester, England",United Kingdom
178,18.6612735,-33.8361765,Dieter Voigt,165717336,2020-03-15 17:33:11,Cape Town,city,"Durbanville, South Africa",South Africa
82,72.859622,19.035965,Govindraj Eknath Dasar,1657173860,2020-03-23 08:59:56,"Mumbai, India",poi,Sion Hospital (LTMGH),India
53,24.7382145,59.42500749999999,Hinalina,1657174344,2020-05-22 06:01:36,"Tallinn, Estonia",city,"Tallinn, Eesti",Eesti
88,139.44865,35.542309,K(JE1UYS/TY713)@CYaRon!1stLV,165717480,2020-02-22 03:18:46,JCC#111001JCC#1803,poi,,
82,77.56575108,12.83337248,charan,1657174848,2020-02-22 16:45:22,"Arsikere, India",city,"Anekal Bangaluru, India",India
222,110.37836100000001,-7.768233,Devy M P Toding,165717560,2020-02-20 11:35:18,"Kota Yogyakarta, Yogyakarta",poi,Gedung Pusat UGM,Indonesia
24,-79.91352049999999,43.260695500000004,Ruslan,1657175934,2020-05-09 04:30:31,"Toronto, Canada",city,"Hamilton, Ontario",Canada
82,82.93295549999998,25.3733755,Abhishek Singh,165717620,2020-02-15 17:04:08,Pale Blue Dot,city,"Varanasi, India",India
20180,-78.7585793,41.121768100000004,Virgil Hodges Jr.,16571767,2020-06-01 00:22:35,PA,city,"DuBois, PA",United States
82,72.87424399999999,19.174139999999998,Aparna Khanvilkar,165717776,2020-04-29 07:23:58,Mumbai,city,"Mumbai, India",India
162,15.28276005,54.13983254,Piotr Zieliski,1657177826,2020-05-24 16:10:02,Poland,city,"Trzebiatw gmina, Polska",Polska
88,135.495307,34.674068,mecca plus,165717929,2020-05-23 05:14:08,,poi,mecca plus,
11460,-83.72997149999999,42.2708395,"Kendra Hearn, Ph.D.",165717941,2020-04-01 20:39:44,"Ann Arbor, Michigan",city,"Ann Arbor, MI",United States
205,-1.1515799999999998,51.8971,Ryan Horne,1657180640,2020-02-21 12:14:52,,city,"Bicester, England",United Kingdom
152,4.89677155,52.37640344,Corrado Campodonico,165718124,2020-03-09 13:15:54,"Torino, Italy",city,"Amsterdam, Nederland",Paesi Bassi
193,102.8200255,16.483739999999994, Begin Again ,1657182253,2020-02-29 02:57:25,,city,", ",
41860,-122.43597849999999,37.7706565,Eleanor Wong,1657183081,2020-03-11 01:10:03,"California, USA",city,"San Francisco, CA",United States
23420,-119.7824645,36.786042,Jorgie,1657184269,2020-02-19 18:56:28,"Fresno, CA",city,"Fresno, CA",United States
47300,-119.34025600000001,36.1956895,Jorgie,1657184269,2020-03-09 08:29:10,"Fresno, CA",city,"Tulare, CA",United States
23420,-119.7824645,36.786042,Jorgie,1657184269,2020-03-09 17:51:46,"Fresno, CA",city,"Fresno, CA",United States
205,-1.541876,53.991231000000006,Andrew Fishburn,165718447,2020-02-15 08:50:02,North Yorkshire UK,city,"Harrogate, England",United Kingdom
51,-6.2357200000000015,53.494598,Andrew Fishburn,165718447,2020-02-21 06:00:36,North Yorkshire UK,city,"Fingal, Ireland",Ireland
205,-1.541876,53.991231000000006,Andrew Fishburn,165718447,2020-02-21 16:19:01,North Yorkshire UK,city,"Harrogate, England",United Kingdom
35620,-73.9685415,40.780709,Andrew Fishburn,165718447,2020-03-07 15:12:40,North Yorkshire UK,city,"Manhattan, NY",United States
29820,-115.13516499999999,36.060964500000004,Andrew Fishburn,165718447,2020-03-08 01:24:23,North Yorkshire UK,city,"Paradise, NV",United States
35620,-73.8311875,40.6708795,Andrew Fishburn,165718447,2020-03-14 23:56:14,North Yorkshire UK,city,"Queens, NY",United States
205,-1.694336,53.8642155,Andrew Fishburn,165718447,2020-03-15 14:30:56,North Yorkshire UK,city,"Guiseley, England",United Kingdom
222,106.875102,-6.181276499999999,rieka claudia,165718516,2020-03-03 13:00:26,"Jakarta,Indonesia&NYC ",city,"Cempaka Putih, Indonesia",Indonesia
88,136.889804,35.46805,@,1657185228,2020-02-22 21:11:17,,poi,IC,
175,46.685077,24.7219435,',1657187036,2020-04-25 16:42:37,,city,",   ",  
82,77.095086,28.638489500000002,Vikas Suri,165718806,2020-03-13 14:55:24,Bangalore,city,"New Delhi, India",India
47900,-77.04575,38.91433,artis moon amarch,16571885,2020-05-05 21:49:00,"Brentwood, MD",city,"Washington, DC",United States
88,139.79203463,35.71317249,chef_mattsun@CBD,165718972,2020-03-06 08:10:28, ,city, ,
21,-35.0167,-8.11667,Thiago Lemore,165719166,2020-03-06 20:41:19,Rio de Janeiro,city,"Jaboato dos Guararapes, Brasil",Brasil
175,49.6276765,25.458642,maan,1657192376,2020-05-28 03:20:21,,city,",   ",  
31080,-118.318634,34.130386,jordy lynn ,1657192778,2020-02-18 02:31:14,CA,poi,Hollywood Sign - Beachwood Canyon Trail,United States
222,106.79925529,-6.24493435,~,165719338,2020-03-05 17:16:40,()? (),city,"Kebayoran Baru, Indonesia",Indonesia
24,-79.27256949999999,43.629311,Kevin,16571934,2020-02-27 04:10:38,"Toronto, ON 43.699,-79.445",city,"Toronto, Ontario",Canada
222,106.788068,-6.2498520000000015,Mardhiatul Ulam/dums/terserah kalean dah,1657193504,2020-02-16 14:58:55,Here,city,"Kebayoran Lama, Indonesia",Indonesia
200,29.0052225,41.0213205,Hasan ilek,165719409,2020-02-20 18:30:38,,city,"stanbul, Trkiye",Trkiye
88,139.744876,35.71770150000001,,165719463,2020-03-14 09:41:04,VRChat,city, ,
171,121.033212,14.5464995,vic,1657194673,2020-03-27 20:57:36,,city,"Makati City, National Capital Region",Republic of the Philippines
31080,-118.728897,34.0240975,vic,1657194673,2020-06-11 05:50:07,,city,"Malibu, CA",United States
193,100.612125,13.819336499999999,~       ~,1657196761,2020-03-15 11:00:52,,city,", ",
82,77.095086,28.638489500000002,Nadeem,165719734,2020-03-24 12:26:09,India,city,"New Delhi, India",India
205,-0.12731805,51.50711486,Taju App,165719811,2020-03-18 12:49:12,"Bradford, England",city,"London, England",United Kingdom
19740,-104.9220935,39.713563,"Will Simpkins, Ed.D.",16571991,2020-02-14 21:53:00,"Denver, CO",city,"Denver, CO",United States
36540,-96.053431,41.275721,"Will Simpkins, Ed.D.",16571991,2020-02-19 13:59:36,"Denver, CO",city,"Omaha, NE",United States
19740,-104.9220935,39.713563,"Will Simpkins, Ed.D.",16571991,2020-02-20 03:24:43,"Denver, CO",city,"Denver, CO",United States
14720,-106.0360575,39.505657,"Will Simpkins, Ed.D.",16571991,2020-02-27 15:37:00,"Denver, CO",city,"Breckenridge, CO",United States
19740,-104.9220935,39.713563,"Will Simpkins, Ed.D.",16571991,2020-03-01 23:37:16,"Denver, CO",city,"Denver, CO",United States
69,-1.3393065,5.0940555,Big Jacooo,1657199282,2020-03-04 20:47:36,UIC,city,"Elmina, Ghana",Ghana
16980,-87.732013,41.8335845,Big Jacooo,1657199282,2020-05-17 02:16:25,UIC,city,"Chicago, IL",United States
38060,-112.1246765,33.5528625,Big Jacooo,1657199282,2020-06-10 11:52:59,UIC,city,"Phoenix, AZ",United States
173,37.42764250000001,55.7547875,  ,165719954,2020-02-26 22:23:32,", ",city,", ",
46060,-110.91557350000001,32.1893905,Lauren Keane,16572001,2020-02-19 17:32:29,"Manchester, NH",city,"Tucson, AZ",United States
38060,-111.8583985,33.639340000000004,Lauren Keane,16572001,2020-02-24 01:42:09,"Manchester, NH",city,"Scottsdale, AZ",United States
14460,-71.0887125,42.3136695,Lauren Keane,16572001,2020-02-28 02:15:12,"Manchester, NH",city,"Boston, MA",United States
31700,-71.4440805,42.971199,Lauren Keane,16572001,2020-04-11 14:04:53,"Manchester, NH",city,"Manchester, NH",United States
31080,-117.763974,33.607978,jorge,1657203684,2020-05-31 19:58:04,they/them,poi,Little Sycamore Canyon Trail,United States
47900,-76.955799,38.9608415,Paul George,16572037,2020-03-19 21:45:53,"Washington, DC",city,"Hyattsville, MD",United States
82,77.5584485,12.9231145,Rajiv Joshi,165720398,2020-03-31 18:18:09,Bangalore,city,"Bengaluru South, India",India
222,106.834852,-6.2213485,Kang Mulya,1657205330,2020-02-14 04:07:42,Garutada Jktada Bandungada Lam,city,"Setia Budi, Indonesia",Indonesia
88,127.75620500000001,26.273795,,165720607,2020-03-03 22:41:10,,city, ,
88,135.478326,34.718949,,165720893,2020-02-15 05:32:43,,poi,,
160,-76.992452,-12.096724,Rirapadelari,1657209260,2020-02-19 00:27:13,,city,"San Borja, Peru",Peru
71,13.362067000000001,52.683974,burkhard volbracht,165720968,2020-02-26 21:17:48,"Berlin, Deutschland",city,"Mhlenbecker Land, Deutschland",Deutschland
24,-123.11967649999998,49.282944,huggybear99,16572112,2020-02-14 02:34:48,"Vancouver, British Columbia",neighborhood,"Downtown, Vancouver",Canada
88,139.711896,35.662326,,165721423,2020-02-16 04:28:13,,poi,the 3rd Burger,
22180,-79.06406,35.03249,ZesterHare,16572145,2020-02-15 09:21:54,Fayetteville,city,"Fayetteville, NC",United States
151,7.424094,9.073663999999999,Jolly Good Fellow,165721617,2020-02-16 15:00:21,Abuja,city,"Abuja, Nigeria",Nigeria
14460,-71.046031,42.345698999999996,Zayn_Hussein_911,1657216530,2020-02-29 12:57:50,,poi,Boston Convention & Exhibition Center (BCEC),United States
35620,-73.6383675,40.8276535,Zayn_Hussein,1657216530,2020-03-02 02:01:30,,city,"Glenwood Landing, NY",United States
57,13.041122,47.799644,HR Consulting,165721718,2020-02-15 13:09:13,"Vienna, Austria",city,"Salzburg, sterreich",sterreich
85,12.83729,45.77562,HR Consulting,165721718,2020-02-23 23:48:09,"Vienna, Austria",city,"Portogruaro, Veneto",Italien
57,16.31318,48.21195,HR Consulting,165721718,2020-02-26 12:57:32,"Vienna, Austria",city,"Wien, sterreich",sterreich
85,12.35526145,45.45625852,HR Consulting,165721718,2020-03-01 14:46:56,"Vienna, Austria",city,"Venedig, Venetien",Italien
57,16.26811,48.18776,HR Consulting,165721718,2020-03-05 16:35:39,"Vienna, Austria",city,"Wien, sterreich",sterreich
205,-0.15048602,51.50383393,HR Consulting,165721718,2020-04-07 22:00:57,"Vienna, Austria",city,"London, England",Vereinigtes Knigreich
57,16.26811,48.18776,HR Consulting,165721718,2020-04-10 08:01:25,"Vienna, Austria",city,"Wien, sterreich",sterreich
85,12.49158049,41.89114343,HR Consulting,165721718,2020-04-16 21:47:54,"Vienna, Austria",city,"Rom, Latium",Italien
65,7.026724000000001,43.549595000000004,HR Consulting,165721718,2020-05-17 19:41:44,"Vienna, Austria",city,"Cannes, Frankreich",Frankreich
57,16.29442354,48.05150123,HR Consulting,165721718,2020-05-24 20:04:33,"Vienna, Austria",city,"Gumpoldskirchen, sterreich",sterreich
88,139.54395,35.705767,,165721728,2020-03-16 03:45:58,,poi, ,
41740,-117.212223,32.755303000000005, nezukay ,1657217336,2020-02-22 07:39:08,"California, USA",poi,Pechanga Arena San Diego,United States
186,-7.671481,43.6817125,Rodrigo Navarro Fdez,165721808,2020-02-17 19:25:35,Viveiro,city,"O Vicedo, Espaa",Espaa
82,75.74752099999999,26.909683,DEVESH SHARMA,1657220340,2020-05-17 14:34:03,JAIPUR INDIA,city,"Jaipur, India",India
193,99.426964,14.1029855,safe my life,1657220893,2020-05-25 23:34:35,,city,", ",
31080,-118.36080184,34.07493742,Anne W. Rimoin,16572212,2020-02-29 03:45:24,Los Angeles or Kinshasa,city,"Los Angeles, CA",United States
205,-1.2334334999999998,51.75428599999999,Conrad Groenewald,1657221480,2020-02-20 06:39:54,Lots of places. ,city,"Oxford, England",United Kingdom
193,98.980877,18.796771,homekung_cnx,165722171,2020-02-19 09:36:12,"Chiang Mai, Thailand",poi,Fitness Thailand ( ),
173,37.42764250000001,55.7547875, ,1657221907,2020-02-14 19:36:55,,city,", ",
205,-0.420879,51.7034025,Ray Clarke,1657222134,2020-03-05 20:06:38,Watford,city,"Abbots Langley, East",United Kingdom
222,107.611056,-6.863525500000001,Anda,1657223083,2020-02-15 19:27:56,sumedang,city,"Cidadap, Indonesia",Indonesia
34980,-86.791549,36.200008000000004,CelinaCK,16572251,2020-03-05 04:18:23,"Nashville, TN",city,"Nashville, TN",United States
160,-77.0353,-12.0611,Harmonik Minaj,165722542,2020-02-21 19:35:23,lima peru ,city,"Lima, Peru",Peru
205,-0.1937195,51.4516565,James Bryson,165722552,2020-03-06 21:15:47,,city,"Wandsworth, London",United Kingdom
205,-1.48367878,53.79079177,chantal nogbou,1657225688,2020-02-17 12:58:36,leeds,city,"Leeds, England",United Kingdom
82,80.648226,16.512281,Brahmaji Rao Chandana,1657225754,2020-03-27 11:54:50,"VIJAYAWADA, AP.",poi,Vijayawada,India
65,4.3426385000000005,43.8332005,Julien Fabre,1657225974,2020-02-14 14:01:43,Nmes,city,"Nmes, France",France
47900,-77.0143985,38.898603,Joe Hardy,16572261,2020-02-28 16:01:45,"Washington, DC.  ",city,"Washington, DC",United States
33100,-80.1226195,26.721896,Joe Hardy,16572261,2020-03-02 14:40:03,"Washington, DC.  ",city,"West Palm Beach, FL",United States
11460,-83.72997149999999,42.2708395,Joe Hardy,16572261,2020-03-07 17:36:55,"Washington, DC.  ",city,"Ann Arbor, MI",United States
47900,-77.0849085,38.970278,Joe Hardy,16572261,2020-03-11 01:02:25,"Washington, DC.  ",city,"Chevy Chase Village, MD",United States
186,-3.700629,40.409172999999996,Asor,165722895,2020-03-19 07:41:53,Madrid,poi,Ficciones Lavapis,Espaa
82,78.130034,28.012366999999998,Dr Vinay Gupta,165722995,2020-04-06 04:31:59,"Aligarh, India",city,"Kasimpur Power House Colony, India",India
16980,-87.906356,41.978878,Daniel Smrokowski,16572301,2020-03-10 15:50:34,"Chicago, IL",poi,United Airlines,United States
31080,-117.99873249999999,33.692541999999996,!NVADER Z!MM,1657231159,2020-02-21 17:45:54,Los Angeles,city,"Huntington Beach, CA",United States
39140,-111.77175849999999,34.776312,!NVADER Z!MM,1657231159,2020-04-13 06:19:19,Los Angeles,city,"Oak Creek, AZ",United States
171,120.9839865,14.5914565,Tin,165723133,2020-03-18 14:51:59,"Manila,Philippines",city,"Manila City, National Capital Region",Republic of the Philippines
200,29.414521500000003,40.806087,inci Kaya,165723193,2020-03-09 17:12:52,"stanbul, Trkiye",city,"Gebze, Trkiye",Trkiye
35620,-73.484484,40.813459,MYO of New York,165723292,2020-02-15 22:34:06,"Long Island, New York",poi,The Inn at Fox Hollow,United States
205,0.2105895,51.560587,Maddy Goes Mad,165723296,2020-02-14 14:58:32,"City of London, London",city,"Romford, London",United Kingdom
120,103.43423659999999,4.1891168,Fi Nasali,1657233266,2020-02-16 17:59:00,"Texas, Kemaman",city,"Banggul, Terengganu",Malaysia
12060,-84.43310600000001,33.7671945,jm,16572333,2020-03-20 14:44:24,,city,"Atlanta, GA",United States
14460,-71.1375,42.65833333,Beth Brownholtz,16572341,2020-03-03 12:36:42,,city,"Andover, MA",United States
193,100.59657399,13.69729154,Katt,1657234110,2020-04-14 13:19:34,", ",city,", ",
47260,-76.7058,37.2716,Cheryl ,16572349,2020-04-17 01:20:20,United States,city,"Williamsburg, VA",United States
26900,-85.9500505,39.96376100000001,Jill,16572369,2020-05-05 12:18:57,,city,"Fishers, IN",United States
120,102.2195865,2.2078230000000003,tepoten,1657237987,2020-05-18 19:57:56,"Malacca, Malaysia",city,"Klebang Kechil, Melaka",Malaysia
119,-116.929102,32.332876500000005,fer landa,1657239649,2020-05-03 20:09:13,,city,"Tijuana, Baja California",Mxico
175,39.8016865,21.389833000000007,,1657239710,2020-03-10 10:21:21, ,city," ,   ",  
49620,-76.69816,39.737442,Andy Cowx,16572412,2020-02-16 17:17:41,"T: 39.337478,-76.751655",city,"New Freedom, PA",United States
88,134.65022902,34.79764471,,165724261,2020-02-14 03:03:52,,city, ,
88,130.016149,33.181394,,165724341,2020-03-28 09:10:27, ,poi,,
178,28.259082,-25.380674499999998,lesego sebola,1657243572,2020-02-15 05:24:09,,city,"Temba, South Africa",South Africa
82,72.87424399999999,19.174139999999998,A,1657243585,2020-05-02 06:47:49,,city,"Mumbai, India",India
88,139.467769,35.8999355,,1657244312,2020-04-23 00:34:57,,city, ,
40060,-77.49317049999998,37.529883,Jeff Ferguson,16572446,2020-02-14 00:46:44,"Richmond, VA",city,"Richmond, VA",United States
20500,-78.89977292,36.00316577,Jeff Ferguson,16572446,2020-02-22 19:24:00,"Richmond, VA",city,"Durham, NC",United States
40060,-77.49317049999998,37.529883,Jeff Ferguson,16572446,2020-02-23 15:46:51,"Richmond, VA",city,"Richmond, VA",United States
20500,-78.94229025,35.99754312,Jeff Ferguson,16572446,2020-02-24 00:03:38,"Richmond, VA",city,"Durham, NC",United States
40060,-77.49317049999998,37.529883,Jeff Ferguson,16572446,2020-02-25 02:05:37,"Richmond, VA",city,"Richmond, VA",United States
47260,-76.62264,36.98229,Jeff Ferguson,16572446,2020-06-06 20:35:00,"Richmond, VA",city,"Smithfield, VA",United States
40060,-77.49317049999998,37.529883,Jeff Ferguson,16572446,2020-06-08 16:15:24,"Richmond, VA",city,"Richmond, VA",United States
222,115.19307622,-8.693308300000002,fahmi muhyiddin,1657244766,2020-02-15 04:43:07,"Bali, Indonesia",city,"Denpasar Selatan, Indonesia",Indonesia
175,46.705975,24.817367,Yaz.,1657246176,2020-02-18 05:08:08,,poi,College of Economics and Administrative Sciences |    ,  
65,6.7211065,44.5908385,Astinio,1657247100,2020-03-15 23:23:56,marseille,city,"Vars, France",France
31080,-118.24874042,34.03742524,Maria Gonima,16572493,2020-05-23 01:21:29,Los Angeles,city,"Los Angeles, CA",United States
200,40.1973355,37.9374775,Mahmut Kraslan,1657249916,2020-03-16 13:40:38,"Diyarbakr, Trkiye",city,"Diyarbakr, Trkiye",Trkiye
65,-1.5560985,43.470859499999996,J Rme,1657250156,2020-02-14 10:54:30,Toulouse,city,"Biarritz, France",France
205,-3.0079355,53.874422499999994,Kincraig Year 6,1657250797,2020-02-28 21:55:02,,city,"Fleetwood, England",United Kingdom
193,100.5083423,13.60937549,May Nalinpat Kanthanakit,1657252158,2020-04-17 06:36:39,"Bangkok, Thailand",city,", ",
82,77.924488,10.3283805,V.Raajaram,1657252945,2020-04-26 12:33:48,Dindigul,city,"Dindigul, India",India
161,73.757005,33.855185,Sardar Nayab,165725314,2020-04-14 08:29:25,"Islamabad, Pakistan",poi,"Rawalakot, Azad Kashmir",
12420,-97.754724,30.3233455,marvmiller,16572534,2020-02-17 21:11:33,United States,city,"Austin, TX",United States
15180,-97.477426,25.972105499999998,marvmiller,16572534,2020-05-16 19:23:46,United States,city,"Brownsville, TX",United States
12420,-97.754724,30.3233455,marvmiller,16572534,2020-05-24 14:09:38,United States,city,"Austin, TX",United States
65,-1.55038195,47.299994500000004,Oberland Graldine,1657255404,2020-05-01 14:22:51,La chapelle sur erdre,city,"La Chapelle-sur-Erdre, France",France
10100,-98.4643365,45.461543,Deb Smith,1657255718,2020-04-09 03:17:02,,city,"Aberdeen, SD",United States
26420,-95.4464865,29.838495,Kimberly ,1657256167,2020-02-14 17:51:38,"Houston, Texas  ",city,"Houston, TX",United States
28660,-97.9087645,31.1214705,,1657257042,2020-02-18 17:55:06,,city,"Copperas Cove, TX",United States
12420,-97.9351915,29.8956065,,1657257042,2020-03-17 17:19:00,,city,"San Marcos, TX",United States
28660,-97.9087645,31.1214705,,1657257042,2020-03-22 00:15:25,,city,"Copperas Cove, TX",United States
12420,-97.9351915,29.8956065,,1657257042,2020-05-05 16:02:59,,city,"San Marcos, TX",United States
28660,-97.9087645,31.1214705,,1657257042,2020-05-11 01:32:07,,city,"Copperas Cove, TX",United States
12420,-97.9351915,29.8956065,,1657257042,2020-06-08 02:21:47,,city,"San Marcos, TX",United States
171,120.9839865,14.5914565,Divine,1657257228,2020-05-07 16:04:00,selenophile,city,"Manila City, National Capital Region",Republic of the Philippines
9,145.0531355,-37.9725665,Benjamin ,16572577,2020-04-11 07:38:35,"Melbourne, Australia",city,"Melbourne, Victoria",Australia
171,120.9839865,14.5914565,Maemae,1657258915,2020-02-14 04:57:10,"Manila City, National Capital ",city,"Manila City, National Capital Region",Republic of the Philippines
200,32.8183815,39.8889765,Hasan Kasm EMUCE,1657261453,2020-02-24 17:11:58,Ankara,city,"Ankara, Trkiye",Trkiye
222,112.787425,-7.270583999999999,Michael,1657262118,2020-03-09 08:54:27,"Jakarta Capital Region, Indone",city,"Mulyorejo, Indonesia",Indonesia
41860,-122.56850700000001,37.9836485,Todd Fitzgerald,16572629,2020-02-14 01:11:43,"Mill Valley, CA",city,"San Anselmo, CA",United States
88,139.8539435,35.75395949999999,A,165726394,2020-02-14 08:39:57, ,city, ,
171,121.0627355,14.683012, #TopGirlsTA,1657268568,2020-03-10 00:37:55,B150 S158,city,"Quezon City, National Capital Region",Republic of the Philippines
17820,-104.82584200000001,38.830909999999996,Kazsia the Rogue,16572687,2020-02-17 00:41:21,~ on the seas almost always! ~,poi,Pikes Peak Center,United States
171,120.99258200000001,14.600906,RanzellSummer Komikon,165726933,2020-03-08 11:09:46,sleepy town,poi,LRT2 - Legarda Station,Republic of the Philippines
29820,-115.223125,36.232915000000006,sheba,1657272608,2020-04-17 20:52:37,,city,"Las Vegas, NV",United States
9,145.76559305,-16.9211595, GBR  ,165727387,2020-06-01 02:24:23,Great Barrier Reeef Coral Sea,city,"Cairns, Queensland",Australia
19380,-84.15473750000002,39.6267125,"Terry Foster, not the writer from Detroit you guys",16572758,2020-03-11 15:43:15,"Centerville, OH",city,"Centerville, OH",United States
71,12.0708055,47.729194,ver.di Mnchen,1657275889,2020-02-15 12:03:31,Mnchen,city,"Brannenburg, Deutschland",Deutschland
205,-1.5710735,54.984875,Calum MacDonald,165727630,2020-02-26 21:24:03,"Glasgow, Scotland",city,"Byker, England",United Kingdom
222,106.98813999999999,-6.2358325,SPR,165727673,2020-05-16 11:44:45,"Jakarta Capital Region, Indonesia",city,"Bekasi Selatan, Indonesia",Indonesia
41980,-66.167876,18.389986999999998,FamiliaCollRamrez,16572777,2020-03-11 01:21:17,Puerto Rico,poi,Templo Pentecostal Asambleas de Dios,United States
151,2.9091650000000002,6.440265,Maxwell Ogunfuyi,165727788,2020-04-19 21:13:31,Lagos - Nigeria,poi,Fam Embassy Hotel,Nigeria
82,80.1589465,23.115596,Sheersh jain,165727920,2020-02-14 11:56:46,India,city,"Jabalpur, India",India
84,34.781615,32.073863, ,165728115,2020-02-16 12:12:07,Loserville,poi,Miznon (),Israel
71,13.4246065,52.506701, ,165728115,2020-03-05 22:54:40,Loserville,city,"Berlin, Germany",Germany
84,34.767915,32.052487,DEAD INSIDE,165728115,2020-04-04 12:20:05,Loserville,poi,Antifa Rave - Kibbutz Galuyot 45,Israel
186,2.1412275000000003,41.392657,La Esther,1657281631,2020-03-22 11:12:07,Catalunya.,city,"Barcelona, Espanya",Espanya
17140,-84.20468100000001,39.191124,Mtn Dew Code Red,1657281919,2020-02-14 22:55:49,"Columbus, OH",city,"Mount Repose, OH",United States
48940,-83.9805385,39.29336,Mtn Dew Code Red,1657281919,2020-03-15 03:10:05,"Columbus, OH",city,"Blanchester, OH",United States
17140,-84.20468100000001,39.191124,Mtn Dew Code Red,1657281919,2020-03-15 03:51:13,"Columbus, OH",city,"Mount Repose, OH",United States
16980,-87.664518,41.939822,Aly,1657284007,2020-05-17 20:38:41,Northside chicago,poi,Pink Palace,United States
19100,-97.05788199999999,33.087951000000004,Lin Woodson,16572860,2020-03-08 14:15:41,"Dallas Metroplex, Texas",city,"Highland Village, TX",United States
91,36.81140934,-1.26834747,Naomi Wachira,16572873,2020-02-24 09:17:26,"Seattle, WA",city,"Nairobi, Kenya",Kenya
205,-0.17311500000000002,51.5248355,Joe Campbell,165728741,2020-02-18 10:59:48,"Here, there everywhere",city,"Paddington, London",United Kingdom
47900,-77.017853,39.0083495,Eric Preston Boyd,16572882,2020-02-20 02:10:20,"Silver Spring, Maryland",city,"Silver Spring, MD",United States
20180,-78.7572935,41.124484,Eric Preston Boyd,16572882,2020-03-05 13:13:49,"Silver Spring, Maryland",city,"DuBois, PA",United States
36740,-81.39253350000001,28.4615235,Eric Preston Boyd,16572882,2020-03-09 12:18:36,"Silver Spring, Maryland",city,"Sky Lake, FL",United States
35980,-72.0559265,41.35628850000001,Eric Preston Boyd,16572882,2020-03-12 04:05:25,"Silver Spring, Maryland",city,"Groton, CT",United States
47900,-77.017853,39.0083495,Eric Preston Boyd,16572882,2020-03-16 00:58:40,"Silver Spring, Maryland",city,"Silver Spring, MD",United States
82,72.615891,22.969265,Urvish,165728831,2020-05-11 10:05:29,Ahmadabad,poi,"PD Pandya commerce college, ghodasar",India
158,174.78297644,-37.00625732,Ryan Smale,165728988,2020-03-05 04:32:36, + + Auckland NZ,city,"Auckland, New Zealand",New Zealand
9,144.84611581,-37.66847877,Ryan Smale,165728988,2020-03-09 07:03:33, + + Auckland NZ,city,"Melbourne, Victoria",Australia
171,121.033212,14.5464995,mau,1657289971,2020-02-21 16:25:52,,city,"Makati City, National Capital Region",Republic of the Philippines
205,-2.915427,53.4198785,Carters96,165729079,2020-03-19 01:10:39,"Liverpool, England",city,"Liverpool, England",United Kingdom
222,112.43630900000001,-8.297939999999999,,1657291274,2020-02-26 21:56:03,bagian atas,poi,Pantai Ngliyep,Indonesia
35620,-74.511739,40.630454,Karla Childers,16572933,2020-02-15 00:35:49,New Jersey,city,"Warren, NJ",United States
178,28.103551,-25.988404,Zimasa  Tembani,165729559,2020-04-04 19:13:36,"Johannesburg, South Africa",city,"Midrand, South Africa",South Africa
82,76.4763085,18.427528,D.. D. MUNDHE,1657296361,2020-02-21 12:18:52,"Latur Maharashtra, India",city,"Latur, India",India
24860,-82.8152355,34.6939215,nkt,1657298328,2020-02-18 03:30:08,uhh,city,"Clemson, SC",United States
186,-0.48373649999999996,38.8314235,MIGUEL ANGEL FERRERO,165729866,2020-03-01 20:32:06,"Atzeneta d'Albaida, Comunidad Valenciana",city,"Atzeneta d'Albaida, Espaa",Espaa
88,139.35714918,35.763818900000004,Shin,1657301052,2020-02-15 11:22:54,CiRCLE,city, ,
152,6.1069365,52.5142145,Danny Jansen,165730115,2020-02-25 17:25:43,"Zwolle, Nederland",city,"Zwolle, Nederland",Nederland
178,28.248846,-26.265014,Raymond Gemmell,165730395,2020-02-23 19:12:25,"Boksburg, South Africa",city,"Boksburg, South Africa",South Africa
173,36.84673667,55.92132951,FEDOROV Dmitry,165730411,2020-04-11 11:00:26,ModusFriends.ru,city,", ",
19100,-97.2859135,32.7799665,Nate,165730516,2020-02-17 11:21:16,Texas,city,"Fort Worth, TX",United States
186,-4.852206000000002,39.952182,Tilo Serrano,165730517,2020-03-17 12:44:44,"Talavera de la Reina, Espaa",city,"Talavera de la Reina, Espaa",Espaa
9,145.0531355,-37.9725665,Matt Cosgrave,165730561,2020-02-26 10:47:51,"Melbourne, Australia",city,"Melbourne, Victoria",Australia
200,30.618713,40.68075500000001,( LION KING )   ,165730568,2020-02-18 18:01:00,Zva'l,city,"Akyaz, Trkiye",Trkiye
193,100.50994616,13.72501214,min.,165730612,2020-02-16 06:26:36,TVXQnct2018SIIT22!!,city,"Khlong Ton Sai, Thailand",Thailand
158,174.75433850000005,-41.2529975,Obaid Durrani,1657306590,2020-06-08 02:40:37,"Wellington City, New Zealand",city,"Wellington City, New Zealand",New Zealand
82,77.79632050000002,11.792639,Balamurugan_hindu,1657306909,2020-05-05 13:01:48,"Salem , Mettur",city,"Mettur, India",India
82,78.3852855,17.3950375,pradeep,1657307210,2020-02-17 16:38:42,"Hyderabad, India",city,"Rajendra Nagar, India",India
171,120.9839865,14.5914565,revababe,1657307532,2020-03-15 07:04:21,,city,"Manila City, National Capital Region",Republic of the Philippines
42660,-122.2964885,47.442583,Debra Lynn,16573078,2020-05-31 03:43:07,"Seattle, WA",city,"SeaTac, WA",United States
35620,-73.86555556,41.03444444,ryan kadro,165730790,2020-04-21 18:21:31,nyc,city,"Irvington, NY",United States
151,5.2292464999999995,13.032478,Musa Andiye,1657308930,2020-04-29 00:23:08,Sokoto,city,"Sokoto, Nigeria",Nigeria
186,-5.9216125,37.14290250000001,Miguel Angel,1657309556,2020-02-27 14:04:56,,city,"Los Palacios y Villafranca, Espaa",Espaa
85,7.566482499999999,43.826219,Legoman,1657310514,2020-03-28 20:13:25,,city,"Ventimiglia, Liguria",Italia
82,79.96387150000002,12.963486999999999,Elumalai Balakrishnan,1657311926,2020-05-05 05:51:38,"Chennai, India",city,"Sriperumbudur, India",India
200,35.34885,36.979565,adana baarl profesr ,1657313148,2020-03-20 15:29:50,"Adana, Trkiye",poi,Kutsal Karyaka Topraklar,Trkiye
222,106.88621,-6.2006440000000005,Hanna Christy. G,165731336,2020-03-30 05:30:49,Sydney ,poi,TIP TOP,Indonesia
24,-114.087851,51.027664,Amber Ruddy,16573134,2020-02-14 19:44:23,"Calgary, Alberta",city,"Calgary, Alberta",Canada
88,140.609779,37.8024345,,1657314078,2020-02-14 01:23:07,,city, ,
222,106.80006399999999,-6.529496,TR,165731419,2020-05-19 10:27:57,Indonesia - Thailand,poi,Alfamidi Super Cilebut,Indonesia
82,73.8262495,24.4594275,Modu Sen,165731494,2020-02-22 03:13:07,Udaipur,city,"Udaipur, India",India
73,19.8563435,39.6282435,Dj Django Music ,1657315255,2020-02-25 09:22:46,", ",city,", ",
82,77.095086,28.638489500000002,praveen kumar dubey,1657317770,2020-03-14 13:46:23,,city,"New Delhi, India",India
44620,-89.515754,44.49597,EMGG Colelep ,1657319132,2020-02-20 23:28:41,"Wisconsin, USA",poi,Monk's Bar & Grill,United States
45,12.418644,55.648984,Morten Scheelsbeck,1657319239,2020-03-01 17:40:18,"Solrd, Danmark",poi,Brndby Stadion,Danmark
172,-66.0667,18.45,Noel Del Pilar,16573196,2020-04-27 02:59:05,"Puerto Rico, USA",city,"San Juan, USA",United States
41980,-65.82785399,18.37605829,Noel Del Pilar,16573196,2020-05-25 23:50:10,"Puerto Rico, USA",city,"Guzmn Abajo, Puerto Rico",United States
85,8.251548,46.1305115,Jennifer Carrelli,1657319768,2020-02-24 22:34:05,Domodossola ,city,"Domodossola, Piemonte",Italia
9,145.0531355,-37.9725665,Ellen McRae,165732050,2020-02-16 07:12:42,"Melbourne, Australia",city,"Melbourne, Victoria",Australia
222,112.21123,-7.102500999999999,TOGOK,1657320750,2020-02-22 19:16:28,JAWA TIMUR,poi,Stasiun Gembong,Indonesia
222,106.89062450000002,-6.3919865, Jon NGELZ  ,165732118,2020-03-24 00:28:04,Between Your Legs...,city,"Cimanggis, Indonesia",Indonesia
16300,-91.580327,41.967211999999996,Jo Miller  ,16573218,2020-02-16 22:50:34,Australiforniowa,poi,Indian Creek Nature Center,United States
88,140.731558,38.3456355,SOYA(theAttractionz),1657322394,2020-03-01 08:10:30,,city, ,
95,126.977,37.5689,EJSA,165732331,2020-05-28 05:41:20,,city,"Jongno-gu, Republic of Korea",Republic of Korea
82,78.192782,29.997988,Arunesh parashar,165732339,2020-06-06 09:11:30,haridwar +rudrapur,poi,Dev Sanskriti Vishwa Vidyalaya,India
8,-64.185924,-31.411664000000002,Marchesi Marcelo,16573234,2020-02-20 05:25:59,"Cordoba, Argentina",poi,Buenos Das,Argentina
24,-79.27256949999999,43.629311,@RileyFreeman on IG,16573235,2020-02-15 00:23:35,"Toronto, Canada",city,"Toronto, Ontario",Canada
203,32.668403000000005,-3.8476879999999998,FUNGA,1657324884,2020-03-24 04:18:52,Tanzania,poi,Mwanza,Tanzania
88,139.689695,35.632374,Koji KATA,165732513,2020-03-16 04:45:37,,city, ,
200,36.3406495,41.31315100000001,SeyitAhmet Koyiit,1657327566,2020-02-17 20:25:26,,city,"Samsun, Trkiye",Trkiye
128,4.570091000000001,50.672781,Benjamin Bodson,1657328688,2020-02-25 16:34:12,"Lige, Belgique",city,"Ottignies-Louvain-la-Neuve, Belgique",Belgique
82,70.2493681,21.30138904,Dilshanvegda,1657328815,2020-04-11 12:30:54,Keshod ,city,"Keshod, India",India
222,116.039076,-8.492527,RITZ,1657329660,2020-02-14 10:42:55,,poi,"Pacific Beach Hotel, Senggigi, Lombok",Indonesia
88,139.622044,35.463885,,165733012,2020-02-24 03:22:48,,poi, ,
38900,-122.678249,45.518237,Steven Tannenbaum,16573321,2020-02-14 06:24:55,"Portland, OR",city,"Portland, OR",United States
2,3.0024919999999997,36.64114,Nabeel,1657332252,2020-02-14 20:24:26,,city,"Birtouta                                                                                            , Algeria",Algeria
88,139.923,35.3747,k,1657332312,2020-06-09 05:18:49,,city, ,
19100,-96.7617535,32.819858499999995,El Fernandez.,165733260,2020-02-18 06:14:07,"Dallas, TX",city,"Dallas, TX",United States
30020,-98.4225265,34.620960499999995,El Fernandez.,165733260,2020-04-13 13:51:14,"Dallas, TX",city,"Lawton, OK",United States
19100,-96.7617535,32.819858499999995,El Fernandez.,165733260,2020-04-17 00:53:25,"Dallas, TX",city,"Dallas, TX",United States
82,77.3508815,28.3312135,Scorpio,165733561,2020-02-18 01:13:50,"Delhi, India",city,"Faridabad, India",India
82,76.0324995,28.76545,harsh,1657336746,2020-03-25 14:46:08,", ",city,"Bhiwani, India",India
38900,-122.95776950000001,45.3059605,Zach Brooker,1657336772,2020-03-04 20:28:30,,city,"Newberg, OR",United States
31080,-118.66260600000001,34.13726,Zach Brooker,1657336772,2020-03-05 03:42:34,,city,"Calabasas, CA",United States
186,2.8015494999999997,39.7237535,Victoria,1657337544,2020-03-28 14:05:04,,city,"Alar, Espaa",Espaa
9,150.6520585,-35.016673,Richard Montgomery,165733809,2020-03-03 08:55:40,,city,"Woollamia, New South Wales",Australia
85,11.3288975,43.81757,Mattehang,165733930,2020-05-19 23:37:48,Girovagando Esplorando,city,"Fiesole, Toscana",Italia
9,115.93239299999999,-31.934422499999997,xLightning ,1657339580,2020-02-16 06:43:43,"Perth, Western Australia",neighborhood,"Ascot, Perth (WA)",Australia
222,124.81965100000001,1.453759,sailor chibi,165733997,2020-06-06 04:40:51,"Bintaro - Hogwarts pp
",poi,Jurusan Gizi Poltekkes,Indonesia
14,91.98703,21.4315415,Mizanur Rahman,165734206,2020-03-15 07:02:44,Bangladesh,city,"Cox's Bazar, Bangladesh",Bangladesh
85,9.285882,45.482696999999995,Claps74,1657344816,2020-03-01 14:59:18,"Milano, Lombardia",city,"Segrate, Lombardia",Italia
205,-2.8948825,53.1973495,Gareth Sudlow,165734504,2020-02-16 21:23:15,Chester,city,"Chester, England",United Kingdom
222,106.689103,-6.307296,alicia may emory,165734594,2020-03-13 09:11:59,,city,"Serpong, Indonesia",Indonesia
205,-3.1760040000000003,56.196734,ciaran,1657346402,2020-02-22 01:16:06,"Glenrothes, Scotland",city,"Glenrothes, Scotland",United Kingdom
12420,-97.754724,30.3233455,Leslie Pearlman,16573469,2020-02-17 14:43:39,"Austin, TX",city,"Austin, TX",United States
35380,-90.067047,29.957105,Leslie Pearlman,16573469,2020-02-17 19:51:23,"Austin, TX",poi,Le Bayou Resturant And Oyster Bar,United States
41700,-98.5406515,29.417501,Leslie Pearlman,16573469,2020-02-20 21:20:44,"Austin, TX",city,"San Antonio, TX",United States
12420,-97.754724,30.3233455,Leslie Pearlman,16573469,2020-02-21 04:30:14,"Austin, TX",city,"Austin, TX",United States
35620,-74.066663,40.7180015,rick joyce,16573484,2020-06-09 06:34:05,new york city,city,"Jersey City, NJ",United States
28020,-85.56987099999999,42.1979655,Jamie B,16573490,2020-02-14 01:15:18,"Kalamazoo, MI",city,"Portage, MI",United States
38,-75.590644,6.1393835,scar Arcila,16573498,2020-05-02 13:29:58,"Envigado, Antioquia",city,"Envigado, Colombia",Colombia
19740,-104.9220935,39.713563,kaye kavanagh  ANSWER YOUR #2020CENSUS,16573499,2020-05-30 17:12:01,A MILE HIGH,city,"Denver, CO",United States
158,174.774006,-41.2728395,mobsta,165734991,2020-02-23 23:23:31,"wellington, new zealand",neighborhood,"Thorndon, Wellington City",New Zealand
21,-43.441578,-22.911421500000003,CYBERYORUBA 10062,165735282,2020-04-03 22:33:35,"Penha, Rio de Janeiro",city,"Rio de Janeiro, Brasil",Brasil
205,-0.18919,51.5037865,Grazia,165735357,2020-03-21 18:11:46,"London, UK",city,"Kensington, London",United Kingdom
31080,-118.4119065,34.0207895,Ray Plaza,16573537,2020-02-19 04:53:09,"Los Angeles, CA",city,"Los Angeles, CA",United States
82,72.67227600000002,23.215227,jadav mahendra,165735415,2020-03-21 05:36:54,ahmedabad,city,"Gandhinagar, India",India
17140,-84.51088299999999,39.121047,Eileen Lynch,1657354932,2020-04-10 16:42:14,"Ogden, UT",city,"Cincinnati, OH",United States
36260,-111.97841000000001,41.22061,Eileen Lynch,1657354932,2020-04-12 14:07:07,"Ogden, UT",city,"Ogden, UT",United States
33460,-93.2645,44.9774,Eileen Lynch,1657354932,2020-05-28 14:44:16,"Ogden, UT",city,"Minneapolis, MN",United States
35620,-74.0506,40.20561,Eileen Lynch,1657354932,2020-06-01 13:48:43,"Ogden, UT",city,"Neptune City, NJ",United States
171,121.0443,14.5789,chanyeoloppa,1657355628,2020-02-14 14:04:44,"Mandaluyong City, National Capital Region",city,"Mandaluyong City, National Capital Region",Republic of the Philippines
21,-43.441578,-22.911421500000003,Renato Borges Neto,165735603,2020-03-08 14:14:49,Rio de Janeiro - RJ,city,"Rio de Janeiro, Brasil",Brasil
31080,-117.9248925,33.8893475,Brenda Rushforth,16573566,2020-03-07 03:15:49,Somewhere out there..........,city,"Fullerton, CA",United States
193,100.6165205,13.666051000000001,  ',165735709,2020-02-14 06:14:10,"., .",city,", ",
186,-4.5784265,36.6640055,David Martinez,165735739,2020-02-18 00:19:01,Alhaurin de la Torre (MALAGA),city,"Alhaurn de la Torre, Espaa",Espaa
9,150.8589055,-34.439971500000006,Fabian McCann,1657357626,2020-03-31 22:01:12,"Sydney, New South Wales",city,"Wollongong, New South Wales",Australia
186,-8.140178,42.1675,floren,165735972,2020-02-26 13:24:42,,city,"Pontedeva, Espaa",Spain
186,-5.845,43.36,Carlos J Losada,165736017,2020-02-14 23:18:10,Galicia,city,"Oviedo, Espaa",Espaa
205,-2.9402835,54.902331499999995,Lizz Johnston,1657363022,2020-02-17 17:46:07,carlisle ,city,"Carlisle, England",United Kingdom
21,-38.51989,-3.789768,hervison lima ,165736563,2020-03-05 22:57:31,Fortaleza-Cear-Brasil,city,"Fortaleza, Brasil",Brasil
186,-0.727529,39.489242499999996,Natalia Toro Covelo,165736663,2020-02-25 12:05:51,valencia,city,"Chiva, Espaa",Espaa
41700,-98.7130845,29.550182,Graham Watson,16573674,2020-02-14 13:58:48,"San Antonio, TX",city,"Helotes, TX",United States
