currentGEOID,lon,lat,name,author_Id,created_at,location,place_type,place_full_name,place_country
88,140.21357700000002,35.695567,,345158356,2020-03-27 06:21:10,,city, ,
222,110.366643,-7.799243,Hyukkie14(~)~,345158371,2020-04-24 23:15:57,Yogya City,city,"Gondomanan, Indonesia",Indonesia
41180,-90.6006005,38.7578375,Rachel Durnin,345158582,2020-03-14 16:47:40,,city,"St Peters, MO",United States
41860,-122.38746299999998,37.767864,Jason Maples,345158690,2020-02-24 00:56:31,"Richmond, CA",poi,Chase Center,United States
18500,-77.12258800000002,42.1535935,John Heskell,345158761,2020-05-05 17:49:45,"Corning, NY",city,"Gang Mills, NY",United States
119,-115.22918,31.7896695,sun - taegi au ,345158876,2020-05-09 02:05:09,Niall RT Agosto/2012,city,"Mexicali, Baja California",Mexico
171,121.1242275,14.606717499999998,* carol *,345158886,2020-04-04 12:12:48,Rizal,city,"Cainta, Calabarzon",Republic of the Philippines
10900,-75.4773,40.6017,erodmusic,345158948,2020-04-06 13:10:51,"Allentown, PA",city,"Allentown, PA",United States
31080,-118.4119065,34.0207895,Haneri,34515902,2020-02-17 04:17:34,"Los Angeles, CA",city,"Los Angeles, CA",United States
222,110.7792835,-6.6389125,Siska Arifa ,345159313,2020-03-02 19:26:16,"Jepara, Indonesia",city,"Batealit, Indonesia",Indonesia
44300,-78.21588650000002,40.892973,Callie Czap,34515937,2020-05-08 02:06:22,"Philipsburg, PA",city,"Philipsburg, PA",United States
38060,-112.1246765,33.5528625,Google Quartz,3451597817,2020-02-21 22:25:31,"Phoenix, AZ",city,"Phoenix, AZ",United States
222,107.185461,-6.2976855,Calon Pengusaha Sukses,345160077,2020-02-17 04:26:49,"Cikarang, Indonesia",city,"Lemahabang, Indonesia",Indonesia
222,106.817489,-6.54406,Ry Ajeng,345160129,2020-06-07 03:21:42,,poi,Villa bogor indah,Indonesia
9,150.931975,-33.848244,Glenn Toland,345160131,2020-03-27 06:08:34,Sydney,city,"Sydney, New South Wales",Australia
30700,-96.7108,40.8151,Erik Nore,345160180,2020-02-29 23:05:43,,city,"Lincoln, NE",United States
36540,-96.1191,41.2911,Erik Nore,345160180,2020-03-04 17:23:49,,city,"Omaha, NE",United States
38060,-112.37799999999999,33.6282,Erik Nore,345160180,2020-03-07 19:12:49,,city,"Surprise, AZ",United States
36540,-96.0191,41.3058,Erik Nore,345160180,2020-06-05 17:48:42,,city,"Omaha, NE",United States
21,-43.959822499999994,-19.918692,@Marcola,3451606757,2020-02-15 00:39:51,"Belo Horizonte, Brasil",city,"Belo Horizonte, Brasil",Brasil
21,-43.441578,-22.911421500000003,surtada.,3451610477,2020-02-15 00:16:12,RJ,city,"Rio de Janeiro, Brasil",Brasil
31980,-85.762383,40.5682465,kt ,345161207,2020-02-14 00:35:14,"Indiana, USA  ",city,"Sweetser, IN",United States
173,48.468923499999995,54.317876500000004,okiron,3451614867,2020-03-22 15:37:12,,city,", ",
222,110.4580875,-7.047778500000001,Key,345161557,2020-05-28 03:10:05,Indonesia,city,"Tembalang 1, Indonesia",Indonesia
34980,-86.791549,36.200008000000004,Elliot Markuson,345161599,2020-03-03 18:08:48,"Ningbo, China",city,"Nashville, TN",United States
38060,-111.831562,33.414035,Jennifer,345161787,2020-03-19 20:26:53,Here for now,city,"Mesa, AZ",United States
44300,-77.904653,40.8028355,Marshall Moss,345161879,2020-02-22 00:02:25,"State College, PA",city,"Park Forest Village, PA",United States
32820,-89.92202900000002,35.1335205,I Am C.Uniique,34516195,2020-02-14 18:49:06,"Sioux Falls, SD",city,"Memphis, TN",United States
43620,-96.7311425,43.5410145,I Am C.Uniique,34516195,2020-05-30 14:21:00,"Sioux Falls, SD",city,"Sioux Falls, SD",United States
16740,-80.8467855,35.209059,Jane Kushington,34516256,2020-02-14 03:59:56,sunflower meadows,city,"Charlotte, NC",United States
82,77.4233395,28.773568,Shahrukh Shaikh,345162766,2020-02-25 04:28:35,"New Delhi, India",city,"Ghaziabad, India",India
8,-58.5641745,-34.544659,Laurita!,3451630696,2020-02-24 02:34:41,"San Martn, Argentina",city,"Ciudad del Libertador General San Martn, Argentina",Argentina
22420,-83.633752,42.90642250000001,Ryan Relken,345163108,2020-02-20 13:56:05,"Goodrich, MI",city,"Grand Blanc, MI",United States
38060,-111.7385665,33.295215,Ryan Relken,345163108,2020-03-15 17:18:18,"Goodrich, MI",city,"Gilbert, AZ",United States
22420,-83.633752,42.90642250000001,Ryan Relken,345163108,2020-03-19 00:31:58,"Goodrich, MI",city,"Grand Blanc, MI",United States
19820,-83.356437,42.207858,Ryan Relken,345163108,2020-03-19 11:05:07,"Goodrich, MI",poi,McNamara Terminal,United States
222,112.72024612,-7.84279951,joko purwanto,345163523,2020-05-16 11:05:27,,city,"Lawang, Indonesia",Indonesia
120,101.7109,3.1581,yaa,345163685,2020-03-02 05:24:05,,city,"Kuala Lumpur City, Kuala Lumpur Federal Territory",Malaysia
31080,-117.7823605,33.689732,Lydia Pejovic,345163700,2020-03-04 13:53:47,vegas,city,"Irvine, CA",United States
27140,-90.1580165,32.230987,Jamane White,345163864,2020-02-29 16:26:25,,city,"Jackson, MS",United States
119,-98.13322095,19.05140429,Tony Garca ,345163988,2020-05-21 05:19:52,"Puebla, Mxico",city,"Puebla, Mxico",Mxico
21,-43.6532075,-17.913337,Ricky,345164416,2020-02-25 02:39:23,,city,"Diamantina, Brasil",Brasil
39300,-71.4218325,41.817084,Daryen,345164462,2020-06-02 14:55:38,,city,"Providence, RI",United States
35620,-73.87395450000001,41.701722,Daryen,345164462,2020-06-02 15:34:00,,city,"Arlington, NY",United States
33100,-80.1778765,26.270692500000006,David Sama,34516521,2020-02-25 22:38:54,"Parkland, FL",city,"Coconut Creek, FL",United States
21,-45.917442,-23.061418,Elaine Poppelbaum,345165397,2020-03-05 05:16:09,So Jos dos Campos,city,"So Jos dos Campos, Brasil",Brasil
222,109.2431295,-7.452499499999999,wahyudi,345165897,2020-02-14 08:36:37,indonesia,city,"Purwokerto Selatan, Indonesia",Indonesia
33100,-80.12235550000001,26.301198,Alex,345166126,2020-02-14 12:35:27,Florida Man!,city,"Deerfield Beach, FL",United States
222,106.82174099999999,-6.233898,Mel Ahmadiyan,34516638,2020-03-04 06:17:55,indonesia,poi,Lau's Kopi,Indonesia
9,153.028,-27.4678,Sally Piper,345166418,2020-03-26 04:41:12,"Brisbane, Queensland",city,"Brisbane, Queensland",Australia
21,-48.812305,-22.6677035,"Leonardo "" LeonCr"" Soares",345166699,2020-02-15 21:20:32,Lenis Paulista/SP,city,"Lenis Paulista, Brasil",Brasil
222,112.821377,-7.8957,Sales,345166941,2020-02-14 10:17:25,"Malang, Jawa Timur",poi,Pasar Nongkojajar,Indonesia
16980,-87.6560457,41.9477387,Andrew Pitre,345166947,2020-03-28 14:59:11,"Ontario, Canada",city,"Chicago, IL",United States
38,-74.05849457,4.7532706,Edisson Hernndez,345166958,2020-02-15 22:56:28,Bogota,city,"Bogot, D.C., Colombia",Colombia
45060,-76.1823735,43.088223,Cicolella,345167235,2020-02-14 20:33:22,,city,"Galeville, NY",United States
31080,-118.32514499999999,34.18216,soph duff,345167518,2020-03-05 17:02:08,,city,"Burbank, CA",United States
205,-4.7658404999999995,58.449839000000004,.,3451677387,2020-02-16 23:29:08,muerto,city,"Polla, Scotland",Reino Unido
47900,-77.08522582,39.07084101,Chris Kier Conroy,34516806,2020-02-14 00:58:35,"Silver Spring, MD",city,"Aspen Hill, MD",United States
222,106.157779,-6.114661,.pi,345168470,2020-06-04 00:40:15,"Kota Serang, Banten",city,"Serang, Indonesia",Indonesia
29820,-115.32906532,36.140924600000005,The Heed Group,34516879,2020-06-03 14:11:08,Vegas baby!,city,"Summerlin South, NV",United States
200,29.0052225,41.0213205,Faruk,3451692029,2020-05-13 14:36:18,,city,"stanbul, Trkiye",Trkiye
49,-80.28095,-2.68342,ROBERT SAIBA,345169320,2020-02-17 12:14:47,ECUADOR,city,"Guayaquil, Ecuador",Ecuador
33,-70.63483371,-33.43316403,Cayu,34516935,2020-04-30 15:01:34,"Puerto Montt, Chile",city,"Providencia, Chile",Chile
8,-58.034094,-31.3892305,Estefana,345169419,2020-02-19 02:35:44,,city,"Concordia, Argentina",Argentina
88,136.86747150000002,35.1655625,,345169593,2020-02-18 11:56:59,,city,  ,
119,-100.264,25.6726, ,345169617,2020-05-10 05:07:06,"Monterrey, Nuevo Len",city,"Guadalupe, Nuevo Len",Mxico
222,110.452316,-7.6309825,yuk minum,345169699,2020-03-04 04:02:17,Indonesia,city,"Cangkringan, Indonesia",Indonesia
8,-58.41885600000001,-34.752795500000005,Walter,3451698022,2020-03-01 07:14:02,"Buenos Aires, Argentina",city,"Lomas de Zamora, Argentina",Argentina
35620,-74.044265,40.089555499999996,Joseph Zaccone,345169933,2020-02-14 04:41:18,"Toms River, NJ",city,"Point Pleasant Beach, NJ",United States
12100,-74.4372135,39.364509999999996,Joseph Zaccone,345169933,2020-03-07 16:53:12,"Toms River, NJ",city,"Atlantic City, NJ",United States
35620,-74.46648300000003,40.551769500000006,Joseph Zaccone,345169933,2020-03-08 19:38:01,"Toms River, NJ",city,"Piscataway, NJ",United States
161,71.4577635,30.191459,muhammad Imran,345169939,2020-06-04 17:20:19,kabirwala,city,"Multan, Pakistan",Pakistan
173,37.5326499,55.72063000000001,,345170127,2020-02-28 12:30:30,,city,", ",
31080,-118.450923,34.308171,Nate Uchiha,345170366,2020-03-28 07:18:56,"Watto's Repair Shop, Tatooine",neighborhood,"Sylmar, Los Angeles",United States
37100,-118.91365649999999,34.4029385,Nate Uchiha,345170366,2020-05-20 20:51:30,"Watto's Repair Shop, Tatooine",city,"Fillmore, CA",United States
31080,-118.6311135,34.478413,Nate Uchiha,345170366,2020-05-21 15:27:12,"Watto's Repair Shop, Tatooine",city,"Castaic, CA",United States
8,-57.5814305,-38.01158750000001,Condesa de Chetoslovaquia,345170552,2020-04-17 12:49:56,"Mar del Plata, Argentina",city,"Mar del Plata, Argentina",Argentina
222,107.5246235,-6.8421059999999985,"Rida yulia ,ST",345170726,2020-05-29 19:35:41,Bandung I n d o n e s i a,city,"Ngamprah, Indonesia",Indonesia
19740,-104.98360001,39.7391,CJ,34517085,2020-03-20 13:56:30,Mile HIGH City,city,"Denver, CO",United States
31080,-118.4119065,34.0207895,Kenneth Guidroz,345170898,2020-04-14 22:03:49,"New York, New York",city,"Los Angeles, CA",United States
37980,-75.171872,39.901121999999994,Eric Reese,345171008,2020-02-19 03:02:54,"Delaware, USA",poi,Wells Fargo Center,United States
24,-79.27256949999999,43.629311,Deep $outh Dunny,345171308,2020-05-21 20:18:23,"Toronto, Canada",city,"Toronto, Ontario",Canada
35620,-73.9685415,40.780709,Mark Manglicmot,34517160,2020-03-23 03:55:33,Traveling the World,city,"Manhattan, NY",United States
205,-6.662939999999999,55.1333205,Scott Anderson,3451718003,2020-02-20 21:56:32,"Coleraine, Northern Ireland",city,"Coleraine, Northern Ireland",United Kingdom
173,37.42764250000001,55.7547875,lerasimon,3451718716,2020-04-18 19:20:09,,city,"Moscow, Russia",Russia
222,107.5858695,-6.8603109999999985,det,345171976,2020-02-14 13:23:52,,city,"Sukasari, Indonesia",Indonesia
19100,-96.994833,32.768591,lexx,345172039,2020-05-12 18:47:57,"Little Rock, AR",city,"Grand Prairie, TX",United States
200,32.8183815,39.8889765,,3451720516,2020-02-14 16:11:34,"Mersin, Trkiye",city,"Ankara, Trkiye",Trkiye
171,124.62850049999999,8.376078499999998,who? me?,345172100,2020-02-14 00:45:12,Cagayan de Oro City,city,"Cagayan De Oro City, Northern Mindanao",Republic of the Philippines
120,101.552669,3.0512200000000003,KOMAS,34517273,2020-02-14 11:21:10,PJ State,city,"Damansara, Selangor",Malaysia
31080,-118.30883500000002,34.061789000000005,autumn MET MX,345173032,2020-02-16 21:01:30,ncity,poi,Gong Cha,United States
119,-103.4847745,20.790657000000003,SAUL CAMACHO,345173525,2020-03-02 05:28:32,ZAPOPAN JALISCO MEXICO,city,"Zapopan, Jalisco",Mxico
151,7.424094,9.073663999999999,Mr.Spicy,345173639,2020-03-18 02:31:58,Cyberjaya,city,"Abuja, Nigeria",Nigeria
45300,-82.44269399999997,27.9965945,Odsiris,3451738156,2020-06-01 23:24:23,"Tampa,FL",city,"Tampa, FL",United States
222,107.56697,-6.950049000000001,I B E,345174145,2020-06-02 11:22:27,West London,poi,Istirahatt,Indonesia
46140,-95.997698,35.9461095,Caleb,345174458,2020-03-23 21:29:43, ,city,"Glenpool, OK",United States
21,-53.824203000000004,-29.753085,Eduarda,345174559,2020-02-14 23:01:54,,city,"Santa Maria, Brasil",Brasil
95,126.4576221,36.7848552,JASSTHAJOINTZ,345175102,2020-06-06 15:00:15, ,city, ,
222,107.5978685,-6.795755000000001,dewi,34517525,2020-03-28 08:38:38,bandung,city,"Parompong, Indonesia",Indonesia
38900,-122.429892,45.500456,Les,345175461,2020-03-11 02:10:17,"Portland, Oregon",poi,Mojave Grill & Cantina,United States
41500,-121.82506000000001,36.6258065,Les,345175461,2020-04-26 07:34:22,"Portland, Oregon",city,"Seaside, CA",United States
38900,-122.43860149999999,45.545501,Les,345175461,2020-05-07 00:56:29,"Portland, Oregon",city,"Fairview, OR",United States
44060,-117.58193,47.489532000000004,bluesfantom,345175874,2020-02-15 18:45:44,"Cheney, WA",city,"Cheney, WA",United States
34980,-86.791549,36.200008000000004,kels,34517614,2020-02-14 02:27:47,"Nashville, TN",city,"Nashville, TN",United States
39580,-78.64109,35.774177,Katherine Hyatt,345176230,2020-03-05 14:11:27,,poi,Raleigh Convention Center,United States
38,-75.5751,6.2359,Yosmarlyn Jimnez,345176276,2020-02-17 18:34:38,Venezuela,city,"Medelln, Colombia",Colombia
15380,-78.85356300000002,42.8962295,TakingItToTheStreets,34517637,2020-03-22 01:58:25,Buffalo NY,city,"Buffalo, NY",United States
28140,-94.5592815,39.1000485,Park University,34517641,2020-02-19 01:06:21,"Parkville, Missouri",city,"Kansas City, MO",United States
38060,-112.1246765,33.5528625,Jeff Brickman 19kilo    ,345176651,2020-02-14 19:41:38,"Durham, NC",city,"Phoenix, AZ",United States
20500,-78.8954405,35.9909825,Jeff Brickman 19kilo    ,345176651,2020-02-20 00:41:45,"Durham, NC",city,"Durham, NC",United States
39580,-78.85507799999998,35.7232,Jeff Brickman 19kilo    ,345176651,2020-03-08 16:44:34,"Durham, NC",city,"Apex, NC",United States
20500,-78.8954405,35.9909825,Jeff Brickman 19kilo    ,345176651,2020-03-09 15:46:57,"Durham, NC",city,"Durham, NC",United States
12580,-76.29806049999999,39.440509000000006,Karley Ames,345176710,2020-04-01 21:30:27,"Baltimore/ Phoenix, MD, USA ",city,"Edgewood, MD",United States
14020,-86.528362,39.166422,Beyonc,345176977,2020-02-19 04:33:25,,poi,Upstairs Pub,United States
33100,-80.13296249999998,25.8169655,Beyonc,345176977,2020-03-17 03:56:21,,city,"Miami Beach, FL",United States
12060,-84.1339925,34.008337999999995,Beyonc,345176977,2020-03-23 05:30:23,,city,"Duluth, GA",United States
82,77.22417932,28.55933898,Black Letters,345177321,2020-02-26 14:09:15,"Bangalore, India",city,"New Delhi, India",India
21,-48.7397865,-26.758349499999998,Mateus da silva,345177616,2020-02-15 08:24:29,"Balnerio Piarras, Brasil",city,"Balnerio Piarras, Brasil",Brasil
151,3.39583,6.45306,Erhime Olotewo,34517785,2020-02-19 07:30:53,"T: 6.60547,3.28467",city,"Lagos, Nigeria",Nigeria
26420,-95.4464865,29.838495,Antonini,345177866,2020-03-08 03:28:10,"Houston, TX",city,"Houston, TX",United States
88,136.90780479,35.16368713,ToSHi,345177978,2020-02-15 09:10:20,,city,  ,
31080,-118.4119065,34.0207895,Captain Bright,345177979,2020-02-15 21:47:04,"California, USA",city,"Los Angeles, CA",United States
21340,-106.4174305,31.793368,Joshua Stephfon,345178455,2020-02-15 00:18:11,"El Paso, TX",city,"El Paso, TX",United States
21,-54.065668,-31.245439500000003,babycat,345178460,2020-04-16 22:31:40,"Bag, Brasil",city,"Bag, Brasil",Brasil
14860,-73.393711,41.3694035,Elisa Davis,345178599,2020-02-14 20:16:52,"Bethel, CT",city,"Bethel, CT",United States
35620,-73.78110749999998,41.1407145,Elisa Davis,345178599,2020-02-17 23:51:00,"Bethel, CT",city,"Pleasantville, NY",United States
14860,-73.47297850000002,41.4081195,Elisa Davis,345178599,2020-02-18 03:08:42,"Bethel, CT",city,"Danbury, CT",United States
35620,-73.78110749999998,41.1407145,Elisa Davis,345178599,2020-02-19 19:06:24,"Bethel, CT",city,"Pleasantville, NY",United States
14860,-73.393711,41.3694035,Elisa Davis,345178599,2020-02-19 23:20:12,"Bethel, CT",city,"Bethel, CT",United States
35620,-73.6874605,41.256946500000005,Elisa Davis,345178599,2020-02-20 23:22:05,"Bethel, CT",city,"Katonah, NY",United States
14860,-73.393711,41.3694035,Elisa Davis,345178599,2020-02-21 02:45:12,"Bethel, CT",city,"Bethel, CT",United States
35620,-73.754737,41.0262045,Elisa Davis,345178599,2020-02-21 18:21:37,"Bethel, CT",city,"White Plains, NY",United States
14860,-73.393711,41.3694035,Elisa Davis,345178599,2020-02-22 14:15:02,"Bethel, CT",city,"Bethel, CT",United States
35620,-73.78110749999998,41.1407145,Elisa Davis,345178599,2020-02-23 21:58:06,"Bethel, CT",city,"Pleasantville, NY",United States
14860,-73.393711,41.3694035,Elisa Davis,345178599,2020-02-24 12:51:22,"Bethel, CT",city,"Bethel, CT",United States
35300,-72.80198,41.5372335,Elisa Davis,345178599,2020-02-24 21:45:58,"Bethel, CT",city,"Meriden, CT",United States
14860,-73.393711,41.3694035,Elisa Davis,345178599,2020-02-26 15:29:45,"Bethel, CT",city,"Bethel, CT",United States
35620,-73.78110749999998,41.1407145,Elisa Davis,345178599,2020-03-03 17:53:47,"Bethel, CT",city,"Pleasantville, NY",United States
14860,-73.393711,41.3694035,Elisa Davis,345178599,2020-03-04 00:11:47,"Bethel, CT",city,"Bethel, CT",United States
35620,-73.78110749999998,41.1407145,Elisa Davis,345178599,2020-03-07 17:43:36,"Bethel, CT",city,"Pleasantville, NY",United States
14860,-73.393711,41.3694035,Elisa Davis,345178599,2020-03-08 02:58:42,"Bethel, CT",city,"Bethel, CT",United States
35620,-73.7192005,41.0192955,Elisa Davis,345178599,2020-03-08 19:05:21,"Bethel, CT",city,"Harrison, NY",United States
14860,-73.393711,41.3694035,Elisa Davis,345178599,2020-03-08 21:13:12,"Bethel, CT",city,"Bethel, CT",United States
178,28.136140500000003,-25.860881,Mama Lesedi ,345178866,2020-02-14 07:34:22,Pretoria-East,city,"Centurion, South Africa",South Africa
35620,-73.9685415,40.780709,deborah,34517905,2020-03-18 21:47:01,New York,city,"Manhattan, NY",United States
193,100.5415625,13.6975535,Elvina ,345179202,2020-02-14 05:18:02,"Ottawa, Ontario ",city,"Yannawa, Thailand",Thailand
120,99.736837,6.258153999999998,Elvina ,345179202,2020-03-13 20:26:19,"Ottawa, Ontario ",city,"Kedawang, Kedah",Malaysia
193,100.526313,13.7412975,Elvina ,345179202,2020-03-17 05:20:25,"Ottawa, Ontario ",city,"Wang Mai, Thailand",Thailand
8,-58.0134,-35.57886,.  ,345179358,2020-04-21 22:19:04,Chascoms,city,"Chascoms, Argentina",Argentina
34340,-80.609059,36.500554,Matthew ,34517976,2020-05-01 03:54:34,Azalea,poi,White Elephant Beer Company,United States
16740,-80.86594099999998,35.788951000000004,Matthew ,34517976,2020-05-09 13:40:38,Azalea,city,"Statesville, NC",United States
34340,-80.65623199999999,36.501818,Matthew ,34517976,2020-05-10 02:14:19,Azalea,city,"Toast, NC",United States
16740,-80.86594099999998,35.788951000000004,Matthew ,34517976,2020-05-17 12:05:15,Azalea,city,"Statesville, NC",United States
34340,-80.65623199999999,36.501818,Matthew ,34517976,2020-05-17 23:42:26,Azalea,city,"Toast, NC",United States
88,139.624761,35.464617,,345180129,2020-02-29 03:26:23,,poi,,
47900,-77.0143985,38.898603,Stan R.,3451802594,2020-02-14 20:32:56,United States,city,"Washington, DC",United States
35620,-73.67305556,40.67527778,Hezrell Vasquez,345180477,2020-05-23 14:56:20,New York,city,"Malverne, NY",United States
20580,-100.499024,28.708506,Brian Ty Chisum,345180911,2020-02-27 22:54:27,,poi,"Eagle Pass, TX",United States
41700,-98.5406515,29.417501,Brian Ty Chisum,345180911,2020-06-10 15:40:26,,city,"San Antonio, TX",United States
222,106.81045,-6.605364,Rian F,345181093,2020-03-12 02:49:00,Bogor Indonesia,poi,Seribu Pagi,Indonesia
19780,-93.6809565,41.490051,Tara Katschman,345181096,2020-03-06 10:49:23,,city,"Norwalk, IA",United States
28580,-81.7996,24.5506,Tara Katschman,345181096,2020-04-08 02:53:08,,city,"Key West, FL",United States
19780,-94.01,41.33,Tara Katschman,345181096,2020-04-11 00:22:45,,city,"Winterset, IA",United States
222,107.5871455,-6.889274,Syafrizal Wardhana,345181670,2020-02-19 00:47:34,Indonesia,city,"Sukajadi, Indonesia",Indonesia
222,95.291794,5.538256499999999,lizaa,345181798,2020-04-07 16:37:52,,city,"Meuraxa, Indonesia",Indonesia
119,-99.2115105,19.4299345,Alejandro Bernal,34518180,2020-02-19 08:47:40,"Miguel Hidalgo, CDMX",city,"Miguel Hidalgo, Distrito Federal",Mxico
51,-6.2603097000000005,53.34980529999999,TMJ-DUB IT Jobs,34518202,2020-02-14 10:41:25,"Dublin, Ireland",city,"Dublin City, Ireland",Ireland
31080,-118.4119065,34.0207895,Leslie Berenger ,345182545,2020-02-22 00:37:12,"Valley Village, CA",city,"Los Angeles, CA",United States
171,120.99945600000001,14.590334,MJ,34518273,2020-03-10 13:32:29,,poi,Landers Superstore,Republic of the Philippines
41620,-111.917026,40.765805,Dale C.,345183193,2020-04-12 06:46:44,"Salt Lake City, UT",city,"Salt Lake City, UT",United States
21,-43.0596095,-22.904549000000006,Gustardado,345183293,2020-04-05 20:51:28,Brasil,city,"Niteri, Brasil",Brasil
200,35.28488,37.002826500000005,Tahsin Osman Renber,345183430,2020-02-15 18:19:28,anlurfa / RIHA,city,"Adana, Trkiye",Trkiye
38900,-122.481626,45.6512475,Fawn M. Linschoten,345183830,2020-06-01 04:45:13,United States,city,"Mill Plain, WA",United States
21,-49.408253,-25.592756,Poeta Diva Ganjah,345183893,2020-05-11 14:33:51,"Curitiba, Brasil",city,"Araucria, Brasil",Brasil
175,46.685077,24.7219435, ,345184532,2020-05-02 14:41:58,Riyadh,city,"Riyadh, Kingdom of Saudi Arabia",Kingdom of Saudi Arabia
171,120.9304795,14.3994195,Annie Magsaysay,345184774,2020-03-01 12:24:32,Philippines,city,"Imus, Calabarzon",Republic of the Philippines
88,130.091,33.1061,Annie Magsaysay,345184774,2020-03-07 08:43:16,Philippines,city,"Kashima-shi, Saga",Japan
205,-0.27818899999999996,52.584182,Gillian Searl,345184786,2020-02-15 12:10:08,"Peterborough, UK",poi,Peterborough City Hospital,United Kingdom
171,121.033212,14.5464995, i c o l e,345184885,2020-03-16 19:47:54,"Naic, Calabarzon",city,"Makati City, National Capital Region",Republic of the Philippines
29820,-115.223125,36.232915000000006,Kenny Kinard,345184896,2020-03-29 21:38:18,"Granada Hills, Los Angeles",city,"Las Vegas, NV",United States
31080,-118.4119065,34.0207895,Kenny Kinard,345184896,2020-03-31 05:13:36,"Granada Hills, Los Angeles",city,"Los Angeles, CA",United States
42540,-75.8779,41.2446,Jake Eddie Jenkins,3451850602,2020-03-08 05:15:16,Wilks-Barre PA,city,"Wilkes-Barre, PA",United States
20500,-78.8954405,35.9909825,Jeremy from the library,345185201,2020-02-14 16:22:58,Bull City,city,"Durham, NC",United States
39580,-78.657837,35.8439815,Jeremy from the library,345185201,2020-03-04 19:31:33,Bull City,city,"Raleigh, NC",United States
16740,-80.8467855,35.209059,Jeremy from the library,345185201,2020-03-05 01:34:57,Bull City,city,"Charlotte, NC",United States
12060,-84.4703885,33.6312775,Jeremy from the library,345185201,2020-03-08 11:52:35,Bull City,city,"College Park, GA",United States
20500,-78.8954405,35.9909825,Jeremy from the library,345185201,2020-03-10 11:13:51,Bull City,city,"Durham, NC",United States
38060,-112.09016509,33.39523309,1st Lady @NBPC,345185633,2020-02-16 17:31:06,"Surprise, AZ",city,"Phoenix, AZ",United States
19740,-104.9220935,39.713563,Marcus Valdez,345185842,2020-04-05 16:20:05,"Denver, CO",city,"Denver, CO",United States
222,100.35390068,-0.9561124,BOOS 104.2 FM Padang,345185939,2020-03-19 09:42:35,WR. Mongonsidi No.4B Padang,city,"Padang Barat, Indonesia",Indonesia
119,-103.35,20.6667,Alejandra,34518602,2020-03-04 01:59:40,Guadalajara,city,"Guadalajara, Jalisco",Mxico
45220,-84.28684656,30.42409054,Tisha M.,34518621,2020-04-02 13:39:48,ATL,city,"Tallahassee, FL",United States
82,77.60933762,12.91190695,Abinash Mohanty,345186214,2020-03-25 08:21:05,"Bengaluru, India",city,"Bengaluru South, India",India
36780,-88.4824625,44.1572775,DH,345186263,2020-03-16 16:37:02,,city,"Neenah, WI",United States
35660,-86.2388125,41.780854,DH,345186263,2020-05-11 00:44:07,,city,"Bertrand, MI",United States
36780,-88.7355565,44.0373745,DH,345186263,2020-05-25 15:36:56,,city,"Omro, WI",United States
186,-4.4240309999999985,36.764878,Fran Soto,3451870276,2020-02-15 16:31:28,,city,"Mlaga, Espaa",Espaa
205,-0.10968599999999999,51.502176,Anah Rodrigues Serpa,34518738,2020-02-17 20:09:53,"London, England",poi,The Old Vic,United Kingdom
200,28.978144,41.007932000000004,Anah Rodrigues Serpa,34518738,2020-02-21 15:58:48,"London, England",city,"stanbul, Trkiye",Turkey
35620,-73.99751455,40.73089837,Anah Rodrigues Serpa,34518738,2020-03-05 14:44:48,"London, England",city,"Manhattan, NY",United States
21,-53.0,-11.0,Anah Rodrigues Serpa,34518738,2020-03-15 13:18:14,"London, England",city,"So Flix do Araguaia, Brasil",Brazil
205,0.044913999999999996,51.5160475,Anah Rodrigues Serpa,34518738,2020-03-29 13:16:45,"London, England",city,"East Ham, London",United Kingdom
21,-50.9333,-21.0667,Anah Rodrigues Serpa,34518738,2020-04-30 22:28:05,"London, England",city,"Lavnia, Brasil",Brazil
205,0.044913999999999996,51.5160475,Anah Rodrigues Serpa,34518738,2020-05-12 23:56:11,"London, England",city,"East Ham, London",United Kingdom
65,2.33539467,48.86138133,Anah Rodrigues Serpa,34518738,2020-05-21 21:34:30,"London, England",city,"Paris, France",France
24,-73.9504,45.4033,James Boden,34518741,2020-03-02 19:55:42,"Montreal, QC, Canada",city,"Sainte-Anne-de-Bellevue, Qubec",Canada
88,136.967632,35.175515000000004,,345187428,2020-02-25 08:32:02,,poi, ,
222,107.6622205,-6.9495145,Maria Lovenia,345188278,2020-03-13 05:52:31,,city,"Margacinta, Indonesia",Indonesia
19740,-104.95561200000002,39.589577,Brittany ,345188293,2020-02-21 00:43:49,CO ,city,"Southglenn, CO",United States
120,101.7924565,2.6454169999999997,qyla,345188346,2020-02-23 14:14:36,"Port Dickson, Negeri Sembilan",city,"Jimah, Negeri Sembilan",Malaysia
41700,-98.5406515,29.417501,Katherine Johnson,345188351,2020-03-03 00:46:46,Texas,city,"San Antonio, TX",United States
36420,-97.552161,35.4828435,Tyler Adams,34518839,2020-02-23 00:58:58,norman  ,city,"Oklahoma City, OK",United States
37980,-75.33749350000001,39.920854999999996,Madeleine O'Dowd #ScenicPride #PrideInAllThings,3451884022,2020-02-21 19:53:40,Scenic Hills,city,"Springfield, PA",United States
8,-65.34811769,-24.17378628,Gaby Tijman,34518850,2020-03-26 15:58:26,Jujuy,city,"Dr. Manuel Belgrano, Argentina",Argentina
160,-77.02552850000002,-12.119845,Claudia Flores,345188521,2020-04-22 03:09:13,Per,city,"Miraflores, Peru",Peru
173,37.626141,55.77047099999999, (),345188609,2020-02-15 15:00:24,,poi,    ,
186,-5.923545000000002,37.38319799999999,Delia,3451889897,2020-03-09 11:34:14,Spain,city,"Sevilla, Espaa",Espaa
21,-46.5955455,-23.682803,Srta. Santos ,3451890857,2020-04-24 17:12:12,"So Paulo, Brasil",city,"So Paulo, Brasil",Brasil
119,-99.050461,19.3427885,Luis M,345189678,2020-04-15 15:04:19,,city,"Iztapalapa, Distrito Federal",Mxico
31080,-117.7823605,33.689732,"Pursue Me Like A Dream IAM, ISAW, ISAID, THEEND",34518969,2020-04-25 14:32:43,WORLDWIDE WITH MY GOD. ,city,"Irvine, CA",United States
41860,-122.19790400000001,37.78342,$,345189714,2020-02-29 09:12:06,,poi,East Bay,United States
41940,-121.93168899999999,37.3569,$,345189714,2020-03-09 03:51:32,,poi,Airfield Supply Co,United States
41860,-122.19290900000001,37.7716,$,345189714,2020-03-13 14:24:23,,poi,Shop Rite,United States
33700,-121.02378300000001,37.654513,$,345189714,2020-03-23 04:26:08,,poi,The Peoples Remedy,United States
41940,-121.84118403,37.35610466,$,345189714,2020-04-19 05:37:29,,city,"San Jose, CA",United States
41860,-122.2286855,37.791994,$,345189714,2020-04-19 09:13:15,,city,"Oakland, CA",United States
31080,-118.33176100000001,33.988832,$,345189714,2020-05-04 03:11:47,,poi,The Marathon Clothing,United States
41860,-122.187301,37.759652,$,345189714,2020-05-06 23:08:32,,poi,KFC,United States
65,1.080627,49.4672615,Arnaud Savary,345190313,2020-04-01 07:38:16,Paris,city,"Mont-Saint-Aignan, France",France
41740,-117.1585,32.7155,Casey Chase,345190396,2020-05-10 19:00:16,"Maryland, USA",city,"San Diego, CA",United States
164,-8.736367999999999,37.153203999999995,Lagos/Algarve,3451904655,2020-02-15 16:29:17,"Lagos, Portugal",city,"Lagos, Portugal",Portugal
82,73.03949899999999,21.628907,Manoj Chauhan,345190793,2020-03-25 02:50:01,Ankleshwar,poi,GIDC Ankleshwar,India
88,141.430971,43.042243,@,345190982,2020-05-16 14:44:23, ,city,  ,
29820,-115.223125,36.232915000000006, Richard Mathews ,345191002,2020-06-02 05:57:04,"Las Vegas, NV",city,"Las Vegas, NV",United States
35380,-90.01100799999999,29.982601000000003,gimanakamuweh,345191125,2020-02-17 08:07:58,,city,"New Orleans, LA",United States
222,107.63441350000001,-6.9279340000000005,gimanakamuweh,345191125,2020-02-18 20:42:57,,city,"Batununggal, Indonesia",Indonesia
32580,-98.390508,26.237586,Leanna Lopez,34519124,2020-05-16 19:40:48,"Mission,Tx",poi,H-E-B,United States
82,78.46509449999998,17.3886495,Aditya kashyap,345191259,2020-06-02 16:32:04,Amravati,city,"Hyderabad, India",India
35620,-74.2197175,40.442691,Nicole,345191365,2020-04-29 12:27:53,Jersey,city,"Cliffwood Beach, NJ",United States
35620,-73.986029,40.757285,Steve Flack,345191484,2020-02-14 15:52:09,"Brooklyn, New York",neighborhood,"Times Square, Manhattan",United States
10140,-123.5895145,46.984521,Reilly,345191589,2020-02-22 18:52:03,,city,"Montesano, WA",United States
193,102.8200255,16.483739999999994,#Self_Portrait  ,345191850,2020-04-07 07:50:13,,city,"Sila, Thailand",Thailand
88,138.29269349999998,34.8451625,,345191862,2020-02-15 03:29:12,,city, ,
16980,-87.732013,41.8335845,Patrick Kelly,345192050,2020-02-21 14:55:39,"Chicago, IL",city,"Chicago, IL",United States
47900,-77.0143985,38.898603,Patrick Kelly,345192050,2020-02-26 03:00:09,"Chicago, IL",city,"Washington, DC",United States
16980,-87.732013,41.8335845,Patrick Kelly,345192050,2020-02-29 01:47:36,"Chicago, IL",city,"Chicago, IL",United States
47900,-77.0143985,38.898603,Patrick Kelly,345192050,2020-04-27 00:59:54,"Chicago, IL",city,"Washington, DC",United States
120,110.333028,1.4292295,Adam Levine,345192154,2020-03-07 10:22:55,Zombieland,city,"Kuching, Sarawak",Malaysia
38,-76.5986,3.5194400000000003,Sterling,345192312,2020-05-30 04:26:57,Cali,city,"Yumbo, Colombia",Colombia
31080,-117.874032,33.617638,Jovan Bohorquez,34519232,2020-02-29 01:55:52,,city,"Newport Beach, CA",United States
29820,-115.13337299999999,36.24912449999999,Jovan Bohorquez,34519232,2020-05-09 19:04:25,,city,"North Las Vegas, NV",United States
31080,-117.8874385,33.739992,Jovan Bohorquez,34519232,2020-05-16 01:43:26,,city,"Santa Ana, CA",United States
29820,-115.13337299999999,36.24912449999999,Jovan Bohorquez,34519232,2020-05-24 05:47:34,,city,"North Las Vegas, NV",United States
40140,-117.462698,34.1081605,Jovan Bohorquez,34519232,2020-05-30 03:31:07,,city,"Fontana, CA",United States
29820,-115.13516499999999,36.060964500000004,Jovan Bohorquez,34519232,2020-06-01 16:48:00,,city,"Paradise, NV",United States
31080,-117.874032,33.617638,Jovan Bohorquez,34519232,2020-06-02 19:26:20,,city,"Newport Beach, CA",United States
47900,-77.036485,38.9003349,Kimberly E. Douglas,34519250,2020-06-08 00:55:03,"Washington, DC",city,"Washington, DC",United States
21,-38.5748,-3.7737,Paiva Rodrigues,345193272,2020-04-25 16:16:44,"Fortaleza, Brasil",city,"Fortaleza, Brasil",Brasil
21,-64.52161749999999,-8.984888,Hanier Miranda ,345193341,2020-05-01 11:58:24,"Porto Velho, Brasil",city,"Porto Velho, Brasil",Brasil
21,-46.68448,-22.1121,Tharcinn,345193787,2020-04-26 09:51:48,,city,"Santo Antnio do Jardim, Brasil",Brazil
12580,-76.567902,39.396812,,345194386,2020-05-20 18:18:05,Baltimore/Loch Raven,poi,Monro Auto Service and Tire Centers,United States
17460,-81.76465999999998,41.3878385,,34519463,2020-02-20 15:00:09,"no longer Bronx, NYC! Now#Ohio",city,"Parma Heights, OH",United States
151,3.3180660000000004,6.590611,E N I A Y O,345194670,2020-05-21 12:38:22,"Lagos, Nigeria",city,"Ikeja, Nigeria",Nigeria
32820,-90.007789,34.942181500000004,"., ",345194785,2020-02-14 00:15:24,"Southaven, MS",city,"Southaven, MS",United States
24,-113.99091999999999,51.05655,Angie Ostojic,345195066,2020-02-22 00:32:57,"Calgary, AB Canada",city,"Calgary, Alberta",Canada
39300,-71.4218325,41.817084,Mozart de la Cruz,345195178,2020-04-07 14:19:49,,city,"Providence, RI",United States
175,49.9945455,26.353591499999997,/    MBS,345195235,2020-02-15 17:42:45,  ,city,",   ",  
96,48.0173015,29.2831175,jaseem M.aljaseem,345195372,2020-02-21 22:12:20,Kuwait south surra hatten,city,"Hitteen, Kuwait",Kuwait
205,-3.8862405,52.743554,Ashley Charlwood,345195413,2020-03-21 14:23:04,"Dolgellau, Cymru",city,"Dolgellau, Wales",United Kingdom
88,139.393672,36.043409999999994,,345195461,2020-05-23 11:20:18,,city, ,
27980,-156.6854235,20.930816500000002,RaiderMojo,345195568,2020-02-16 23:26:29,"San Jose, CA",city,"Kaanapali, HI",United States
41940,-121.8737305,37.331159,RaiderMojo,345195568,2020-02-19 03:33:59,"San Jose, CA",city,"San Jose, CA",United States
222,112.79437450000002,-7.341717500000001,arek bedeng,345195925,2020-02-15 04:14:13,"Kota Surabaya, East Java",city,"Gunung Anyar, Indonesia",Indonesia
21,-43.441578,-22.911421500000003,L U N A ,3451972823,2020-03-11 17:34:45,Oswaldo Cruz,city,"Rio de Janeiro, Brasil",Brasil
222,106.767233,-6.313505,Indriawati_indy,345197354,2020-03-06 12:30:16,"Jakarta,Indonesia",poi,JL. Gunung Indah VII,Indonesia
47900,-76.82153913,38.98823075,DJ Eclipse,345197436,2020-02-21 01:41:34,Bronx Native in the #DMV,city,"Glenn Dale, MD",United States
120,113.8110775,3.9464935,Moses,345198241,2020-02-14 00:08:17,"Miri, Sarawak",city,"Miri, Sarawak",Malaysia
120,101.20914499999999,4.3844970000000005,Hilmy,345198320,2020-03-08 05:00:28,"Pinang, Malaysia",poi,Sahom Valley Agro & Eco Resort,Malaysia
12940,-91.229241,30.470428000000002,Jeffery Simms,34519838,2020-02-14 05:25:50,"iPhone: 30.394658,-91.080819",city,"Port Allen, LA",United States
222,112.601336,-7.411073,reza aditya,345198433,2020-05-15 14:14:44,,city,"Krian, Indonesia",Indonesia
8,-58.442643,-34.604315,Innobar,3451984815,2020-02-15 21:43:59,,city,"Ciudad Autnoma de Buenos Aires, Argentina",Argentina
38,-76.3486225,3.5704285,DIEGO FDO BURBANO R,345198963,2020-03-20 11:48:18,Palmira,city,"Palmira, Colombia",Colombia
26420,-95.4464865,29.838495,Sahr.,345199038,2020-02-15 00:36:10,HTX | ,city,"Houston, TX",United States
200,32.47220097,37.89198943,Ali NAL,345199658,2020-04-19 13:43:49,"Konya, Trkiye",city,"Seluklu, Trkiye",Trkiye
120,101.57849499999999,3.1565125,N A D I A,345199771,2020-02-21 04:56:41,"Trengganu, Malaysia",city,"Sungai Buloh, Selangor",Malaysia
222,106.7617815,-6.3928945000000015,Mashiro Rahma,345199832,2020-03-02 09:43:28,Indonesia,city,"Sawangan, Indonesia",Indonesia
26420,-95.4464865,29.838495,HotBoyBmyle$,345200020,2020-02-14 09:07:27,"Houston, TX",city,"Houston, TX",United States
51,-6.2688759,53.3788113,TMJ-DUB Health Jobs,34520018,2020-04-09 07:03:15,"Dublin, Ireland",city,"Dublin City, Ireland",Ireland
21,-53.448769999999996,-24.94746,Rodrigo Vieira,34520019,2020-02-21 02:09:00,Cascavel - Parana - Brasil,city,"Cascavel, Brasil",Brasil
40140,-117.294096,34.134925,Chamberlina,345200337,2020-03-14 05:32:29,"California, USA",city,"San Bernardino, CA",United States
12580,-76.70436799999997,39.3857395,@Raunchy_Raye,34520037,2020-03-27 20:30:34,Up in the Clouds,city,"Pikesville, MD",United States
24,-76.473111,44.320833,Troy Almeida,345200383,2020-02-17 04:43:09,"Kingston, Ontario",city,"Kingston, Ontario",Canada
17140,-84.45372449999998,39.1614505,VikingTrader,34520070,2020-02-14 05:59:31,"Rochester,NY",city,"Norwood, OH",United States
40380,-77.5298295,43.0755745,VikingTrader,34520070,2020-02-15 23:47:56,"Rochester,NY",city,"Pittsford, NY",United States
222,112.744737,-7.261334,Ririe,345200737,2020-02-27 02:57:26,Surabaya,city,"Genteng, Indonesia",Indonesia
38,-74.24367099999999,4.2622835,nestor luis finol,345200863,2020-04-12 00:52:44,Venezuela ,city,"Bogot, D.C., Colombia",Colombia
45820,-95.7404335,39.4647495,Parker Sides,345200962,2020-04-14 21:05:03,Tilted Towers,city,"Holton, KS",United States
12580,-76.66426899999998,39.20952,L I,3452011515,2020-03-15 02:29:26,"Columbia, SC",city,"Linthicum, MD",United States
34820,-78.878866,33.703390500000005,L I,3452011515,2020-03-17 03:41:40,"Columbia, SC",city,"Myrtle Beach, SC",United States
119,-101.1957283,19.7048417,ProFoto Morelia,345201178,2020-02-19 16:20:06,"Morelia, Michoacn. ",city,"Morelia, Michoacn de Ocampo",Mxico
34580,-122.32600000000001,48.4201,Fallon Enochson,34520145,2020-04-18 00:36:08,Bellinghamptons,city,"Mount Vernon, WA",United States
8,-58.9846755,-27.452821500000002,Marisol Cabaa,3452017036,2020-05-25 02:01:53,"Resistencia, Argentina",city,"Resistencia, Argentina",Argentina
40140,-117.458,34.0977,Josh Araujo,345201768,2020-04-05 18:35:44,,city,"Fontana, CA",United States
40900,-121.06951550000001,38.682857500000004,[[[AS]]] Knowingly,345201831,2020-04-10 23:34:38,,city,"El Dorado Hills, CA",United States
91,36.81666667,-1.28333333,Jason Dunford - Samaki Mkuu,34520194,2020-03-02 14:48:58,Nairobi,city,"Nairobi, Kenya",Kenya
200,28.728798,41.1981875,Abdullah Gkcegz,345202192,2020-02-14 11:32:21,istanbul,city,"Arnavutky, Trkiye",Trkiye
44060,-117.234439,47.6625765,Jared Richardson,34520232,2020-02-27 17:25:56,Pacific Time Zone,city,"Spokane Valley, WA",United States
222,110.36558400000001,-7.7987910000000005,Rosadiana,345202516,2020-03-21 04:31:42,,poi,Pasar Beringharjo,Indonesia
82,72.86984062,21.19549944,Ashok.G. maheshwari,345202548,2020-03-24 11:10:30,"Surat, India",city,"Surat, India",India
21,-46.62916667,-23.54166667,Jonathan Meneses,345202873,2020-04-21 01:14:25,,city,"So Paulo, Brasil",Brasil
120,101.4790765,3.1231455,wiryatmaja,345202917,2020-06-08 05:55:40,Malaysia ,city,"Bukit Raja, Selangor",Malaysia
171,120.5884405,16.402279999999998,,345202924,2020-02-14 23:08:16,2600,city,"Baguio City, Cordillera Admin Region",Republic of the Philippines
21,-43.5243665,-22.696528,Sr Potter,34520298,2020-04-22 00:40:20,Rio de Janeiro,city,"Nova Iguau, Brasil",Brasil
120,100.19088885,6.4409057,farrah Putra,345202990,2020-02-16 09:44:53,"kedah, malaysia",city,"Kechor, Perlis",Malaysia
222,110.366643,-7.799243,Sarah Kurniawan,345203159,2020-05-14 09:08:42,INDONESIA,city,"Gondomanan, Indonesia",Indonesia
171,121.033212,14.5464995,Anne ,345203209,2020-02-14 12:06:47,Philippines,city,"Makati City, National Capital Region",Republic of the Philippines
16820,-78.4781,38.0323,Jim Bleakley,34520339,2020-05-14 16:14:18,"Charlottesville, VA USA",city,"Charlottesville, VA",United States
47900,-77.030539,38.908229,The Golden Trashbag,345203433,2020-04-23 04:01:14,"Washington, DC",city,"Washington, DC",United States
26420,-95.4464865,29.838495,Zac ,345203622,2020-02-14 23:30:21,GRAIN VALLEY!!!,city,"Houston, TX",United States
29820,-115.13516499999999,36.060964500000004,Zac ,345203622,2020-02-29 05:07:54,GRAIN VALLEY!!!,city,"Paradise, NV",United States
26420,-95.4464865,29.838495,Zac ,345203622,2020-03-03 02:46:05,GRAIN VALLEY!!!,city,"Houston, TX",United States
42660,-122.1426895,47.750041,Jacob Gai,34520388,2020-03-11 17:10:44,"Seattle, Wa ",city,"Woodinville, WA",United States
41740,-117.51357800000001,33.394399,Boot as Heck,3452039182,2020-06-08 02:29:40,"Illinois, USA",poi,"School Of Infantry, Camp Pendleton",
175,46.685077,24.7219435,Ri.,3452040972,2020-05-04 15:59:07,Riyadh.,city,",   ",  
178,28.248846,-26.265014,#IDidNotAskForit,345204105,2020-04-09 07:40:52,Boksburg,city,"Boksburg, South Africa",South Africa
222,106.774506,-6.185601999999999,Annisa Cahyani Ihza,345204195,2020-05-11 13:19:26,,city,"Kebon Jeruk, Indonesia",Indonesia
222,95.3433065,5.563023,nisful ahyar,345204311,2020-05-01 03:49:09,langsa,city,"Kuta Alam, Indonesia",Indonesia
186,-15.42071,28.114186199999995,Sixto Armas Oficial,345204479,2020-02-14 19:30:36,,city,"Las Palmas de Gran Canaria, Espaa",Espaa
82,72.8425785,18.9995995,Prajakta Pendurkar,345204580,2020-05-04 04:46:28,"Parel, Mumbai",neighborhood,"Parel, Mumbai",India
88,138.95963799999998,35.295320000000004,koichi,345204967,2020-02-15 01:29:06,yokohama,poi,,
21340,-106.48899999999999,31.7658,Angel A. Licerio,345205350,2020-02-15 01:18:11,,city,"El Paso, TX",United States
65,2.678476,49.348303,Moreau,3452060595,2020-04-23 15:41:41,oise ,city,"Chevrires, France",France
12060,-84.43310600000001,33.7671945,Draft Day,345206349,2020-03-22 02:55:48,,city,"Atlanta, GA",United States
50,31.347410999999997,30.078488, ,345206405,2020-06-09 15:18:37,cairo,poi,Tivoli Plaza,Egypt
205,-0.5925995,51.5146945,Jane Holder,3452064514,2020-03-11 20:20:02,,city,"Slough, South East",United Kingdom
88,135.43704987,34.78441292,,345206488,2020-02-21 01:35:28,Nara,city, ,
23420,-119.7824645,36.786042,Doreen,345206665,2020-05-15 21:20:15,California,city,"Fresno, CA",United States
41700,-98.57996926,29.50328754,Noelle,34520698,2020-06-07 21:47:50,Busy,city,"San Antonio, TX",United States
158,174.8562435,-36.595729,Vanessa,345207093,2020-02-16 06:34:41,Australia/New Zealand,city,"Auckland, New Zealand",New Zealand
3,46.079387,40.824112,Yolda Huseynov,345207131,2020-04-24 15:57:09,"Manisa, Trkiye",poi,mkir rab zavodu,Azerbaijan
222,107.6478775,-6.8985575,mode terbang,3452075895,2020-03-30 20:24:55,"Bandung Kidul, Indonesia",city,"Cibeunying Kidul, Indonesia",Indonesia
27260,-81.27303549999998,29.839173499999998,"Austin Fischer, DO",345207646,2020-05-28 18:14:45,,city,"St Augustine Beach, FL",United States
25540,-72.667302,41.605932,Ro,3452078225,2020-03-29 03:12:43,"Cromwell, CT",city,"Cromwell, CT",United States
12580,-76.62143,39.2295,Kendice Stinson,345207903,2020-02-20 02:13:32,Maryland,city,"Brooklyn Park, MD",United States
47900,-77.0367,38.8951,Kendice Stinson,345207903,2020-02-23 00:27:59,Maryland,city,"Washington, DC",United States
12580,-76.70463149999999,39.154153,Kendice Stinson,345207903,2020-03-13 16:41:51,Maryland,city,"Severn, MD",United States
82,75.803472,26.810225,Pravesh Jain,345208126,2020-03-19 16:11:07,"Jaipur, Rajasthan",poi,Goshala Pratap Nagar,India
31080,-118.82,34.141999999999996,Choy_Mei_Ling,34520814,2020-02-23 18:49:08,sunny side of THE ANGELS ,city,"Westlake Village, CA",United States
200,28.599213,41.006809000000004,Mustafa.,345208328,2020-06-08 15:50:28,TRABZON SK,poi,Yunus Meyhane,Trkiye
9,150.931975,-33.848244,Ibrahim Afolabi,3452084652,2020-03-02 01:26:55,"California, USA",city,"Sydney, New South Wales",Australia
37980,-75.5668166,39.66203970000001,TMJ-DE Sales Jobs,34520852,2020-02-14 22:21:37,Delaware,city,"New Castle, DE",United States
41540,-75.3854728,38.690113399999994,TMJ-DE Sales Jobs,34520852,2020-02-26 14:46:07,Delaware,city,"Georgetown, DE",United States
37980,-75.5982599,39.7790012,TMJ-DE Sales Jobs,34520852,2020-02-26 22:58:10,Delaware,city,"Greenville, DE",United States
41540,-75.3854728,38.690113399999994,TMJ-DE Sales Jobs,34520852,2020-03-03 19:02:53,Delaware,city,"Georgetown, DE",United States
37980,-75.5982599,39.7790012,TMJ-DE Sales Jobs,34520852,2020-03-03 21:30:08,Delaware,city,"Greenville, DE",United States
41540,-75.3854728,38.690113399999994,TMJ-DE Sales Jobs,34520852,2020-03-07 22:26:34,Delaware,city,"Georgetown, DE",United States
37980,-75.6789905,39.7329896,TMJ-DE Sales Jobs,34520852,2020-03-08 13:59:58,Delaware,city,"Pike Creek, DE",United States
41540,-75.3854728,38.690113399999994,TMJ-DE Sales Jobs,34520852,2020-03-15 17:26:21,Delaware,city,"Georgetown, DE",United States
37980,-75.59653420000001,39.776003499999995,TMJ-DE Sales Jobs,34520852,2020-03-15 18:54:21,Delaware,city,"Greenville, DE",United States
41540,-75.3854728,38.690113399999994,TMJ-DE Sales Jobs,34520852,2020-03-29 12:02:37,Delaware,city,"Georgetown, DE",United States
37980,-75.5982599,39.7790012,TMJ-DE Sales Jobs,34520852,2020-04-02 12:04:40,Delaware,city,"Greenville, DE",United States
41540,-75.3854728,38.690113399999994,TMJ-DE Sales Jobs,34520852,2020-04-03 12:11:29,Delaware,city,"Georgetown, DE",United States
37980,-75.5668166,39.66203970000001,TMJ-DE Sales Jobs,34520852,2020-04-03 17:24:42,Delaware,city,"New Castle, DE",United States
20100,-75.5243682,39.158167999999996,TMJ-DE Sales Jobs,34520852,2020-04-22 16:22:03,Delaware,city,"Dover, DE",United States
37980,-75.5668166,39.66203970000001,TMJ-DE Sales Jobs,34520852,2020-04-23 15:50:56,Delaware,city,"New Castle, DE",United States
20100,-75.5243682,39.158167999999996,TMJ-DE Sales Jobs,34520852,2020-04-25 17:58:14,Delaware,city,"Dover, DE",United States
37980,-75.5668166,39.66203970000001,TMJ-DE Sales Jobs,34520852,2020-04-28 17:41:07,Delaware,city,"New Castle, DE",United States
41540,-75.3854728,38.690113399999994,TMJ-DE Sales Jobs,34520852,2020-04-29 14:33:06,Delaware,city,"Georgetown, DE",United States
20100,-75.5243682,39.158167999999996,TMJ-DE Sales Jobs,34520852,2020-04-29 21:13:22,Delaware,city,"Dover, DE",United States
37980,-75.5668166,39.66203970000001,TMJ-DE Sales Jobs,34520852,2020-04-30 14:33:30,Delaware,city,"New Castle, DE",United States
20100,-75.54186870000001,39.1134458,TMJ-DE Sales Jobs,34520852,2020-05-01 20:23:39,Delaware,city,"Camden, DE",United States
41540,-75.3854728,38.690113399999994,TMJ-DE Sales Jobs,34520852,2020-05-04 18:24:11,Delaware,city,"Georgetown, DE",United States
20100,-75.5243682,39.158167999999996,TMJ-DE Sales Jobs,34520852,2020-05-05 12:24:18,Delaware,city,"Dover, DE",United States
37980,-75.7080727,39.670937,TMJ-DE Sales Jobs,34520852,2020-05-07 15:41:10,Delaware,city,"Brookside, DE",United States
41540,-75.3854728,38.690113399999994,TMJ-DE Sales Jobs,34520852,2020-05-07 19:41:21,Delaware,city,"Georgetown, DE",United States
20100,-75.5243682,39.158167999999996,TMJ-DE Sales Jobs,34520852,2020-05-08 13:26:23,Delaware,city,"Dover, DE",United States
37980,-75.5955122,39.7769542,TMJ-DE Sales Jobs,34520852,2020-05-09 18:45:32,Delaware,city,"Greenville, DE",United States
20100,-75.5243682,39.158167999999996,TMJ-DE Sales Jobs,34520852,2020-05-14 21:29:12,Delaware,city,"Dover, DE",United States
37980,-75.59653420000001,39.776003499999995,TMJ-DE Sales Jobs,34520852,2020-05-18 12:19:02,Delaware,city,"Greenville, DE",United States
41500,-121.908406,36.620736,Katie Boord,34520856,2020-02-15 23:04:45,,poi,Pacific Grove Recreation Trail,United States
41860,-122.43597849999999,37.7706565,Katie Boord,34520856,2020-02-20 01:22:19,,city,"San Francisco, CA",United States
31080,-118.1567105,33.809171500000005,,345209154,2020-02-24 19:28:47,LongBeachCA,city,"Long Beach, CA",United States
21,-51.1593095,-30.099836,Emellin Tavares,3452092277,2020-03-15 23:14:36,Porto Alegre / RS ,city,"Porto Alegre, Brasil",Brasil
171,120.8511175,14.927052999999999,michelle lopez,34520952,2020-02-27 17:51:21,subic philippines,city,"Pulilan, Central Luzon",Republic of the Philippines
205,-4.160397,53.209401,Luke Connor,3452097675,2020-03-19 10:28:06,Cemaes Bay,poi,Ysbyty Gwynedd,United Kingdom
60,28.243034499999997,60.975467,Viipurin Golf,345209899,2020-02-18 15:43:33,"Lappeenranta, Finland",city,"Lappeenranta, Suomi",Suomi
19100,-96.7459,33.0504,Tea Low Love,3452099962,2020-06-06 05:57:27,"Monroe, Louisiana",city,"Plano, TX",United States
41700,-98.5406515,29.417501,Taz Suttles,3452101033,2020-03-12 02:14:29,,city,"San Antonio, TX",United States
12420,-97.9351915,29.8956065,Taz Suttles,3452101033,2020-04-17 16:59:19,,city,"San Marcos, TX",United States
41700,-98.5406515,29.417501,Taz Suttles,3452101033,2020-04-20 22:51:18,,city,"San Antonio, TX",United States
47900,-77.0143985,38.898603,Annabel Thompson ,3452101815,2020-02-14 17:42:26,"Boston, MA",city,"Washington, DC",United States
12580,-76.75147899999997,39.4027545,Annabel Thompson ,3452101815,2020-02-15 18:17:32,"Boston, MA",city,"Garrison, MD",United States
47900,-76.8537235,38.9615525,Annabel Thompson ,3452101815,2020-02-18 23:08:55,"Boston, MA",city,"Lanham, MD",United States
12580,-76.68914649999998,39.061278,Annabel Thompson ,3452101815,2020-02-18 23:25:52,"Boston, MA",city,"Odenton, MD",United States
47900,-77.0143985,38.898603,Annabel Thompson ,3452101815,2020-02-20 17:58:21,"Boston, MA",city,"Washington, DC",United States
12580,-76.75147899999997,39.4027545,Annabel Thompson ,3452101815,2020-02-23 14:37:25,"Boston, MA",city,"Garrison, MD",United States
47900,-77.0143985,38.898603,Annabel Thompson ,3452101815,2020-02-28 19:27:49,"Boston, MA",city,"Washington, DC",United States
12580,-76.69140250000002,39.240504,Annabel Thompson ,3452101815,2020-02-28 23:36:00,"Boston, MA",city,"Arbutus, MD",United States
47900,-77.017853,39.0083495,Annabel Thompson ,3452101815,2020-03-03 00:01:24,"Boston, MA",city,"Silver Spring, MD",United States
12580,-76.4816155,38.931078,Annabel Thompson ,3452101815,2020-03-20 22:28:00,"Boston, MA",city,"Annapolis Neck, MD",United States
222,112.608575,-7.989708500000001,Hisseem,345210635,2020-05-23 11:07:20,Welcome,city,"Sukun, Indonesia",Indonesia
71,9.1739,48.7823,Silke Walter,345210652,2020-02-27 13:44:23,Stuttgart,city,"Stuttgart, Deutschland",Deutschland
19100,-97.2757585,33.0189255,Jonathan Rigby,3452106612,2020-05-15 22:14:39,,city,"Roanoke, TX",United States
38,-74.24367099999999,4.2622835,Andre,3452106736,2020-02-19 13:08:59,,city,"Bogot, D.C., Colombia",Colombia
82,75.55378250000003,29.9254815,ankurgoswami,345210724,2020-03-05 17:50:55,,city,"Budhlada, India",India
38860,-70.23983249999999,43.720811,Jennifer,34521082,2020-05-06 21:38:02,,city,"Falmouth, ME",United States
205,-3.2030084999999997,55.943195499999995,damiana magris,345211076,2020-02-19 05:40:03,,city,"Edinburgh, Scotland",United Kingdom
222,111.5415655,-7.838177000000001,walidasita,34521126,2020-02-27 01:19:26,"Ponorogo, East Java, Indonesia",city,"Jenangan, Indonesia",Indonesia
193,99.527985,16.478576500000003,D.o.ks_Dragonfly(L1485),345211699,2020-05-14 07:31:42,,city,", ",
186,-3.77305159,40.31921637,Carlos del Estal,345211741,2020-04-23 06:25:30,Madrid,city,"Legans, Espaa",Espaa
19740,-105.11420109999999,39.892517,TMJ-COB PM Jobs,34521184,2020-02-14 16:14:32,"Boulder, CO",city,"Westminster, CO",United States
22660,-105.084423,40.5852602,TMJ-COB PM Jobs,34521184,2020-02-21 22:02:30,"Boulder, CO",city,"Fort Collins, CO",United States
19740,-105.11420109999999,39.892517,TMJ-COB PM Jobs,34521184,2020-02-22 20:36:59,"Boulder, CO",city,"Westminster, CO",United States
22660,-105.084423,40.5852602,TMJ-COB PM Jobs,34521184,2020-02-24 23:06:59,"Boulder, CO",city,"Fort Collins, CO",United States
19740,-104.990251,39.739235799999996,TMJ-COB PM Jobs,34521184,2020-02-25 21:45:42,"Boulder, CO",city,"Denver, CO",United States
22660,-105.084423,40.5852602,TMJ-COB PM Jobs,34521184,2020-03-18 20:20:16,"Boulder, CO",city,"Fort Collins, CO",United States
19740,-105.11420109999999,39.892517,TMJ-COB PM Jobs,34521184,2020-03-19 15:20:51,"Boulder, CO",city,"Westminster, CO",United States
22660,-105.084423,40.5852602,TMJ-COB PM Jobs,34521184,2020-03-28 20:23:50,"Boulder, CO",city,"Fort Collins, CO",United States
19740,-105.11420109999999,39.892517,TMJ-COB PM Jobs,34521184,2020-03-29 15:51:37,"Boulder, CO",city,"Westminster, CO",United States
33,-70.610759,-33.429485,Dr. Gutirrez,345211979,2020-02-24 22:04:55,"Providencia, Chile",city,"Providencia, Chile",Chile
222,107.011756,-6.254410999999998,Opay!,345212021,2020-05-30 12:54:37,SBY - BKS - BDG,city,"Bekasi Timur, Indonesia",Indonesia
120,100.48140584,5.52161687,I,345212828,2020-02-22 02:29:38,Malaysia,city,"Mukim 6, Pulau Pinang",Malaysia
35620,-74.1880345,40.00134,BOBBY DIGITAL,34521303,2020-02-22 23:57:12,"Jersey City, NJ",city,"Toms River, NJ",United States
45940,-74.62279749999998,40.3009395,BOBBY DIGITAL,34521303,2020-04-02 15:28:03,"Jersey City, NJ",city,"Princeton Junction, NJ",United States
35620,-74.1880345,40.00134,BOBBY DIGITAL,34521303,2020-04-02 19:36:24,"Jersey City, NJ",city,"Toms River, NJ",United States
10900,-74.88449349999998,40.8641255,BOBBY DIGITAL,34521303,2020-04-04 13:33:27,"Jersey City, NJ",city,"Vienna, NJ",United States
35620,-74.1880345,40.00134,BOBBY DIGITAL,34521303,2020-04-06 18:47:46,"Jersey City, NJ",city,"Toms River, NJ",United States
34980,-86.791549,36.200008000000004,Chelsea Guerrera,34521304,2020-03-03 09:01:29,"Philadelphia, PA",city,"Nashville, TN",United States
82,75.523967,19.915838,Rajesh Yermalwar,345213323,2020-03-10 05:40:40,Jalna,city,"Aurangabad, India",India
12060,-84.6502,33.3393,Dee Cook,34521333,2020-04-01 16:46:40,"T: 33.460852,-84.673906",city,"Sharpsburg, GA",United States
33100,-80.32799849999999,26.0278895,iaileen,3452133616,2020-02-14 12:31:41,United States,city,"Pembroke Pines, FL",United States
35620,-74.1581305,40.859832,iaileen,3452133616,2020-02-15 16:55:04,United States,city,"Clifton, NJ",United States
33100,-80.32799849999999,26.0278895,iaileen,3452133616,2020-02-17 12:18:23,United States,city,"Pembroke Pines, FL",United States
14460,-71.1421555,42.323239,iaileen,3452133616,2020-03-07 06:21:42,United States,city,"Brookline, MA",United States
33100,-80.32799849999999,26.0278895,iaileen,3452133616,2020-03-10 22:17:29,United States,city,"Pembroke Pines, FL",United States
129,114.17290600000001,22.274603,Jennifer Wang,34521346,2020-03-05 04:45:45,Hong Kong,poi,Wan Chai Post Office ,Hong Kong
82,88.43592,22.57384,DIPAK KUMAR MAHATO,345213895,2020-02-15 13:45:13,Asansol,city,"Bidhan Nagar, India",India
24340,-85.924871,42.9687165,Alpaigie ,3452139255,2020-02-29 22:00:16,United States,city,"Allendale, MI",United States
222,112.767658,-7.445238000000001,Taurusieun.,345214162,2020-02-17 10:17:30,West Neverland,city,"Buduran, Indonesia",Indonesia
21,-34.939349,-8.043603,,3452142196,2020-02-29 16:05:38,"Recife, Brasil",city,"Recife, Brasil",Brasil
193,100.413155,13.692552,PumRilla   ,345214302,2020-05-05 08:36:23,,poi,  2,
24,-79.753237,42.789815000000004,Kelly Reichheld,3452147667,2020-04-08 14:08:37,Hagersville,city,"Haldimand County, Ontario",Canada
35620,-73.9487755,40.655138,Victor,3452149033,2020-03-11 06:28:35,"Brooklyn, NY",city,"Brooklyn, NY",United States
8,-64.1980255,-31.4154565,ZENSOR,3452149647,2020-02-14 13:37:19,,city,"Crdoba, Argentina",Argentina
82,86.557712,23.844553,U d,345214985,2020-02-23 02:47:13,"Dhanbad, India",city,"Dhanbad, India",India
38,-74.24367099999999,4.2622835,Min. de Agricultura,345214995,2020-06-06 00:55:10,Colombia,city,"Bogot, D.C., Colombia",Colombia
35380,-90.070864,29.948479,Team Lameron,345215307,2020-03-14 17:53:57,Live from The Funk - 817,city,"New Orleans, LA",United States
38060,-111.8583985,33.639340000000004,madi smokes,345215465,2020-02-14 01:46:51,"Scottsdale, AZ",city,"Scottsdale, AZ",United States
40900,-121.49074086,38.57005607,FiorBradley,3452155343,2020-02-21 03:18:37,"California, USA",city,"Sacramento, CA",United States
41940,-121.92862451,37.33185953,FiorBradley,3452155343,2020-03-07 00:55:00,"California, USA",city,"San Jose, CA",United States
38060,-111.928142,33.392883999999995,nico ,345215618,2020-02-18 03:51:31,,city,"Tempe, AZ",United States
186,-0.352529,39.422484499999996,Javier Pea Esteller,345215728,2020-02-17 10:06:58,Valencia (Spain),city,"Valencia, Espaa",Espaa
120,101.57849499999999,3.1565125,eddymocha,34521588,2020-06-01 15:43:42,Kuala Lumpur,city,"Sungai Buloh, Selangor",Malaysia
22520,-87.677251,34.79981,TMJ-AL Mgmt. Jobs,34521604,2020-02-14 16:26:18,Alabama,city,"Florence, AL",United States
11500,-85.8316318,33.659825700000006,TMJ-AL Mgmt. Jobs,34521604,2020-02-14 21:57:43,Alabama,city,"Anniston, AL",United States
20020,-85.39048879999999,31.223231300000002,TMJ-AL Mgmt. Jobs,34521604,2020-02-15 22:17:36,Alabama,city,"Dothan, AL",United States
23460,-86.00663859999999,34.014264000000004,TMJ-AL Mgmt. Jobs,34521604,2020-02-16 14:53:01,Alabama,city,"Gadsden, AL",United States
20020,-85.39048879999999,31.223231300000002,TMJ-AL Mgmt. Jobs,34521604,2020-02-16 17:21:22,Alabama,city,"Dothan, AL",United States
33660,-88.0398912,30.6953657,TMJ-AL Mgmt. Jobs,34521604,2020-02-16 19:56:14,Alabama,city,"Mobile, AL",United States
19300,-87.9033261,30.522971899999998,TMJ-AL Mgmt. Jobs,34521604,2020-02-16 22:31:06,Alabama,city,"Fairhope, AL",United States
20020,-85.428081,31.209665,TMJ-AL Mgmt. Jobs,34521604,2020-02-17 15:19:50,Alabama,city,"Dothan, AL",United States
21460,-85.8609849,31.3322088,TMJ-AL Mgmt. Jobs,34521604,2020-02-17 20:43:31,Alabama,city,"Enterprise, AL",United States
20020,-85.428081,31.209665,TMJ-AL Mgmt. Jobs,34521604,2020-02-17 23:33:05,Alabama,city,"Dothan, AL",United States
22520,-87.6305123,34.8278473,TMJ-AL Mgmt. Jobs,34521604,2020-02-18 19:19:08,Alabama,city,"Florence, AL",United States
12220,-85.48078249999999,32.6098566,TMJ-AL Mgmt. Jobs,34521604,2020-02-19 15:22:07,Alabama,city,"Auburn, AL",United States
33660,-88.0398912,30.6953657,TMJ-AL Mgmt. Jobs,34521604,2020-02-19 21:01:18,Alabama,city,"Mobile, AL",United States
22520,-87.677251,34.79981,TMJ-AL Mgmt. Jobs,34521604,2020-02-19 23:59:16,Alabama,city,"Florence, AL",United States
12220,-85.3782795,32.6454116,TMJ-AL Mgmt. Jobs,34521604,2020-02-20 17:24:04,Alabama,city,"Opelika, AL",United States
11500,-85.8349648,33.6142714,TMJ-AL Mgmt. Jobs,34521604,2020-02-20 20:41:53,Alabama,city,"Oxford, AL",United States
33660,-88.0692944,30.805007699999997,TMJ-AL Mgmt. Jobs,34521604,2020-02-20 23:59:44,Alabama,city,"Saraland, AL",United States
11500,-85.8349648,33.6142714,TMJ-AL Mgmt. Jobs,34521604,2020-02-21 22:18:22,Alabama,city,"Oxford, AL",United States
22520,-87.677251,34.79981,TMJ-AL Mgmt. Jobs,34521604,2020-02-22 16:59:07,Alabama,city,"Florence, AL",United States
33660,-88.0398912,30.6953657,TMJ-AL Mgmt. Jobs,34521604,2020-02-22 21:32:54,Alabama,city,"Mobile, AL",United States
11500,-85.8349648,33.6142714,TMJ-AL Mgmt. Jobs,34521604,2020-02-24 20:02:51,Alabama,city,"Oxford, AL",United States
21460,-85.85521609999999,31.315170799999997,TMJ-AL Mgmt. Jobs,34521604,2020-02-25 15:06:30,Alabama,city,"Enterprise, AL",United States
33660,-88.0692944,30.805007699999997,TMJ-AL Mgmt. Jobs,34521604,2020-02-26 16:05:52,Alabama,city,"Saraland, AL",United States
20020,-85.428081,31.209665,TMJ-AL Mgmt. Jobs,34521604,2020-02-26 22:01:53,Alabama,city,"Dothan, AL",United States
22520,-87.677251,34.79981,TMJ-AL Mgmt. Jobs,34521604,2020-02-28 15:57:12,Alabama,city,"Florence, AL",United States
17980,-85.0007653,32.4709761,TMJ-AL Mgmt. Jobs,34521604,2020-02-28 19:54:48,Alabama,city,"Phenix City, AL",United States
21460,-85.85521609999999,31.315170799999997,TMJ-AL Mgmt. Jobs,34521604,2020-03-01 18:55:51,Alabama,city,"Enterprise, AL",United States
20020,-85.428081,31.209665,TMJ-AL Mgmt. Jobs,34521604,2020-03-01 23:52:25,Alabama,city,"Dothan, AL",United States
33660,-88.0398912,30.6953657,TMJ-AL Mgmt. Jobs,34521604,2020-03-02 18:56:06,Alabama,city,"Mobile, AL",United States
12220,-85.3782795,32.6454116,TMJ-AL Mgmt. Jobs,34521604,2020-03-03 18:56:15,Alabama,city,"Opelika, AL",United States
22520,-87.677251,34.79981,TMJ-AL Mgmt. Jobs,34521604,2020-03-04 14:59:07,Alabama,city,"Florence, AL",United States
46220,-87.5691735,33.2098407,TMJ-AL Mgmt. Jobs,34521604,2020-03-04 20:55:05,Alabama,city,"Tuscaloosa, AL",United States
17980,-85.0007653,32.4709761,TMJ-AL Mgmt. Jobs,34521604,2020-03-05 17:37:34,Alabama,city,"Phenix City, AL",United States
20020,-85.39048879999999,31.223231300000002,TMJ-AL Mgmt. Jobs,34521604,2020-03-06 14:20:02,Alabama,city,"Dothan, AL",United States
11500,-85.8316318,33.659825700000006,TMJ-AL Mgmt. Jobs,34521604,2020-03-07 23:33:41,Alabama,city,"Anniston, AL",United States
33660,-88.0692944,30.805007699999997,TMJ-AL Mgmt. Jobs,34521604,2020-03-08 18:36:39,Alabama,city,"Saraland, AL",United States
17980,-85.0007653,32.4709761,TMJ-AL Mgmt. Jobs,34521604,2020-03-09 13:40:18,Alabama,city,"Phenix City, AL",United States
46220,-87.5691735,33.2098407,TMJ-AL Mgmt. Jobs,34521604,2020-03-09 18:36:52,Alabama,city,"Tuscaloosa, AL",United States
20020,-85.428081,31.209665,TMJ-AL Mgmt. Jobs,34521604,2020-03-10 13:20:21,Alabama,city,"Dothan, AL",United States
33660,-88.0398912,30.6953657,TMJ-AL Mgmt. Jobs,34521604,2020-03-10 17:54:12,Alabama,city,"Mobile, AL",United States
12220,-85.48078249999999,32.6098566,TMJ-AL Mgmt. Jobs,34521604,2020-03-10 22:50:47,Alabama,city,"Auburn, AL",United States
19460,-86.9833417,34.605925299999996,TMJ-AL Mgmt. Jobs,34521604,2020-03-11 17:36:02,Alabama,city,"Decatur, AL",United States
20020,-85.428081,31.209665,TMJ-AL Mgmt. Jobs,34521604,2020-03-11 21:50:13,Alabama,city,"Dothan, AL",United States
17980,-85.0007653,32.4709761,TMJ-AL Mgmt. Jobs,34521604,2020-03-12 20:25:42,Alabama,city,"Phenix City, AL",United States
37860,-87.0721918,31.105177899999997,TMJ-AL Mgmt. Jobs,34521604,2020-03-13 17:22:27,Alabama,city,"Brewton, AL",United States
20020,-85.428081,31.209665,TMJ-AL Mgmt. Jobs,34521604,2020-03-13 20:40:10,Alabama,city,"Dothan, AL",United States
19460,-86.9833417,34.605925299999996,TMJ-AL Mgmt. Jobs,34521604,2020-03-14 13:54:30,Alabama,city,"Decatur, AL",United States
20020,-85.39048879999999,31.223231300000002,TMJ-AL Mgmt. Jobs,34521604,2020-03-14 17:01:51,Alabama,city,"Dothan, AL",United States
23460,-86.00663859999999,34.014264000000004,TMJ-AL Mgmt. Jobs,34521604,2020-03-14 20:09:14,Alabama,city,"Gadsden, AL",United States
19460,-86.9833417,34.605925299999996,TMJ-AL Mgmt. Jobs,34521604,2020-03-15 19:38:16,Alabama,city,"Decatur, AL",United States
19300,-87.68359740000001,30.406586800000003,TMJ-AL Mgmt. Jobs,34521604,2020-03-15 22:45:38,Alabama,city,"Foley, AL",United States
11500,-85.8316318,33.659825700000006,TMJ-AL Mgmt. Jobs,34521604,2020-03-16 19:07:19,Alabama,city,"Anniston, AL",United States
20020,-85.428081,31.209665,TMJ-AL Mgmt. Jobs,34521604,2020-03-17 15:39:25,Alabama,city,"Dothan, AL",United States
19460,-86.9833417,34.605925299999996,TMJ-AL Mgmt. Jobs,34521604,2020-03-17 22:38:14,Alabama,city,"Decatur, AL",United States
17980,-85.0007653,32.4709761,TMJ-AL Mgmt. Jobs,34521604,2020-03-19 14:43:57,Alabama,city,"Phenix City, AL",United States
12220,-85.3782795,32.6454116,TMJ-AL Mgmt. Jobs,34521604,2020-03-20 16:50:04,Alabama,city,"Opelika, AL",United States
19300,-87.68359740000001,30.406586800000003,TMJ-AL Mgmt. Jobs,34521604,2020-03-21 18:48:46,Alabama,city,"Foley, AL",United States
33660,-88.1246853,30.687256199999997,TMJ-AL Mgmt. Jobs,34521604,2020-03-26 13:28:16,Alabama,city,"Mobile, AL",United States
22520,-87.6675292,34.7448112,TMJ-AL Mgmt. Jobs,34521604,2020-04-09 18:39:21,Alabama,city,"Muscle Shoals, AL",United States
20020,-85.44896109999999,31.2666107,TMJ-AL Mgmt. Jobs,34521604,2020-04-12 21:53:48,Alabama,city,"Dothan, AL",United States
33660,-88.0398912,30.6953657,TMJ-AL Mgmt. Jobs,34521604,2020-04-13 20:29:42,Alabama,city,"Mobile, AL",United States
200,29.0052225,41.0213205,Fulya Tasdemir,345216754,2020-04-22 08:22:00,worldwide,city,"stanbul, Trkiye",Turkey
120,101.54147636,3.1520534,daddy,345216875,2020-04-14 07:21:48,"Semenyih, Selangor",city,"Sungai Buloh, Selangor",Malaysia
35380,-90.309235,29.9650825, ,345216983,2020-02-14 00:11:31,New('-')Orleans,city,"St Rose, LA",United States
222,106.83129950000001,-6.332802,Ranis Shara,345217255,2020-02-21 18:44:55,"Jagakarsa, Indonesia",city,"Jagakarsa, Indonesia",Indonesia
120,110.333028,1.4292295,  ,345217269,2020-03-07 08:02:31,,city,"Kuching, Sarawak",Malaysia
119,-103.19289,20.2893,Gerardo Olascoaga,345217378,2020-02-27 17:03:59,,city,"Chapala, Jalisco",Mxico
31080,-118.267191,34.043085,Monica Tran,3452178374,2020-02-24 17:17:27,,poi,STAPLES Center,United States
16980,-87.88340500000001,42.5892655,ays,345218656,2020-04-04 02:33:49,,city,"Kenosha, WI",United States
36420,-97.948281,35.0329435,MrAnderson,345218711,2020-02-14 18:16:30,"Chickasha, Oklahoma",city,"Chickasha, OK",United States
21,-43.18436345,-22.91890384,Emerson (*_*),3452188821,2020-06-10 03:32:36,,city,"Rio de Janeiro, Brasil",Brasil
222,110.653379,-7.051172,Mangga Muda,345218989,2020-04-05 08:06:29,"Kamar Tengah, Rumah Orang Tua",poi,SMA Negeri 1 Gubug,Indonesia
205,-2.8196235,51.390948,Gillian Cook,345219133,2020-04-12 21:01:27,Bristol,city,"Yatton, England",United Kingdom
47900,-77.1766795,38.77667649999999,Westside_Pogi,345219143,2020-03-29 16:36:11,DMV,city,"Springfield, VA",United States
205,-1.4707785,52.91553,karl,345219238,2020-03-25 07:46:34,derby ,city,"Derby, England",United Kingdom
205,-0.092633,51.358931,Tony Conaghan,3452193497,2020-03-24 22:12:28,,city,"Croydon, London",United Kingdom
58,14.3534715,49.9261205,Blahos,345219383,2020-02-14 17:41:31,"Venory, esk republika",city,"Jlovit, esk republika",esk republika
88,138.5155475,35.0824005,,345219676,2020-02-20 09:20:53,,city, ,
19100,-96.7349005,33.06124250000001,Laurie,34521979,2020-03-11 17:13:30,"Texas, USA",city,"Plano, TX",United States
19100,-97.2859135,32.7799665,Range,345219802,2020-02-17 20:46:49,"Fort Worth, TX",city,"Fort Worth, TX",United States
12060,-84.28646850000001,33.8028105,slatslatslat,345219936,2020-04-11 22:50:50,"Nawf Dallas, Tx",city,"North Decatur, GA",United States
38,-75.46390199999998,6.378641999999998,Daniel Castrilln Arroyave,3452199737,2020-03-14 17:51:09,"Copacabana, Antioquia ",city,"Girardota, Colombia",Colombia
82,78.42871600000001,17.501157,NAGARJUNA KODAPARTHY,345219993,2020-06-08 11:16:31,KUKATPALLY,poi,jagadgiri gutta,
21780,-87.5746905,38.003466499999995,Bobby Schoen,34522017,2020-02-14 05:32:37,"Evansville,IN - Winter Park,FL",city,"Evansville, IN",United States
19100,-96.961483,32.863917,Bobby Schoen,34522017,2020-02-19 15:34:57,"Evansville,IN - Winter Park,FL",city,"Irving, TX",United States
31080,-118.4119065,34.0207895,Bobby Schoen,34522017,2020-02-20 03:12:50,"Evansville,IN - Winter Park,FL",city,"Los Angeles, CA",United States
29820,-115.13516499999999,36.060964500000004,Bobby Schoen,34522017,2020-02-21 03:29:45,"Evansville,IN - Winter Park,FL",city,"Paradise, NV",United States
21780,-87.5746905,38.003466499999995,Bobby Schoen,34522017,2020-02-23 06:47:17,"Evansville,IN - Winter Park,FL",city,"Evansville, IN",United States
19100,-96.8917385,33.079014,Bobby Schoen,34522017,2020-02-28 06:03:31,"Evansville,IN - Winter Park,FL",city,"The Colony, TX",United States
21780,-87.5746905,38.003466499999995,Bobby Schoen,34522017,2020-02-29 04:53:44,"Evansville,IN - Winter Park,FL",city,"Evansville, IN",United States
41180,-90.5812485,38.651687,Bobby Schoen,34522017,2020-03-03 02:59:55,"Evansville,IN - Winter Park,FL",city,"Chesterfield, MO",United States
21780,-87.5746905,38.003466499999995,Bobby Schoen,34522017,2020-03-04 13:46:47,"Evansville,IN - Winter Park,FL",city,"Evansville, IN",United States
82,75.74752099999999,26.909683,abhay sole,345220294,2020-02-27 16:26:44,,city,"Jaipur, India",India
14460,-71.0887125,42.3136695,Nikhil Nair,34522059,2020-03-25 12:28:47,"Massachusetts, USA",city,"Boston, MA",United States
33,-70.6667,-33.45,Cartermixhaiti,345220591,2020-02-19 01:03:08,"Santiago, Metropolitana de Santiago",city,"Santiago, Chile",Chile
14500,-105.20916799999999,40.015254999999996,Army vet for Tulsi,34522067,2020-02-20 18:25:59,Arvada CO,poi,Avalon Ballroom,United States
19100,-96.4268065,32.920541,ASTROTEXANFAN,34522076,2020-03-04 15:32:51,"Livingston, TX",city,"Rockwall, TX",United States
51,-6.2603097000000005,53.34980529999999,TMJ-DUB Educ. Jobs,34522111,2020-02-15 07:59:21,"Dublin, Ireland",city,"Dublin City, Ireland",Ireland
171,121.143952,15.631478,JP Briones,345221134,2020-04-17 11:59:09,"Mandaue City, Central Visayas",poi,Bongabon Public Market,Republic of the Philippines
31080,-118.4119065,34.0207895,The Glass Camera,3452214672,2020-03-13 22:53:23,NY/LA,city,"Los Angeles, CA",United States
36740,-81.47278547,28.47303912,Disney Magic Hour Podcast,3452214742,2020-02-22 21:43:14,"Orlando, FL",city,"Orlando, FL",United States
29820,-115.17263419999999,36.1240211,Disney Magic Hour Podcast,3452214742,2020-03-13 00:26:52,"Orlando, FL",city,"Paradise, NV",United States
200,29.0052225,41.0213205,Ece Deniz Doan,3452215455,2020-03-20 18:08:08,,city,"stanbul, Trkiye",Trkiye
175,50.181088,26.290946, ,345222199,2020-02-29 15:39:47,"Al Khobar, Eastern",poi,Al-Rashid Mall |  ,Kingdom of Saudi Arabia
38,-74.44159549999999,10.4133205,Mara Jos,3452221997,2020-03-18 18:40:56,Pivijay - Santa Marta,city,"Pivijay, Colombia",Colombia
205,-0.216108,51.498387,Gregori Saavedra,345222302,2020-03-24 23:06:32,London,city,"Hammersmith, London",Reino Unido
33,-70.5783,-33.5981,Sue Paris,34522239,2020-02-21 10:49:19,Chile,city,"Puente Alto, Chile",Chile
39900,-119.928306,39.226611,Lil A,345222497,2020-05-03 06:26:23,California | Michoacan ,poi,Monkey Rock,United States
46020,-120.19368700000001,39.3407695,Lil A,345222497,2020-05-26 03:25:11,California | Michoacan ,city,"Truckee, CA",United States
19500,-88.9366835,39.854585,debra k taylor,3452227575,2020-04-09 20:37:05,"Decatur, IL",city,"Decatur, IL",United States
9,150.931975,-33.848244,Adam George,34522286,2020-02-27 22:18:20,"Bondi, Sydney",city,"Sydney, New South Wales",Australia
41940,-122.1633,37.4441,Derric Heck,345223468,2020-04-29 23:53:34,"Pittsburgh, PA",city,"Palo Alto, CA",United States
45220,-84.28684656,30.42409054,Derric Heck,345223468,2020-05-10 16:08:15,"Pittsburgh, PA",city,"Tallahassee, FL",United States
38,-74.24367099999999,4.2622835,Jos Luis Espinosa,3452235556,2020-02-16 13:40:15,"Bogot, D.C., Colombia",city,"Bogot, D.C., Colombia",Colombia
38,-74.24367099999999,4.2622835,Marvin Alvarado,345223598,2020-02-19 23:47:51,,city,"Bogot, D.C., Colombia",Colombia
16740,-80.8467855,35.209059,9:28 ,34522372,2020-02-14 21:37:01,On a higher level,city,"Charlotte, NC",United States
9,138.89157026,-34.82123241,Erin Phillips,34522386,2020-03-09 21:34:10, ,city,"Gumeracha, South Australia",Australia
119,-99.050461,19.3427885,Edwin Sanchez,345224064,2020-05-18 06:57:05,"Utah, USA",city,"Iztapalapa, Distrito Federal",Mexico
178,18.4890615,-34.1216575,Ray,345224308,2020-03-07 18:23:09,"Pretoria, South Africa",city,"Cape Town, South Africa",South Africa
8,-58.442643,-34.604315,Gise,3452246123,2020-04-01 23:12:27,,city,"Ciudad Autnoma de Buenos Aires, Argentina",Argentina
35380,-90.098019,29.983412,n i c o l e ,345224671,2020-03-08 19:18:58,"New Orleans, LA",poi,Ralph's On The Park,United States
25060,-89.40428349999998,30.3214695,n i c o l e ,345224671,2020-03-14 04:22:00,"New Orleans, LA",city,"Shoreline Park, MS",United States
35380,-90.2211425,29.956764500000002,n i c o l e ,345224671,2020-03-16 14:24:48,"New Orleans, LA",city,"River Ridge, LA",United States
82,80.204751,13.129442,sowri,34522486,2020-02-14 11:02:58,"Chennai, India",city,"Saidapet, India",India
151,8.340073,4.976338,Archibong,345225246,2020-04-04 08:35:14,"Calabar, Nigeria",city,"Calabar, Nigeria",Nigeria
39580,-78.657837,35.8439815,BGNTV,3452253081,2020-02-27 14:34:11,,city,"Raleigh, NC",United States
152,5.57081,51.602414,Pieter van Dijk,345225377,2020-02-29 18:13:29,Mariaheide,city,"Veghel, Nederland",The Netherlands
186,-5.923545000000002,37.38319799999999,Daniel,3452257036,2020-06-09 22:23:17,,city,"Sevilla, Espaa",Espaa
26420,-95.4464865,29.838495,Bri.,345225812,2020-05-06 00:56:38,"Houston, TX",city,"Houston, TX",United States
222,106.809173,-6.2445845,ilhamp,345225917,2020-02-18 14:48:48,Jakarta,city,"Kebayoran Baru, Indonesia",Indonesia
9,115.670474,-33.32714900000001,Paul Walker,345226092,2020-04-27 13:47:24,Bunbury West Australia,city,"Bunbury, Western Australia",Australia
154,83.963509,28.206903000000004,Aagraha Aryal,345226255,2020-05-24 10:53:20,Nepal,poi,Crown Himalayas,Nepal
222,106.779643,-6.2219940000000005,,345226636,2020-05-02 12:10:52,Indonesia,poi,Kebayoran Lama Jakarta Selatan,Indonesia
82,78.66286149999998,29.7942435,Seclude,345226845,2020-05-26 13:14:20,India,city,"Lansdowne, India",India
175,50.20176100000001,26.307814,Nasser,3452271374,2020-03-17 17:38:21,,city,",   ",  
175,46.685077,24.7219435, .,3452271494,2020-02-14 08:12:54,,city,",   ",  
21,-46.334399,-23.464825,ale,3452274803,2020-02-14 01:41:17,,city,"Itaquaquecetuba, Brasil",Brasil
31080,-117.956581,34.557707,Sonia G. 68,3452278273,2020-02-16 17:44:45,"California, USA",city,"Sun Village, CA",United States
193,101.719001,17.5078535,..,345228036,2020-03-10 10:15:19,",*``*.Thailand.*``*, ",city,", ",
35380,-90.01100799999999,29.982601000000003,Sir Charles Kapone,345228461,2020-02-14 00:03:40,Wakandan Embassy,city,"New Orleans, LA",United States
200,36.89597368,37.58466699,bir tek sen,345228545,2020-05-08 21:58:58,istanbul/turkey,city,"Kahramanmara, Trkiye",Trkiye
82,80.189886,12.874014500000001,Isaac Albert,3452287037,2020-06-07 04:48:58,"Chennai, India",neighborhood,"Ottiambakkam, Sholinganallur",India
21,-44.080921999999994,-22.524347,zadora,34522892,2020-02-29 00:32:37,Rio de Janeiro,city,"Volta Redonda, Brasil",Brazil
88,135.714828,34.993868,3/29 Jais,345229210,2020-03-12 04:26:50,,poi,,
19100,-96.7617535,32.819858499999995,Brent Hawthorne,34522939,2020-05-28 19:52:31,Texas,city,"Dallas, TX",United States
200,32.510724,37.870034,TORKU KONYASPOR,345229457,2020-02-20 17:43:02,TORKU KONYASPOR,city,"Konya, Trkiye",Trkiye
37100,-119.16538899999999,34.181956,MrBLNGR,34522982,2020-03-19 04:25:26,"V.C.,CALI - U.S.A.",city,"Oxnard, CA",United States
186,2.1412275000000003,41.392657,Juliana Trajano,34522996,2020-05-10 13:56:51,Spain,city,"Barcelona, Spain",Spain
205,0.317777,51.4864855,Lorne,345230004,2020-05-24 12:34:31,Thurrock,city,"Grays, East",United Kingdom
200,38.3631535,38.329569000000006,Ayenur zberk,345230399,2020-02-20 12:07:25,Malatya-Adyaman,city,"Malatya, Trkiye",Trkiye
186,-3.7035075,40.4777945,ppmartin,345230593,2020-02-19 10:16:13,"Madrid, Comunidad de Madrid",city,"Madrid, Espaa",Espaa
200,32.8183815,39.8889765,Dou Perinek,345231050,2020-02-22 17:38:41,stanbul,city,"Ankara, Trkiye",Trkiye
171,123.55365424,10.18820971,Switzel,345231352,2020-03-02 10:38:12,,city,"Aloguinsan, Central Visayas",Republic of the Philippines
16740,-80.8467855,35.209059,Scott Jr.,345231354,2020-02-16 13:04:43,Charlotte,city,"Charlotte, NC",United States
43900,-81.94029800000001,34.9499645,Scott Jr.,345231354,2020-05-24 11:35:43,Charlotte,city,"Spartanburg, SC",United States
16740,-80.8467855,35.209059,Scott Jr.,345231354,2020-05-24 12:33:13,Charlotte,city,"Charlotte, NC",United States
19100,-96.7617535,32.819858499999995,QuEeN_beeeeeeee,345231395,2020-04-10 03:23:54,"Dallas, TX",city,"Dallas, TX",United States
14460,-71.0849,42.7781,Gabriel Gomez,34523143,2020-04-22 01:04:41,"Haverhill, MA",city,"Haverhill, MA",United States
178,30.898112,-29.99468,Simo Mbhele,345231466,2020-05-19 06:19:29,ZA,city,"Malagazi, South Africa",South Africa
47900,-77.073729,39.147091499999995,Gretchen Weiners,34523179,2020-02-14 04:07:32,,city,"Olney, MD",United States
12580,-76.70463149999999,39.154153,Gretchen Weiners,34523179,2020-02-27 19:19:44,,city,"Severn, MD",United States
47900,-77.073729,39.147091499999995,Gretchen Weiners,34523179,2020-02-29 00:06:16,,city,"Olney, MD",United States
119,-87.0715,20.636,Alexxx,345231917,2020-02-28 22:06:33,,city,"Solidaridad, Quintana Roo",Mxico
38060,-112.1246765,33.5528625,Nerd,34523192,2020-03-07 01:46:04,"Central - Phoenix, AZ",city,"Phoenix, AZ",United States
38060,-112.1246765,33.5528625,David Caltabiano,3452320457,2020-02-14 01:51:21,"Phoenix, AZ",city,"Phoenix, AZ",United States
31080,-118.44671699999999,34.326212,Rolo ,3452320754,2020-03-30 03:39:55,"Sylmar, Los Angeles",poi,Olive View-UCLA Medical Center Lab,United States
175,46.62022,24.771789000000002,Maha,3452322914,2020-02-23 12:32:50,,poi,FOCUS,  
120,101.51888215,3.04104579,AKU JALEL,345232341,2020-02-14 00:24:07,,city,"Damansara, Selangor",Malaysia
14500,-105.22923999999999,40.01822,Dannielle Stewart,3452324052,2020-02-16 16:10:26,"Denver, CO",city,"Boulder, CO",United States
19740,-104.9220935,39.713563,Dannielle Stewart,3452324052,2020-05-05 22:13:34,"Denver, CO",city,"Denver, CO",United States
16980,-87.732013,41.8335845,Zaen,345232504,2020-04-19 07:45:38,"Nantong, Jiangsu, China",city,"Chicago, IL",United States
151,3.505413,6.6258965,BeeBee,345232639,2020-02-17 07:44:57,Lagos Nigeria,city,"Ikorudu, Nigeria",Nigeria
119,-99.16419,19.435205,JustDust,345232644,2020-03-29 07:14:24,Mxico,poi,La Guaperia,Mxico
82,76.350955,9.947274,Indigeneous,345232932,2020-02-14 14:45:58, India,city,"Kanayannur, India",India
35620,-74.288077,40.216589,Max Serraty,34523312,2020-02-16 02:26:59,"Freehold, NJ",city,"West Freehold, NJ",United States
34060,-79.9438375,39.6293145,h f ,3452335819,2020-04-13 20:44:32,"Shinnston, WV",city,"Morgantown, WV",United States
16980,-87.8452485,42.125755,Brad Garlick,34523363,2020-03-17 19:54:13,"Chicago, IL",city,"Northbrook, IL",United States
205,-2.4925080000000004,51.46582,Dunner_J,345233814,2020-02-16 14:29:19,North of the river,city,"Kingswood, England",United Kingdom
69,-0.1842935,5.6231985,Akosua AdomakoAmpofo,3452339836,2020-02-14 14:04:45,"Accra, Ghana",city,"Accra, Ghana",Ghana
19820,-83.376154,42.223741499999996,Akosua AdomakoAmpofo,3452339836,2020-03-07 20:28:35,"Accra, Ghana",city,"Romulus, MI",United States
152,4.684829,52.3004295,Akosua AdomakoAmpofo,3452339836,2020-03-08 09:29:19,"Accra, Ghana",city,"Haarlemmermeer, Nederland",The Netherlands
69,-0.1842935,5.6231985,Akosua AdomakoAmpofo,3452339836,2020-03-09 14:52:20,"Accra, Ghana",city,"Accra, Ghana",Ghana
24,-73.723025,45.5578305,Musaab 3,345234321,2020-02-15 04:43:19,Dubai Toronto Madrid,city,"Montral, Qubec",Canada
51,-6.579388000000001,52.4597335,peter mcconville,345234537,2020-05-29 05:57:28,,city,"Wexford, Ireland",Ireland
33100,-80.13296249999998,25.8169655,Poppy Chewlo,345234634,2020-02-14 01:28:47,"Miami Beach, FL",city,"Miami Beach, FL",United States
58,14.4215,50.0876,pritpalsandhu,345234671,2020-04-29 22:36:59,Jalandhar,city,"Prague, Czech Republic",Czech Republic
200,28.728798,41.1981875,Twitiba,345235329,2020-02-15 18:57:53,"Arnavutky, Trkiye",city,"Arnavutky, Trkiye",Trkiye
35620,-74.0064,40.7142,Atma,34523546,2020-03-22 21:38:33,New York City,city,"Manhattan, NY",United States
193,100.9255265,14.569278500000001,Teuku Gabriel,345235488,2020-02-29 06:04:16,Banda Aceh,city,"Phueng Ruang, Thailand",Thailand
222,95.3433065,5.563023,Teuku Gabriel,345235488,2020-03-01 19:59:39,Banda Aceh,city,"Kuta Alam, Indonesia",Indonesia
21340,-106.44557639,31.93538307,Adriana Saldivar,34523559,2020-05-08 19:15:40,"El Paso, TX",city,"El Paso, TX",United States
14460,-71.112377,42.3781975,---,345235625,2020-04-16 10:52:19,"Cambridge, Massachusetts",city,"Cambridge, MA",United States
21340,-106.4174305,31.793368,Bel Air HS,3452356696,2020-02-17 22:46:08,"El Paso, TX",city,"El Paso, TX",United States
-9999,-103.6626495,30.3653245,Bel Air HS,3452356696,2020-02-29 22:10:42,"El Paso, TX",city,"Alpine, TX",United States
21340,-106.4174305,31.793368,Bel Air HS,3452356696,2020-03-01 14:38:35,"El Paso, TX",city,"El Paso, TX",United States
193,99.0446599,18.8487,|,345236265,2020-03-04 09:01:45,,city,", ",
200,32.897239,40.036113,eref Ramazanoglu,345236473,2020-05-12 08:22:42,"Pursaklar, Ankara",city,"Pursaklar, Trkiye",Trkiye
119,-103.39478000000001,20.665388,Funk Arturo Becerra ,3452365034,2020-04-27 17:00:59,"Guadalajara, Jalisco",poi,Puente Matute Remus,Mxico
222,106.93233500000001,-6.2391475,B. Herlambang,345236908,2020-02-15 07:47:46,"Jakarta, Indonesia",city,"Duren Sawit, Indonesia",Indonesia
88,134.0481,34.342,,345237117,2020-02-21 01:23:08,,city, ,
119,-116.929102,32.332876500000005,Veronica Corona,3452371275,2020-02-14 14:22:38,"Tijuana, Baja California",city,"Tijuana, Baja California",Mxico
31080,-118.4119065,34.0207895,Rocky,345237343,2020-02-17 22:09:19,"Los Angeles, CA~ born&raised!",city,"Los Angeles, CA",United States
47900,-77.0908695,38.81738,Nicole Croce,3452375355,2020-02-29 04:35:16,"Arlington, VA",city,"Alexandria, VA",United States
38300,-80.092364,40.388596,Anthony,34523762,2020-04-21 20:44:56,"Pittsburgh, PA",city,"Scott Township, PA",United States
222,110.3451535,-7.736615,  G.O.T.YK ,345237685,2020-04-21 14:29:35,,city,"Mlati, Indonesia",Indonesia
10900,-75.36719649999999,40.6252755,Andy Hoke,345237736,2020-03-29 03:40:20,"Lehigh Valley, PA",city,"Bethlehem, PA",United States
47900,-77.406873,39.376702,Holly Scott,3452385561,2020-03-31 20:12:49,,poi,Cracker Barrel Old Country Store,United States
32420,-67.11021099999999,18.2083945,migue,3452387297,2020-02-26 04:51:32,PR,city,"Mayagez, Puerto Rico",United States
41980,-66.15956700000001,18.379657,migue,3452387297,2020-02-29 20:34:00,PR,city,"Bayamn, USA",United States
32420,-67.11021099999999,18.2083945,migue,3452387297,2020-03-06 06:46:24,PR,city,"Mayagez, Puerto Rico",United States
41980,-65.89921149999999,18.156406,migue,3452387297,2020-03-07 03:10:46,PR,city,"Montones, USA",United States
32420,-67.11021099999999,18.2083945,migue,3452387297,2020-03-11 20:14:45,PR,city,"Mayagez, Puerto Rico",United States
41980,-66.0748105,18.3662625,migue,3452387297,2020-03-14 03:21:57,PR,city,"Monacillo, USA",United States
35620,-73.08589,40.81151,Matt Tucci,345238764,2020-02-15 19:29:11,"Long Island, NY",city,"Holbrook, NY",United States
167,51.586964,25.188005,Azzam Al Mannai,345239033,2020-05-23 16:45:07,"Doha, Qatar",poi, ,Qatar
31080,-118.3385045,34.1163915,i give up,34523925,2020-05-31 05:49:37,"Asucia, CA",neighborhood,"Hollywood, Los Angeles",United States
31080,-118.112858,33.783021999999995,Sharman Bonus,34523931,2020-02-17 01:49:53,Marin County,city,"Long Beach, CA",United States
41860,-122.26281378,37.87008739,Sharman Bonus,34523931,2020-02-26 03:57:09,Marin County,city,"Berkeley, CA",United States
38,-72.6371685,7.478225999999999,yonier diaz mercado,3452394795,2020-03-01 22:44:57,pamplona,city,"Pamplonita, Colombia",Colombia
40900,-121.42546100000001,38.597437,martin,345239554,2020-02-15 04:02:51,Oak Park,poi,Olive Garden,United States
171,120.97644288,14.26402306,Greg,34523971,2020-02-17 04:37:30,,city,"Silang, Calabarzon",Republic of the Philippines
88,140.00974009,35.66958609,Greg,34523971,2020-03-12 11:40:35,,city,"Narashino-shi, Chiba",Japan
171,120.73881999999999,14.272070000000001,Greg,34523971,2020-05-12 06:37:06,,city,"Maragondon, Calabarzon",Republic of the Philippines
38060,-112.379447,33.6466545,Mr.Billyru,345240108,2020-03-10 20:47:08,,city,"Surprise, AZ",United States
200,29.0052225,41.0213205,feray dedeolu,345240204,2020-02-14 05:47:45,"stanbul, Trkiye",city,"stanbul, Trkiye",Trkiye
175,39.100131,21.70884,,3452403432,2020-02-20 22:41:55,,city,"Jeddah, Kingdom of Saudi Arabia",Kingdom of Saudi Arabia
119,-97.547392,25.558993,Nadia Soto Lpez,345240377,2020-05-01 22:03:49,"Matamoros, Tamaulipas",city,"Matamoros, Tamaulipas",Mxico
222,106.89868999999999,-6.5444474999999995,Rangga,345240386,2020-02-14 07:54:16,,city,"Citeureup, Indonesia",Indonesia
222,121.354179,-3.817814,Agus Cen Cen,3452409014,2020-02-14 16:21:29,"Bangkalan, Jawa Timur",city,"Wolo, Indonesia",Indonesia
82,85.10203849999998,25.569474,Nilesh Ojha,345242051,2020-04-05 17:28:20,,city,"Patna, India",India
24,-113.807764,52.279302,Tom Mckinlay,34524240,2020-02-28 19:38:19,Lacombe,city,"Red Deer, Alberta",Canada
41100,-113.5777655,37.0855815,Connie Johansen,3452424675,2020-03-23 19:24:35,,city,"St George, UT",United States
222,107.563674,-6.931936,Rifka Aulia Fauziyah,345242525,2020-05-03 13:34:17,,city,"Bandung Kulon, Indonesia",Indonesia
9,151.21690929,-33.86391679999999,azira mazlan,345242547,2020-03-11 12:48:19,kuala lumpur,city,"Sydney, New South Wales",Australia
113,-8.0,31.6333,azira mazlan,345242547,2020-03-12 15:14:20,kuala lumpur,city,"Gueliz, Royaume du Maroc",Morocco
186,-3.68333,40.4,azira mazlan,345242547,2020-04-16 06:44:16,kuala lumpur,city,"Madrid, Spain",Spain
120,101.64267599,3.10354979,azira mazlan,345242547,2020-06-04 09:38:08,kuala lumpur,city,"Sungai Buloh, Selangor",Malaysia
222,98.617655,3.5473800000000004,Riahna Munthe,345242612,2020-02-25 13:02:13,"Medan, Sumut",city,"Medan Tuntungan, Indonesia",Indonesia
175,46.685077,24.7219435,rayan .,3452430193,2020-03-14 22:16:49,",   ",city,",   ",  
205,-0.174258,51.158704,Bruce W.,34524322,2020-03-13 10:48:02,OhioSoCal ,poi,London Gatwick Airport (LGW),United Kingdom
31080,-118.4119065,34.0207895,Bruce W.,34524322,2020-03-14 02:26:59,OhioSoCal ,city,"Los Angeles, CA",United States
41740,-117.10498899999999,32.810012,Bruce W.,34524322,2020-03-14 23:39:59,OhioSoCal ,city,"San Diego, CA",United States
17460,-81.7255035,41.024359999999994,Bruce W.,34524322,2020-05-31 20:05:44,OhioSoCal ,city,"Wadsworth, OH",United States
41740,-117.10498899999999,32.810012,Bruce W.,34524322,2020-06-05 00:56:10,OhioSoCal ,city,"San Diego, CA",United States
119,-103.4847745,20.790657000000003,Carlos,3452432541,2020-04-08 23:54:05,Monterrey Nuevo Len ,city,"Zapopan, Jalisco",Mxico
186,-3.612453,37.181529,Gonzalo Snchez,345243324,2020-03-12 19:22:52,Montilla,poi,Mercadona,Espaa
200,27.006511,38.4079305,mahmut aan,345243515,2020-05-28 12:45:38,izmir,city,"zmir, Trkiye",Trkiye
47900,-77.07961900000002,39.090427000000005,Elvis Montenegro-Leon,34524360,2020-02-14 12:16:17,"Washington, DC",city,"Aspen Hill, MD",United States
36740,-81.41281128,28.59179457,Eric Khadaroo,345243644,2020-02-15 22:05:03,"Apopka, FL",city,"Orlando, FL",United States
45300,-82.62973000000001,27.77825,Eric Khadaroo,345243644,2020-03-08 03:17:26,"Apopka, FL",city,"St Petersburg, FL",United States
37340,-80.72667813,28.24291276,Eric Khadaroo,345243644,2020-03-14 00:45:16,"Apopka, FL",city,"Viera West, FL",United States
36740,-81.5106,28.6761,Eric Khadaroo,345243644,2020-03-20 00:50:54,"Apopka, FL",city,"Apopka, FL",United States
96,47.713665999999996,29.318407500000003,  ,3452436672,2020-04-24 13:33:32,"Kuwait| VA,OK,AL",city,"Saad Al Abdullah, Kuwait",Kuwait
8,-64.1980255,-31.4154565,Madelaine,345243958,2020-02-14 02:24:04,Argentina,city,"Crdoba, Argentina",Argentina
24,-106.641,52.1242,Adam Slusar,345244128,2020-05-30 00:40:42,Canada,city,"Saskatoon, Saskatchewan",Canada
40140,-117.257221,33.615763,"Gonzalez, tambin",34524437,2020-02-15 02:45:45,Southern California,city,"Wildomar, CA",United States
31080,-117.99873249999999,33.692541999999996,"Gonzalez, tambin",34524437,2020-05-01 20:18:56,Southern California,city,"Huntington Beach, CA",United States
40140,-117.257221,33.615763,"Gonzalez, tambin",34524437,2020-05-02 22:07:35,Southern California,city,"Wildomar, CA",United States
88,135.6180375,34.668202,,3452444595,2020-06-07 23:08:47,,city, ,
24,-79.6748465,44.371263,Digging Roots,34524462,2020-02-14 20:23:41,"Toronto, Barrie, Ottawa, ON",city,"Barrie, Ontario",Canada
205,-3.22582,54.111019999999996,Daniel Mulcaster,345244628,2020-02-25 20:07:03,"Lancaster, England",city,"Barrow-in-Furness, England",United Kingdom
178,18.4890615,-34.1216575,Wayne Hector,345245043,2020-03-04 18:34:20,Cape Town,city,"Cape Town, South Africa",South Africa
24,-114.04379899999999,51.109245,Matt Campbell,3452453292,2020-02-16 19:18:23,Canada,poi,The Rec Room,Canada
205,-0.3506925,51.461742,Simon,345245486,2020-04-12 22:47:01,,city,"Hounslow, London",United Kingdom
222,106.35987549999999,-6.260848999999999,eliza andreas,345245736,2020-02-14 02:22:37,"Depok, Jawa Barat",city,"Kopo, Indonesia",Indonesia
21,-54.5925397,-25.531513699999998,J.U.N.I.N.H.O,345245914,2020-04-21 20:47:51,"Foz do Iguau, Brasil",city,"Foz do Iguau, Brasil",Brasil
16980,-87.78902049999998,41.6650525,Josh Cuta,345245964,2020-03-04 05:36:29,"Chicago, IL",city,"Palos Heights, IL",United States
12420,-97.719378,30.387902,Violet Crown Soccer Network,3452460556,2020-05-23 23:53:46,"Austin, TX",poi,Austin FC Stadium,United States
169,26.094070000000002,44.44216,QUILLE,34524609,2020-02-14 20:39:51,BAY AREA,city,"Bucharest, Romania",Romania
206,30.511871000000003,50.465346999999994,  ,345246092,2020-02-17 19:05:05,Ukraine,poi,,
135,6.1358045,49.607906,Ruy Pinto,345246365,2020-03-01 12:13:01,Luxembourg,city,Luxembourg,Luxembourg
35620,-74.00076130000001,40.7207559,Anthony Caldwell,34524645,2020-04-12 12:00:27,,city,"Manhattan, NY",United States
222,120.821244,1.043517,Nur Faizuddin Ahmad,345246732,2020-05-22 00:03:58,"Malang, Indonesia",poi,KPPN Toli-toli,Indonesia
42200,-120.4232365,34.87540300000001,Joshua Nuhn,34524687,2020-02-16 03:47:59,"Orcutt, CA",city,"Orcutt, CA",United States
205,-0.4788415,53.306862,ray jones,345247014,2020-02-25 00:34:38,,city,"Welton, England",United Kingdom
222,106.88373999999999,-6.187069999999999,Prinanda Deaqila,345247437,2020-03-23 13:22:59,Sungai Tarab,city,"Pulo Gadung, Indonesia",Indonesia
85,12.872485000000001,41.4726865,Alexandro,345247504,2020-02-22 13:55:29,in the world....,city,"Latina, Lazio",Italy
178,28.184066499999997,-25.752605499999998,bessie mchunu,345248056,2020-04-30 03:54:28,South Africa,city,"Pretoria, South Africa",South Africa
85,12.7687395,41.9613235,Eli__,345248065,2020-03-01 10:50:58,"Roma, Lazio",city,"Tivoli, Lazio",Italia
17860,-92.32816899999999,38.945192999999996,Todd Houts,34524807,2020-02-18 01:05:28,,poi,Jesse Auditorium,United States
41180,-90.232407,38.639205,Todd Houts,34524807,2020-02-22 19:56:52,,poi,The Fabulous Fox,United States
8,-58.7718025,-34.501594,Rodrigo Vega Vidal,3452481976,2020-04-05 16:44:56,"Buenos Aires, Argentina",city,"Jos Carlos Paz, Argentina",Argentina
186,-2.53118,41.48592,Alvro,345248444,2020-03-22 20:11:50,Almazn | MADRID,city,"Almazn, Espaa",Espaa
186,-5.7407535,43.235036,Alejandro Fernndez,345248581,2020-04-08 09:56:32,Asturias,city,"Mieres, Espaa",Espaa
205,-3.004456,53.4698505,Brian,345248637,2020-03-30 12:47:18,Liverpool UK ,city,"Seaforth, England",United Kingdom
88,137.0953205,36.7200375,nao,3452487074,2020-05-03 02:42:19, ,city, ,
24,-79.3872,43.648,TOFF (ON-AIR/PD KX-947FM) TORONTO/HAMILTON,345248950,2020-02-16 18:32:33,"Hamilton, Ontario",city,"Toronto, Ontario",Canada
16740,-81.2428,35.4742,TOFF (ON-AIR/PD KX-947FM) TORONTO/HAMILTON,345248950,2020-03-21 13:59:52,"Hamilton, Ontario",city,"Lincolnton, NC",United States
24,-79.8761,43.26,TOFF (ON-AIR/PD KX-947FM) TORONTO/HAMILTON,345248950,2020-03-22 12:11:12,"Hamilton, Ontario",city,"Hamilton, Ontario",Canada
35380,-90.06070033,29.95915223,Ashley Reed,3452495363,2020-02-17 18:15:55,"Delaware, USA",city,"New Orleans, LA",United States
193,100.201904,15.1727625, 4,345250049,2020-02-16 02:14:59,"Ang Thong, Thailand",city,"Taluk, Thailand",Thailand
200,38.8010215,37.146854499999996,Mustafa hakk adrc,345250103,2020-04-23 08:23:35,Trkiye,city,"anlurfa, Trkiye",Trkiye
21,-46.5955455,-23.682803,vectxrs,3452502161,2020-06-06 19:49:00,,city,"So Paulo, Brasil",Brasil
119,-99.208364,19.199485,lorena lopez ,3452502734,2020-06-10 04:05:01,Ciudad De Mexico,city,"Tlalpan, Distrito Federal",Mxico
175,46.685077,24.7219435,D7mi20,345250549,2020-02-21 09:48:12,Kingdom of Saudi Arabia,city,"Riyadh, Kingdom of Saudi Arabia",Kingdom of Saudi Arabia
21,-43.119101,-22.616096,,3452505927,2020-06-04 15:11:36,"Rio de Janeiro, Brasil",city,"Mag, Brasil",Brasil
21,-43.446886000000006,-22.8025775,Leny ,3452506817,2020-03-03 00:51:28,"Chatuba, Mesquita",city,"Mesquita, Brasil",Brasil
41940,-121.98734950000001,37.239861499999996,"Shrisha. Stay , save lives",3452511,2020-04-18 21:54:03,"Bay Area, CA",city,"Monte Sereno, CA",United States
19100,-96.989489,33.2986585,ashleigh ,3452512632,2020-02-15 22:40:21,,city,"Aubrey, TX",United States
26420,-95.4464865,29.838495,ashleigh ,3452512632,2020-03-01 04:22:30,,city,"Houston, TX",United States
19100,-96.7086275,32.644815,ashleigh ,3452512632,2020-03-04 02:37:37,,city,"Hutchins, TX",United States
39580,-78.657837,35.8439815,Hannah McQueen,3452516423,2020-02-29 12:52:16,"North Carolina, USA",city,"Raleigh, NC",United States
161,73.03794500000002,33.603096,HiraBleeh,345252012,2020-03-04 21:50:49,Insta/Snap; @hirableeh,city,"Rawalpindi, Pakistan",Pakistan
119,-99.2115105,19.4299345,Melody petite,345252316,2020-03-09 21:24:00,"Monterrey, Nuevo Len",city,"Miguel Hidalgo, Distrito Federal",Mxico
13140,-93.95591850000001,29.9015445,Trey Broussard,345252460,2020-02-26 13:16:52,with my woes,city,"Port Arthur, TX",United States
26420,-94.836926,29.814575,Trey Broussard,345252460,2020-03-10 19:58:13,with my woes,city,"Cove, TX",United States
13140,-93.95591850000001,29.9015445,Trey Broussard,345252460,2020-03-26 11:38:51,with my woes,city,"Port Arthur, TX",United States
37100,-118.9188865,34.188478,Sophie Luoto,3452526256,2020-03-18 02:07:49,"Los Angeles, CA",city,"Thousand Oaks, CA",United States
50,30.001112,31.271769,I S L A M,345252659,2020-03-05 21:37:35,Egypt,poi,alexandria,Egypt
151,7.422322500000001,10.511245,OMO TEACHER,345252734,2020-02-24 05:43:56,"Anywhere, Everywhere",city,"Kaduna, Nigeria",Nigeria
152,6.1493275,51.3926685,"bye, ",345252983,2020-03-23 03:12:58,"Venlo, Nederland",city,"Venlo, Nederland",The Netherlands
88,141.261321,39.746962,,3452530096,2020-02-15 13:59:18,,city, ,
205,-1.172266,52.969719, H,3452531592,2020-02-15 01:08:40,  ,city,"Nottingham, England",United Kingdom
38,-74.68939900000002,4.830152999999998,Libardo Aldana,3452533215,2020-04-06 18:13:23,,city,"San Juan de Ro Seco, Colombia",Colombia
31080,-118.243,34.0522,,34525350,2020-02-18 05:18:38,SoCal,city,"Los Angeles, CA",United States
171,120.612449,15.480779,Lester Rific,345253811,2020-05-28 11:01:25,Manila | London,city,"Tarlac City, Central Luzon",Republic of the Philippines
193,100.579139,13.868589000000002,Tow  ,345253928,2020-03-08 05:10:40,,poi, (The Mirror Foundation),Thailand
205,-2.0877745,51.8963135,Charmian Sheppard,345254098,2020-02-15 13:34:48,"Cheltenham, England",city,"Cheltenham, England",United Kingdom
27620,-92.1778075,38.5526005,Kurt Lootens,34525491,2020-03-27 00:31:03,Jefferson City,city,"Jefferson City, MO",United States
119,-99.1614805,19.380613,Gabriel P. Crisanto,3452551,2020-03-13 03:20:16,Mxico,city,"Benito Jurez, Distrito Federal",Mxico
71,13.4246065,52.506701,Roger Kluge,345255350,2020-03-01 09:28:56,"Eisenhttenstadt, Deutschland",city,"Berlin, Deutschland",Deutschland
65,2.73333,48.0167,Roger Kluge,345255350,2020-03-11 10:19:33,"Eisenhttenstadt, Deutschland",city,"Chlette-sur-Loing, France",Frankreich
21,-43.441578,-22.911421500000003,Vanessa A. B. Silva,3452559081,2020-02-16 03:20:32,,city,"Rio de Janeiro, Brasil",Brasil
171,123.76279,8.3174185,Miss Marjorieee,3452560121,2020-02-22 01:35:09,"Iligan City, Northern Mindanao",city,"Jimenez, Northern Mindanao",Republic of the Philippines
41700,-98.5406515,29.417501,Rose,34525628,2020-03-05 00:32:07,,city,"San Antonio, TX",United States
9,145.0531355,-37.9725665,Steven,3452564414,2020-03-04 00:42:59,"Melbourne, Victoria",city,"Melbourne, Victoria",Australia
31080,-117.824049,33.810159000000006,Beeworkhome,345256559,2020-05-09 00:26:04,"Orange, CA",city,"Orange, CA",United States
242,121.561476,25.085756,Jhe,345256584,2020-04-10 17:04:39,Taipei ,city,"Taipei City, Taiwan",Taiwan
31080,-118.4119065,34.0207895,Ari ,3452566512,2020-02-14 07:43:47,"Los Angeles, CA",city,"Los Angeles, CA",United States
151,7.0312755000000005,4.82463,KOREDE JOHN LATEEF,345257111,2020-03-31 11:37:42,PortHarcourt,city,"Port Harcourt, Nigeria",Nigeria
186,-3.7035075,40.4777945,Democracia Nacional.,345257174,2020-02-26 08:34:44,Espaa,city,"Madrid, Espaa",Espaa
200,37.342217,37.063392,blent akll,345257621,2020-04-23 10:41:15,,poi,Gaziantep Binicilik Kulb,Trkiye
120,101.4790765,3.1231455,afnandos,345257815,2020-04-09 09:36:22,,city,"Bukit Raja, Selangor",Malaysia
205,-2.153001,53.60938,Not important,345257848,2020-04-12 14:02:10,Points of interest Various,city,"Rochdale, England",United Kingdom
28140,-94.5592815,39.1000485,Coding & Cocktails,3452579475,2020-03-13 23:21:30,"Kansas City, MO",city,"Kansas City, MO",United States
35620,-73.9685415,40.780709,RealEstateCEO,34525797,2020-06-09 03:39:08,| NY - RVA | ,city,"Manhattan, NY",United States
88,136.8917325,35.199618,,3452580554,2020-03-01 01:02:43,,city,  ,
24,-116.162148,51.442274,Courtney Hellen,345258582,2020-03-03 21:35:07,"Portland, OR",poi,Banff National Park,Canada
205,-0.5925995,51.5146945,Oliver Hurrey,345259259,2020-03-04 17:38:12,"Maidenhead, South East",city,"Slough, South East",United Kingdom
21,-43.441578,-22.911421500000003,,3452593637,2020-02-14 17:17:17,"Rio de Janeiro, Brasil",city,"Rio de Janeiro, Brasil",Brasil
51,-8.761319,52.51841450000001,lynseY minihan,345259487,2020-04-10 19:42:51,"Limerick, Ireland",city,"Limerick, Ireland",Ireland
41860,-122.43458899999999,37.696783,Mike Mihelich,34526028,2020-02-19 17:11:09,San Francisco,poi,San Bruno Mountain State Park,United States
19100,-97.1356375,32.70185,Zane Gober,34526049,2020-06-09 13:11:24,"Arlington, TX",city,"Arlington, TX",United States
88,136.949815,36.8686255,,345260850,2020-02-24 05:15:57,,city, ,
38060,-111.928142,33.392883999999995,Jenn,345260892,2020-03-09 03:11:00,Australia,city,"Tempe, AZ",United States
205,-2.955045,56.476952000000004,Sandrine B.,345261294,2020-03-03 18:43:11,"cosse, Royaume-Uni",city,"Dundee, Scotland",Royaume-Uni
119,-101.601401,21.09806,F. Corazn EsmeraLDA,3452616012,2020-02-21 19:58:49,"Len, Guanajuato",city,"Len, Guanajuato",Mxico
57,14.42101,48.2199,P. Thomas Ggele LC,345261672,2020-03-16 12:22:16,"Asten, sterreich",city,"Asten, sterreich",sterreich
35620,-73.98165350000001,40.75308218,Marvin Myers,345262037,2020-02-21 00:34:30,NYC,city,"Manhattan, NY",United States
14860,-73.539006,41.056746999999994,Marvin Myers,345262037,2020-02-28 06:31:20,NYC,city,"Stamford, CT",United States
19660,-81.0379,29.2073,Marvin Myers,345262037,2020-03-07 14:03:27,NYC,city,"Daytona Beach, FL",United States
35620,-73.997755,40.731082,Marvin Myers,345262037,2020-03-25 18:40:34,NYC,city,"Manhattan, NY",United States
14860,-73.539006,41.056746999999994,Marvin Myers,345262037,2020-03-26 00:44:57,NYC,city,"Stamford, CT",United States
35620,-74.013421,40.705576,Marvin Myers,345262037,2020-03-26 19:39:38,NYC,city,"Manhattan, NY",United States
41700,-98.3399275,29.555818,Michael V Hernandez,34526257,2020-04-22 01:40:28,"San Antonio,Texas",city,"Live Oak, TX",United States
82,87.366365,23.533305,abhishek singh,3452629639,2020-06-05 17:02:19,"Patna, India",city,"Durgapur, India",India
12940,-91.12465300000001,30.5448675,Richard Oliver Jr,3452631433,2020-04-14 09:49:52,"Baton Rouge, LA",city,"Brownfields, LA",United States
17140,-84.53981250000002,39.137038,Eric Van Hoose,34526327,2020-03-23 13:41:27,Cincinnati,city,"Cincinnati, OH",United States
205,-3.1798,51.4970015,Anna Palamar,345263623,2020-03-01 08:25:46,,city,"Cardiff, Wales",United Kingdom
88,138.24969565,36.39704328,,345263839,2020-02-14 09:20:51,,city, ,
31080,-117.85803,33.68704,Daniel Figueroa,345263891,2020-03-11 15:01:35,,city,"Irvine, CA",United States
24,-79.12588650000002,43.2955405,Darlene Cane,3452639428,2020-02-21 18:38:24,,city,"Niagara-on-the-Lake, Ontario",Canada
29820,-115.14958,36.15513,MJ,34526406,2020-05-06 05:38:29,SinCity/PearloftheOrient/World,city,"Las Vegas, NV",United States
175,39.144007,21.582152,.,345264212,2020-02-17 15:18:45,disneyland ,poi,Chill Lounge,Kingdom of Saudi Arabia
31080,-118.323601,33.92985,Meat$weats,34526422,2020-03-25 21:17:25,"Compton, CA",poi,DaVita Imperial Dialysis,United States
9,151.20797,-33.867509999999996,Dewacorp,34526426,2020-04-17 05:37:17,"Sydney, Australia",city,"Sydney, New South Wales",Australia
186,0.97595,41.16768,JESUS LEGAZ,345264269,2020-04-19 07:02:23,RIUDECOLS,city,"Riudecols, Espaa",Espaa
88,139.744876,35.71770150000001,0%,345264630,2020-03-29 07:56:33,,city, ,
42660,-122.07821750000001,47.93114,  ,345264658,2020-05-28 02:50:23,  ,city,"Snohomish, WA",United States
152,5.7012089999999995,52.8448135,Hilda Boesjes-Beljon,345264720,2020-04-09 03:38:57,Lemmer,city,"Lemsterland, Nederland",Nederland
41860,-122.43597849999999,37.7706565,Liliana Valenzuela S.,345264940,2020-02-17 00:50:47,Ciudad Obregon. Sonora.,city,"San Francisco, CA",Estados Unidos
119,-109.84178999999999,27.7136525,Liliana Valenzuela S.,345264940,2020-02-20 03:15:36,Ciudad Obregon. Sonora.,city,"Cajeme, Sonora",Mxico
33460,-92.984138,45.271457,Danielle Haller,3452652798,2020-03-08 16:59:59,,poi,Metro by T-Mobile,United States
31080,-118.4119065,34.0207895,Andre Harris,345265406,2020-03-18 06:00:47,,city,"Los Angeles, CA",United States
41740,-117.048652,32.712331,somethin slight,345265433,2020-02-28 00:29:18,United States,poi,Taqueria Imperial,United States
40900,-121.469664,38.561721999999996,Amy da Silva,3452654473,2020-03-13 03:01:44,"Sacramento, CA",city,"Sacramento, CA",United States
193,100.4926795,13.73671,Orn_One Kiss(TahiFans),345265462,2020-05-02 09:59:03,,city,", ",
88,135.491479,34.727231,@,345265486,2020-03-01 05:56:09,,poi, ,Japan
33460,-93.25761800000001,44.973557,Aj Mansour,34526562,2020-02-16 05:06:00,"Minneapolis, MN",poi,U.S. Bank Stadium,United States
9,127.6726105,-18.2252585,MjDelaney,3452656512,2020-04-03 09:10:29,,city,"Halls Creek, Western Australia",Australia
