currentGEOID,lon,lat,name,author_Id,created_at,location,place_type,place_full_name,place_country
151,3.3180660000000004,6.590611,IAmNnamdi,750488105145204736,2020-04-30 22:36:37,Dreamville,city,"Ikeja, Nigeria",Nigeria
36740,-81.30795,28.584533,.,750488271210196992,2020-03-06 02:54:57,The Abyss ,poi,The Abyss of Liquidity & Shadows,United States
222,106.834612,-6.168794999999999,Caca - ,750488366,2020-02-18 07:34:00,"iKON's #1 SONG, SONG YUNHYEONG",poi,Kantor Bea dan Cukai,Indonesia
21,-44.0023865,-22.9809335,Ray ,750488382833303556,2020-04-20 00:25:19,,city,"Mangaratiba, Brasil",Brasil
175,39.2541285,21.5857105,Razan,750488877845082112,2020-02-16 11:17:22,  ,city,",   ",  
33460,-93.04499100000001,44.9638255,WOKE Terrance Nelson,75048915,2020-03-30 07:30:38,"Doomtree, MN",city,"Maplewood, MN",United States
90,35.882214000000005,32.552251,MARAH,750489150047023106,2020-02-21 13:19:36,"Irbid, Hashemite Kingdom of Jo",poi,    ,Hashemite Kingdom of Jordan
82,80.27,13.09,VickY,75048924,2020-05-23 19:55:57,"kalavai,vellore,india",city,"Perambur Purasavakam, India",India
171,125.7988175,7.423638,Rol,750489282968625152,2020-02-17 15:10:25,agum City,city,"City of Tagum, Davao Region",Republic of the Philippines
26420,-95.057125,29.6658065,Elonsmusk,750489762,2020-02-16 01:31:08,"Deer Park, TX",city,"La Porte, TX",United States
82,72.89456999999999,19.114279999999997,Jayant Kashyap,75049011,2020-04-13 09:47:57,Mumbai ,neighborhood,"Chandivali, Mumbai",India
26420,-95.562444,29.623471999999996,Olan ,750490452449570816,2020-03-13 18:31:14,"Rosenberg, TX",city,"Stafford, TX",United States
30700,-96.6965625,40.803235,Fleet Feet Lincoln,750491232,2020-02-16 22:37:47,"Lincoln, NE",city,"Lincoln, NE",United States
12060,-84.31644299999998,34.1346125,Case McGruder,750491386508484610,2020-02-14 00:47:33,"Milton, GA",city,"Milton, GA",United States
42340,-81.1096165,32.017284499999995,Case McGruder,750491386508484610,2020-02-15 04:17:23,"Milton, GA",city,"Savannah, GA",United States
12060,-84.31644299999998,34.1346125,Case McGruder,750491386508484610,2020-02-24 21:51:43,"Milton, GA",city,"Milton, GA",United States
211,-66.9146,10.505999999999998,Costa Cacao Lin,750491448127152128,2020-02-25 00:18:10,"Venezuela. Chuao, Aragua.",city,"Caracas, Venezuela",Venezuela
-9999,-106.900489,34.064122999999995,bella,750491465676193792,2020-03-04 20:02:37,,city,"Socorro, NM",United States
22140,-108.039755,36.799775,bella,750491465676193792,2020-03-21 16:38:12,,city,"Aztec, NM",United States
10740,-106.632718,35.117002500000005,bella,750491465676193792,2020-03-28 02:05:00,,city,"Albuquerque, NM",United States
-9999,-106.900489,34.064122999999995,bella,750491465676193792,2020-03-29 10:07:16,,city,"Socorro, NM",United States
10740,-106.632718,35.117002500000005,bella,750491465676193792,2020-05-08 18:32:41,,city,"Albuquerque, NM",United States
-9999,-106.900489,34.064122999999995,bella,750491465676193792,2020-05-13 19:09:17,,city,"Socorro, NM",United States
22140,-108.039755,36.799775,bella,750491465676193792,2020-05-18 18:45:34,,city,"Aztec, NM",United States
10740,-106.662024,35.296183,bella,750491465676193792,2020-05-18 21:17:17,,city,"Rio Rancho, NM",United States
-9999,-106.900489,34.064122999999995,bella,750491465676193792,2020-05-19 04:22:49,,city,"Socorro, NM",United States
22140,-108.039755,36.799775,bella,750491465676193792,2020-05-27 01:39:10,,city,"Aztec, NM",United States
10740,-106.632718,35.117002500000005,bella,750491465676193792,2020-06-02 04:53:58,,city,"Albuquerque, NM",United States
-9999,-106.900489,34.064122999999995,bella,750491465676193792,2020-06-03 02:43:55,,city,"Socorro, NM",United States
10740,-106.632718,35.117002500000005,bella,750491465676193792,2020-06-06 00:28:59,,city,"Albuquerque, NM",United States
22140,-108.193367,36.75742,bella,750491465676193792,2020-06-08 23:10:10,,city,"Farmington, NM",United States
96,47.659915000000005,29.313867, ,750491817880219648,2020-02-15 06:45:35,"  ,  ",city," ,  ", 
211,-63.247119,10.6658885,Henry Montao,75049211,2020-04-29 01:55:28,"Carpano, Venezuela",city,"Carpano, Venezuela",Venezuela
120,101.61229849,3.20110194,Jack_lcj,750492115,2020-02-15 08:08:20,malaysia,city,"Sungai Buloh, Selangor",Malaysia
55,-89.1366275,13.700207500000001,Pastor Estuardo Avalos Oficial,750492188153262080,2020-03-22 04:53:42,"San Salvador, El Salvador",city,"Tonacatepeque, El Salvador",El Salvador
242,120.727695,24.14925,Eason,7504922,2020-03-16 23:40:22,Taiwan,poi,,
40140,-117.72176100000001,33.9725155,Umalayyeee,750492522607022080,2020-05-08 08:10:09,,city,"Chino Hills, CA",United States
175,39.91891691,21.35775366,.,750492667893735424,2020-02-15 20:58:07,Kingdom of Saudi Arabia,city,"Makkah Al Mukarrama, Kingdom of Saudi Arabia",Kingdom of Saudi Arabia
175,45.2969455,25.240059, ,750492902,2020-03-08 18:42:05,Riyadh,city,",   ",  
12060,-84.05501799999998,34.093436,Tom,750493090654326784,2020-02-15 21:49:21,"Georgia, USA",city,"Sugar Hill, GA",United States
12420,-97.754724,30.3233455,Nandini ,750493309638811648,2020-03-02 08:27:45,Milky Way Galaxy ,city,"Austin, TX",United States
26420,-95.3268995,29.5478845,Nandini ,750493309638811648,2020-04-02 17:09:54,Milky Way Galaxy ,city,"Pearland, TX",United States
47540,-84.13748199999999,40.658051,Ohio Beer Drinkers,750493316,2020-05-16 18:58:29,Ohio,poi,ohio beer drinkers association,United States
17820,-104.789327,38.888518499999996,D'Anna Houseman,750494267936612353,2020-02-26 21:24:08,,city,"Colorado Springs, CO",United States
10380,-66.705096,18.266402,DonMaktub,750494292,2020-02-15 11:46:42,Puerto Rico,poi,Anita's Caf,United States
41980,-66.052263,18.404252,DonMaktub,750494292,2020-02-18 13:07:45,Puerto Rico,poi,Pa'l Caf,United States
10380,-66.721245,18.254557000000002,DonMaktub,750494292,2020-02-22 11:51:58,Puerto Rico,poi,UPR Utuado,United States
41980,-66.28473699999999,18.4317395,DonMaktub,750494292,2020-02-22 18:14:22,Puerto Rico,city,"Dorado, Puerto Rico",United States
10380,-66.721245,18.254557000000002,DonMaktub,750494292,2020-02-29 13:25:52,Puerto Rico,poi,UPR Utuado,United States
41980,-66.027776,18.396092000000003,DonMaktub,750494292,2020-03-01 22:53:30,Puerto Rico,poi,Mrs Potts Bake Shop & Bistro,United States
10380,-66.721245,18.254557000000002,DonMaktub,750494292,2020-03-07 12:06:21,Puerto Rico,poi,UPR Utuado,United States
41980,-66.248333,18.388333,DonMaktub,750494292,2020-03-21 19:41:52,Puerto Rico,city,"Toa Alta, Puerto Rico",United States
96,47.713665999999996,29.318407500000003, ,750494429237108736,2020-04-06 22:23:12,",  ",city," ,  ", 
17460,-81.76067990000001,41.39087,Rottiemom,750494700,2020-03-03 02:34:31,,city,"Parma Heights, OH",United States
21,-46.9083665,-23.201095499999997,Paulista perdido no sul,750494790215692288,2020-02-14 03:04:45,"Centro, Jundia",city,"Jundia, Brasil",Brasil
17820,-104.829064,39.041954,AR2 ,750495005282738176,2020-02-21 15:50:21,"Colorado, USA",city,"Gleneagle, CO",United States
39340,-111.5790825,39.3555895,AR2 ,750495005282738176,2020-03-06 23:58:32,"Colorado, USA",city,"Ephraim, UT",United States
17820,-104.789327,38.888518499999996,AR2 ,750495005282738176,2020-03-20 05:01:46,"Colorado, USA",city,"Colorado Springs, CO",United States
88,140.88503799999998,38.223688,@PNP,750495081946161152,2020-02-24 07:24:16,,poi,PIT,
65,2.572303,49.006053,,750495081946161152,2020-03-15 15:21:35,,poi,Aroport Paris-Charles de Gaulle (CDG),France
46140,-95.913642,36.1093915,SuperVillain Obituary Presents,750495193221050368,2020-02-19 13:41:13,"Tulsa, OK",city,"Tulsa, OK",United States
8,-58.5893055,-34.772368,Ramiro Calles Garcia,750495305204981764,2020-03-18 18:13:05,"San Justo, Argentina",city,"Gonzlez Catn, Argentina",Argentina
31080,-117.619409,33.420071,Ash,750495572,2020-05-20 02:24:50,ca,poi,San Clemente Beach,United States
205,-0.1923765,51.8071275,Sleett,750496381,2020-02-20 15:10:17,Welwyn Garden City / Krakw,city,"Welwyn Garden City, East",United Kingdom
38,-73.26982199999999,10.096047,SS,750496394050502660,2020-02-14 22:39:45,"Cesar, Colombia",city,"La Paz, Colombia",Colombia
31080,-118.4119065,34.0207895,World Cleansing Unit,750496500438802432,2020-02-27 15:45:11,"Los Angeles, CA",city,"Los Angeles, CA",United States
96,48.110123,29.195028000000004,Abrar . Aljeri,750496797794177025,2020-02-14 17:21:30,,poi,Delizio, 
47900,-78.195233,38.906363,PPE,750496840764784640,2020-04-04 22:06:13,,poi,Skyline Drive,United States
21,-49.261299,-16.642782500000003,Monica Lima,750497003143098368,2020-03-03 15:46:44,"Goinia, Brasil",city,"Goinia, Brasil",Brasil
96,47.9394826,29.3032859,,750497147674656768,2020-02-14 14:27:36,,city,"Al Rai, Kuwait",Kuwait
21,-43.330402,-23.001433,P.Q.D,750497221066588160,2020-02-14 09:22:49,casa de Deus,poi,Riozen Toyota Barra,Brasil
88,141.30476000000002,43.07784,,750497596750176256,2020-03-15 03:50:34, ,poi,,Japan
120,101.17748873,4.64946595,MHK,750498090,2020-02-29 07:35:33,,city,"Hulu Kinta, Perak",Malaysia
222,106.86992350000001,-6.204330000000001,Jehav,75049835,2020-06-01 13:24:15,"T: -6.2199415,106.8164387",city,"Matraman, Indonesia",Indonesia
41860,-121.9103445,38.016752000000004,caroline ,750498362273591296,2020-02-21 06:41:14,"California, USA",city,"Pittsburg, CA",United States
41660,-100.453089,31.440522499999997,* stormi *,750498859,2020-05-26 16:28:50,,city,"San Angelo, TX",United States
21,-43.296872,-22.644558,ester,750498893209694208,2020-02-16 05:00:27,"Rio de Janeiro, Brazil",city,"Duque de Caxias, Brasil",Brasil
10420,-81.5167515,41.0808775,Austin Ach,750499104027926529,2020-03-04 04:15:00,"Akron, OH",city,"Akron, OH",United States
119,-111.498181,28.9698625,David Martinez,750499184,2020-02-25 02:57:37,Mexico Norte,city,"Hermosillo, Sonora",Mxico
35620,-74.35049799999999,39.605735,sabrina claire,750499258512515072,2020-03-17 15:14:25,"Tuckerton, NJ",city,"Tuckerton, NJ",United States
28660,-97.75384,31.0793065,Roger G.,75049929,2020-03-09 02:13:43,"Austin-Houston , Texas",city,"Killeen, TX",United States
12420,-97.672732,30.519340500000002,Roger G.,75049929,2020-03-09 23:47:29,"Austin-Houston , Texas",city,"Round Rock, TX",United States
37980,-75.586733,39.681854,hurtin_for_a_peartin,750499380,2020-04-09 02:46:14,Delaware,city,"Wilmington Manor, DE",United States
119,-99.50133608,20.27138702,PincheTin,75049972,2020-04-22 19:43:31,en el distrito,city,"Chapantongo, Hidalgo",Mxico
9,145.0531355,-37.9725665,Manny,750499917584490498,2020-02-14 07:47:12,Australia,city,"Melbourne, Victoria",Australia
21,-47.9848085,-16.092893500000002,Marcelo ,750500114234535940,2020-02-14 02:25:14,Na sua ,city,"Valparaso de Gois, Brasil",Brasil
171,120.96950149999999,14.430456499999998,,750500153459511296,2020-02-21 14:59:59,,city,"Bacoor, Calabarzon",Republic of the Philippines
26900,-86.1429225,39.7795625,Nathan C. Johnson,750500258334072833,2020-03-21 02:46:27,"Princeton, NJ",city,"Indianapolis, IN",United States
31080,-118.1567105,33.809171500000005,Noah Bilenker,750500323,2020-03-03 14:13:47,,city,"Long Beach, CA",United States
35620,-73.9685415,40.780709,Noah Bilenker,750500323,2020-03-08 15:14:47,,city,"Manhattan, NY",United States
88,139.54103500000002,35.3336365,,750500381600342016,2020-03-20 11:54:00,,city, ,
19100,-97.28892232,32.87814476,BanhMiViet,750500971906641920,2020-03-10 04:09:46,,city,"Fort Worth, TX",United States
186,2.1412275000000003,41.392657,Lina Rodrguez,75050123,2020-02-27 04:01:17,,city,"Barcelona, Spain",Spain
21,-46.638914,-23.615712,Isa,750501424140783617,2020-03-06 12:41:46,So Paulo ,poi,Faculdade Mtodo de So Paulo - FAMESP,Brasil
8,-60.69740600000001,-32.9516155,MED1809,750501681511669761,2020-02-19 15:45:16,"Rosario, Argentina",city,"Rosario, Argentina",Argentina
8,-58.9846755,-27.452821500000002,BP,750501744719831040,2020-02-14 11:41:46,"Resistencia, Argentina",city,"Resistencia, Argentina",Argentina
171,121.0311415,14.7108935,Clarence Marquez OP,750501810,2020-02-14 21:39:46,Convent of St. John Lateran,city,"Caloocan City, National Capital Region",Republic of the Philippines
88,139.744876,35.71770150000001,ishimori1964,750501869806428160,2020-03-24 07:01:40,,city, ,
21,-64.52161749999999,-8.984888,Thr3Plus_Oficial,750502125734592515,2020-02-16 01:24:41,Brasil,city,"Porto Velho, Brasil",Brasil
12060,-85.0690195,33.58008150000001,Carrollton Trojans WBB,750502169888059392,2020-03-05 18:32:16,"Carrollton, GA",city,"Carrollton, GA",United States
38,-75.5496355,10.3904485,Astrid Herrera,750502338129977346,2020-04-30 10:34:22,Colombia,city,"Cartagena, Colombia",Colombia
175,39.2541285,21.5857105,,750502344710840322,2020-03-13 13:10:13, .,city,",   ",  
29420,-114.3106095,34.491052999999994,Terry Martin,750502355376885760,2020-04-04 05:41:02,"Lake Havasu City, AZ",city,"Lake Havasu City, AZ",United States
24,-79.616073,43.555244,Izekh,750502485945618437,2020-03-05 17:17:28,"Toronto, Ontario",city,"Mississauga, Ontario",Canada
32580,-98.18964799999999,26.167904500000002,Denilson,750502568623681537,2020-02-23 18:37:15,,city,"Pharr, TX",United States
-9999,-61.8117305,44.321234,Maritime Bhangra,750502621111283712,2020-02-14 21:11:37,"Halifax, Nova Scotia",city,"Halifax, Nova Scotia",Canada
21,-43.441578,-22.911421500000003,,750502710701592576,2020-03-18 22:39:51,"Rio de Janeiro, Brasil",city,"Rio de Janeiro, Brasil",Brasil
180,25.979816,-24.560896,Celous,75050274,2020-03-01 13:47:50,Botswana,poi,BMS Phakalane,Botswana
46220,-87.5334065,33.1966005,Cory White 13,750503170527330304,2020-02-21 20:06:33,,city,"Tuscaloosa, AL",United States
38,-73.92732149999999,11.0734625,Skualogn BICAMPEN,750503245341155328,2020-02-15 23:13:48,Regin Caribe ,city,"Santa Marta, Colombia",Colombia
35620,-74.1880345,40.00134,John Schlendorf,750503452090871809,2020-04-03 20:44:42,"Toms River, NJ",city,"Toms River, NJ",United States
9,145.0531355,-37.9725665,pasan perera,750503456,2020-03-17 21:58:59,,city,"Melbourne, Victoria",Australia
12060,-84.35244449999998,33.943456999999995,NSHS,75050365,2020-02-14 20:11:52,"Sandy Springs, GA",city,"Sandy Springs, GA",United States
51,-6.248857599999999,53.325004799999995,Small Firms Association,75050370,2020-02-16 09:00:30,Republic of Ireland,city,"Dublin City, Ireland",Ireland
151,7.424094,9.073663999999999,EAY Foundation,750503821776912384,2020-03-29 13:53:26,"Abuja, Nigeria",city,"Abuja, Nigeria",Nigeria
16980,-88.09117950000002,42.0323445,Suzanne Surak DeGrazio,75050419,2020-04-10 04:05:23,"Schaumburg, Illinois",city,"Schaumburg, IL",United States
222,110.417,-6.96667,Bagus Ringga Tudanto,75050426,2020-03-26 11:56:05,Semarang city,city,"Semarang Utara 1, Indonesia",Indonesia
120,100.769062,4.828417,whooppss!!,750504276858802176,2020-02-14 06:54:00,,city,"Tupai, Perak",Malaysia
19820,-83.2914245,42.6516675,Brent Gonzalez,750504449328549888,2020-02-20 15:44:23,"Detroit, MI",city,"Pontiac, MI",United States
95,127.1128125,37.393978499999996,Jahnny Shin,750504524863770624,2020-02-14 04:43:44, ,city, ,
71,8.636605500000002,50.1212355,Said,750504802036158464,2020-05-22 23:46:26,"Frankfurt on the Main, Germany",city,"Frankfurt am Main, Deutschland",Deutschland
88,139.810157,35.6450615,riodori,75050487,2020-02-16 12:51:54,,city,"Koto-ku, Tokyo",Japan
21,-43.0596095,-22.904549000000006,Indin,750504954088067072,2020-02-14 11:25:09,"Niteri, Brasil",city,"Niteri, Brasil",Brasil
37980,-75.09971250000002,39.9374855,Isabel Soisson,750505038137679872,2020-02-22 22:32:04,Greater New York City Area,city,"Camden, NJ",United States
35620,-74.2586235,40.748984,Isabel Soisson,750505038137679872,2020-03-13 02:34:00,Greater New York City Area,city,"South Orange, NJ",United States
37980,-75.117998,40.0048655,Isabel Soisson,750505038137679872,2020-03-22 14:30:18,Greater New York City Area,city,"Philadelphia, PA",United States
40380,-77.5298295,43.0755745,Prepps,750505052,2020-04-18 11:53:14,,city,"Pittsford, NY",United States
21,-51.1593095,-30.099836,Rafael de Jesus,75050513,2020-02-18 00:11:31,"Porto Alegre, Brasil",city,"Porto Alegre, Brazil",Brazil
21,-43.296872,-22.644558,maluzinha,750505396796809216,2020-02-14 02:07:58,Rio,city,"Duque de Caxias, Brasil",Brasil
171,121.0627355,14.683012,pei,750505866667798528,2020-02-16 09:28:53,Pilipinas,city,"Quezon City, National Capital Region",Republic of the Philippines
31140,-85.595677,38.4111725,Dr. Pandora Sears,750505896338333696,2020-03-02 03:58:43,United States,city,"Goshen, KY",United States
222,106.72113799999998,-6.220018,Ald Pakusadewo,75050612,2020-05-05 20:45:47,around you,city,"Ciledug, Indonesia",Indonesia
24,-83.00208549999998,42.295065,Cyrus McGarrell,750506171090493440,2020-03-24 16:03:39,,city,"Windsor, Ontario",Canada
175,39.2541285,21.5857105,  ,750506398220480518,2020-04-30 20:43:13, ,city,",   ",  
9,153.42517,-27.979359999999996,MBPS Real Estate,750506607243513860,2020-03-17 06:09:33,"Shop 6 / 19-21 Tedder Avenue,",city,"Gold Coast, Queensland",Australia
33100,-80.1226195,26.721896,QuietStorm,750506689,2020-06-10 22:09:55,"Boynton Beach, FL",city,"West Palm Beach, FL",United States
21,-41.941329,-22.470358500000003,Eduarda ,750506878594088960,2020-02-21 22:05:36,"Centro, Rio de Janeiro",city,"Rio das Ostras, Brasil",Brasil
49300,-81.934474,40.81569,GreatValueTakeoff ,750506912718946306,2020-02-14 01:00:21,"Cleveland, OH",city,"Wooster, OH",United States
8,-68.0667,-38.95,Juanma Soria,750507068,2020-02-24 00:32:26,"Neuqun, Argentina",city,"Neuqun, Argentina",Argentina
16980,-87.732013,41.8335845,Jason G LegitBoss  ,75050711,2020-05-30 21:33:22,Chicago,city,"Chicago, IL",United States
14460,-71.214765,42.476345,7,750507110614564864,2020-02-27 01:29:59,Below the heavens,poi,Workbar Here With Jay McHugh,United States
13620,-71.12737299999999,44.0532975,7,750507110614564864,2020-02-29 01:22:32,Below the heavens,city,"North Conway, NH",United States
14460,-71.0887125,42.3136695,7,750507110614564864,2020-03-02 10:36:11,Below the heavens,city,"Boston, MA",United States
205,1.0234735000000001,51.3513705,Steve,75050714,2020-03-01 16:24:47,,city,"Chestfield, England",United Kingdom
171,120.6619125,15.0677605,JAMAICA,750507270312787968,2020-02-16 18:11:59,Pampanga ,city,"San Fernando City, Central Luzon",Republic of the Philippines
8,-57.8850915,-34.8958035,chuky ,750507368795017216,2020-02-26 01:37:53,Berisso ,city,"Berisso, Argentina",Argentina
19100,-97.1342085,32.844933000000005,Gene Lucht,750507469948923904,2020-02-23 23:53:58,"Texas, USA",city,"Bedford, TX",United States
33100,-80.16260199999998,25.6969375,Jhumer Alarcn,750507932,2020-03-05 21:20:42,Estados Unidos,city,"Key Biscayne, FL",United States
24,-79.27256949999999,43.629311,Matt LeGallais,750507950800670720,2020-02-20 02:14:52,"Toronto, Ontario",city,"Toronto, Ontario",Canada
38060,-112.1246765,33.5528625,Francine Murtaugh,750508052189573120,2020-02-20 15:28:26,,city,"Phoenix, AZ",United States
21,-43.441578,-22.911421500000003,Renan Santos,750508149036179456,2020-04-21 01:53:55,"Praa Seca, Rio de Janeiro",city,"Rio de Janeiro, Brasil",Brasil
24,-79.6748465,44.371263,Nadya,750508149489209344,2020-02-14 00:29:36,"Barrie, Ontario",city,"Barrie, Ontario",Canada
171,121.0995595,13.970934,A.A rown,750508256,2020-02-15 04:51:45,,city,"Mataas Na Kahoy, Calabarzon",Republic of the Philippines
69,-0.1842935,5.6231985,Joshua Baros Palm,750508274538143744,2020-04-26 22:52:51,"Lartebiokorshie Accra, Ghana",city,"Accra, Ghana",Ghana
19740,-104.9432,39.9126,TUNDRA ELITE,750508723,2020-03-10 15:36:28,"Colorado, USA",city,"Thornton, CO",United States
178,27.942027000000003,-32.965348,Will Smith,750509046764109828,2020-02-21 07:39:38,"East London, South Africa",city,"Beacon Bay, South Africa",South Africa
82,73.03588549999999,19.0967305, $,75050907,2020-04-09 05:04:33,"barasat,india",city,"Navi Mumbai, India",India
171,121.104887,14.646970999999999,kv23,750509140867371008,2020-04-17 17:31:32,,city,"Marikina City, National Capital Region",Republic of the Philippines
205,-2.242579,51.871598,Lance Bradley,75050928,2020-02-14 19:48:27,,poi,Kingsholm Stadium,United Kingdom
158,174.75433850000005,-41.2529975,Lance Bradley #StayAtHome,75050928,2020-04-03 09:11:40,,city,"Wellington City, New Zealand",New Zealand
205,-2.242579,51.871598,Lance Bradley #StayAtHome,75050928,2020-05-18 14:48:11,,poi,Kingsholm Stadium,United Kingdom
21,-35.6871125,-9.5333295,alan is dead wrapped in plastic,750509528618262528,2020-02-27 22:43:27,,city,"Macei, Brasil",Brasil
21,-47.95620547,-15.85699628,Ju HPG,75050976,2020-03-23 01:42:22,"Braslia, Brasil",city,"Braslia, Brasil",Brasil
21,-47.8180015,-21.2139225,Gilmarcio Zimmermann Martins,750510199950180352,2020-02-22 10:57:37,"Ribeiro Preto, Brasil",city,"Ribeiro Preto, Brasil",Brasil
21,-43.959822499999994,-19.918692,Daniel  Matos,75051029,2020-02-14 17:42:30,Belo Horizonte,city,"Belo Horizonte, Brasil",Brasil
33,-69.348134,-24.2283195,Mauro Araya ,75051041,2020-02-19 20:33:07,"Antofagasta, Chile",city,"Antofagasta, Chile",Chile
21,-47.596549,-20.865853,Adrielle ,750511142133460992,2020-04-21 03:14:38,"So Paulo, Brasil",city,"Batatais, Brasil",Brasil
21,-51.1593095,-30.099836,Mauro Srgio na TV,750511627330580480,2020-02-14 18:05:53,"Porto Alegre, Brasil",city,"Porto Alegre, Brasil",Brasil
172,-67.12021800000001,18.140473,kenia zaely,750511751557423105,2020-02-15 03:05:24,,city,"Hormigueros, USA",Estados Unidos
41900,-67.154379,18.0636435,kenia zaely,750511751557423105,2020-02-16 01:23:15,,city,"Cabo Rojo, USA",Estados Unidos
41980,-66.0577805,18.218366,kenia zaely,750511751557423105,2020-02-29 04:13:39,,city,"Caguas, USA",Estados Unidos
175,49.9945455,26.353591499999997,,750512010241118208,2020-03-07 16:07:42,,city,"Dammam, Kingdom of Saudi Arabia",Kingdom of Saudi Arabia
31080,-118.14617700000001,33.860234999999996,fat,750512121138466816,2020-05-06 04:11:56,,poi,Arby's,United States
120,103.838094,1.5254035,K O B A,750512505655439360,2020-02-16 09:16:16,"Johor Bahru, Johor",city,"Plentong, Johor",Malaysia
120,100.277305,5.40827,Tengku Anasuha,750512575,2020-02-15 12:28:28,"Pengkalan Chepa, Kelantan",poi,Penang Hill ( Bukit Bendera),Malaysia
11900,-82.066991,39.335559,LIZ LEMONADE,750512580356022272,2020-05-30 01:07:20,truck,poi,Walmart Supercenter,United States
205,-0.102162,51.5879015,Marvin Flores,750512746207129601,2020-02-14 10:56:36,"Tegucigalpa, Honduras",city,"Tottenham, London",United Kingdom
48,-69.928392,18.485775,Rosanna De Jesus,750512771461025792,2020-04-29 17:30:56,,city,"anto Domingo de Guzmn, Dominican Republic",Dominican Republic
171,121.0627355,14.683012,,750512832991539200,2020-02-14 12:09:15,Quezon city,city,"Quezon City, National Capital Region",Republic of the Philippines
222,103.999112,1.153956,,750512904,2020-02-16 07:19:32,Indonesia,poi,M One Club & Entertainment,Indonesia
184,103.82191800000001,1.264713,,750512904,2020-03-01 06:13:46,Indonesia,poi,VivoCity,
222,104.019173,1.122234,,750512904,2020-03-16 09:51:03,Indonesia,poi,Nagoya Foodcourt,Indonesia
184,103.85418100000001,1.2857969999999999,,750512904,2020-05-19 15:09:12,Indonesia,poi,One Fullerton,
222,103.997558,1.153598,,750512904,2020-05-20 10:54:39,Indonesia,poi,Harbour Bay International Ferry Terminal,Indonesia
193,100.6078895,13.870529999999999,Sugar,750512940227309568,2020-02-16 00:26:39,,city,", ",
35840,-82.43175500000001,27.097178999999997,Kat B,750513007919181824,2020-05-07 05:11:36,Small Lake City,city,"Venice, FL",United States
35620,-73.8494415,40.8503475,Quentin McCauley,750513208214089728,2020-02-24 21:14:49,"Bronx, NY",city,"Bronx, NY",United States
21,-46.5955455,-23.682803,Miss Vanjie Miss Vanjie,750513289596178432,2020-04-30 23:24:30,"So Paulo, Brasil",city,"So Paulo, Brasil",Brasil
8,-58.583605000000006,-34.600632000000004,Marisol Varela,750513769,2020-02-14 14:11:28,,city,"Caseros, Argentina",Argentina
40140,-117.58565800000001,33.859093,,750514288100421632,2020-02-14 04:06:49,on bae,city,"Corona, CA",United States
19100,-97.01116800000001,32.655677999999995,S,750514314620964865,2020-03-27 15:04:59,"Grand Prairie, TX",city,"Lakeland Heights, TX",United States
21,-43.082771799999996,-22.8909306,Dj Du Oculos,750514464722681857,2020-04-13 01:32:51,"Niteri, Brasil",city,"Niteri, Brasil",Brasil
41860,-122.31542150000001,37.552481,Murph Richard Matthew Finnicum ,75051475,2020-04-29 02:17:57,"San Mateo, CA",city,"San Mateo, CA",Estados Unidos
34980,-86.9394,36.0647,Alex Nunn,750514832,2020-05-23 20:43:41,"Nashville, TN",city,"Nashville, TN",United States
21,-46.5955455,-23.682803,rodolfo,750515089342619649,2020-02-18 05:27:42,"So Paulo, Brasil",city,"So Paulo, Brasil",Brasil
41860,-121.979527,37.5236445,,750515120070012928,2020-03-24 02:45:26,", ",city,"Fremont, CA",United States
171,125.60264502,7.06839449,Margaret,750515127787540485,2020-02-22 09:33:10,Where the sky meets the sea,city,"Davao City, Davao Region",Republic of the Philippines
222,111.583,-6.86667,Siska.ayu,750515299128995840,2020-04-17 09:06:00,"Blora,Jawa Tengah, Indonesia",city,"Sale, Indonesia",Indonesia
37980,-75.605775,39.95993,Jason Hanlan,750515399091945476,2020-04-16 17:56:21,,city,"West Chester, PA",United States
88,140.939941,41.859722,,750515459959627776,2020-02-20 11:24:23, ,city, ,
175,47.457722,24.201688, ,750515654,2020-03-01 18:21:03,  ,city,",   ",  
40140,-116.361297,33.7405385,Calvin Luttrell,750515737,2020-02-14 00:28:05,"Palm Desert, CA",city,"Palm Desert, CA",United States
41180,-90.8616135,38.8168005,Lauren Koester,750515786679062529,2020-03-04 23:54:01,,city,"Wentzville, MO",United States
88,130.38794950000002,33.57973,sadaman,750516130997891072,2020-03-14 01:54:51,,city,"Fukuoka City Chuo Ward, Fukuoka",Japan
34980,-86.43979,35.84191,Sabaidee Cafe,750516413819940864,2020-02-18 15:10:43,"Murfreesboro, TN",city,"Murfreesboro, TN",United States
21,-55.8850955,-29.764469000000002,geminianja ,750516413983588356,2020-02-23 20:05:17,hell,city,"Alegrete, Brasil",Brasil
35620,-74.020494,40.768929,Thanh Hong,750516592451129344,2020-02-15 18:06:35,"New Jersey, USA",city,"Weehawken, NJ",United States
16980,-87.732013,41.8335845,Michael Collins Jr.,750516609706397696,2020-03-08 19:31:21,"Chicago, IL",city,"Chicago, IL",United States
138,35.169851,31.905503999999997,Mohammed Ahmad,750516868587327488,2020-03-29 01:25:20,"State of Palestine,Ramallah",poi,Ramallah,
26900,-86.1429225,39.7795625,Sara Kubuske,750517065493123072,2020-02-16 22:06:59,"Green Bay, WI",city,"Indianapolis, IN",United States
24580,-88.09198549999998,44.4297195,Sara Kubuske,750517065493123072,2020-05-07 23:01:29,"Green Bay, WI",city,"De Pere, WI",United States
222,122.52401100000002,-3.977877,ZyL,750517270124769280,2020-02-17 00:32:38,"Makasar, Indonesia",poi,Rich-O Donuts & Cafe,Indonesia
8,-64.29677,-31.320290000000004,Cata Jorge,750517321,2020-05-10 01:44:23,,city,"Crdoba, Argentina",Argentina
129,113.867884,22.273683,emyu,750517645,2020-02-17 02:15:08,plat h & bm & ae,poi,Hong KongZhuhaiMacau Bridge,Hong Kong
9,142.23737549999996,-10.5675545,emyu,750517645,2020-03-11 20:59:48,plat h & bm & ae,neighborhood,"Thursday Island, Queensland",Australia
222,106.073466,-5.937859,emyu,750517645,2020-04-07 14:16:11,plat h & bm & ae,city,"Bojonegoro, Indonesia",Indonesia
173,133.023641,42.791719,emyu,750517645,2020-05-29 10:13:30,sea,poi, ,Russia
242,121.85760900000001,24.59494,emyu,750517645,2020-06-06 04:15:27,sea,poi, Su'ao Port,Taiwan
40140,-116.94195,33.729481,Melissa,750517960767250432,2020-02-14 23:30:05,with bryan ,city,"East Hemet, CA",United States
42100,-122.0311865,36.97937500000001,Melissa,750517960767250432,2020-02-24 01:01:51,with bryan ,city,"Santa Cruz, CA",United States
43580,-96.4163955,42.459286,Clinton Dayreston,750518245476544512,2020-04-29 08:12:06,"Honolulu, HI",city,"South Sioux City, NE",United States
21,-34.925731,-7.914292,le monde diplomatique,750518273108766720,2020-03-03 15:43:11,"Recife, Brazil",city,"Paulista, Brasil",Brazil
21,-46.8678461,-23.5931948,  ,750518588637900800,2020-03-08 13:32:33,,city,"Cotia, Brasil",Brasil
19100,-96.894351,32.869564000000004,Tamborazodearranque,750518646,2020-03-10 21:08:04,Dallas Texas,poi,Escapade 2001,United States
21,-43.803105,-22.879409,Marcelinho ,750518825494470656,2020-02-16 05:14:01,"Itagua, Brasil",city,"Itagua, Brasil",Brasil
24,-79.27256949999999,43.629311,CAMMI,75051887,2020-02-17 16:34:33,"Toronto, Canada",city,"Toronto, Ontario",Canada
35620,-73.9685415,40.780709,CAMMI,75051887,2020-03-25 15:45:26,"Toronto, Canada",city,"Manhattan, NY",United States
24,-79.27256949999999,43.629311,CAMMI,75051887,2020-03-28 00:14:42,"Toronto, Canada",city,"Toronto, Ontario",Canada
40900,-121.97083333,38.525,Ian,750518890988335108,2020-03-30 20:09:10,"Winters, CA",city,"Winters, CA",United States
88,139.5029075,35.417161,rumi,750519276,2020-03-05 14:29:46,"Yokohama, Japan",city,  ,
16980,-87.848928,41.499327,Emma Holuj,750519291762532353,2020-03-15 01:47:24,,city,"Frankfort, IL",United States
21,-43.441578,-22.911421500000003,Nega ,750519511045079040,2020-02-14 03:12:52,"Rio de Janeiro, Brasil",city,"Rio de Janeiro, Brasil",Brasil
31080,-118.30856599999998,33.891034999999995,Leo,750519597946679296,2020-03-07 00:50:36,,city,"Gardena, CA",United States
88,139.745379,35.652789,kinuko,750519631463403520,2020-05-21 08:11:00,,city, ,
21,-42.005645,-22.663438,INSTA : SAMUEL_JR99,750519674958442496,2020-02-21 06:49:45,"Duque de Caxias, Brasil",poi,Unamar- Cabo Frio,Brasil
152,4.6449695,52.112942499999996,D-J Gloudemans,75051972,2020-02-14 08:35:28,voorbij Helmond ff linksaf,city,"Alphen aan den Rijn, Nederland",Nederland
222,110.366643,-7.799243,lenny setyowati,750519823,2020-02-19 11:42:16,"Semarang, Jawa Tengah",city,"Gondomanan, Indonesia",Indonesia
21,-51.1593095,-30.099836,L.M,750520007910682624,2020-02-18 02:29:46,"Porto Alegre, Brasil",city,"Porto Alegre, Brasil",Brasil
8,-62.09394449999999,-31.422969,URI,750520027250655232,2020-06-05 05:17:08,,city,"San Justo, Argentina",Argentina
21,-43.959822499999994,-19.918692,Noelma FS,750520046322089985,2020-03-16 12:26:09,"Belo Horizonte, Brasil",city,"Belo Horizonte, Brasil",Brasil
21,-54.261875,-20.8753275,Surtei,750520612905517056,2020-03-28 04:21:48,"Campo Grande, Brasil",city,"Campo Grande, Brasil",Brasil
82,72.57023199999999,23.013959,Ranjit Damor,750521512302641153,2020-03-04 10:03:58,"Gujarat, India",city,"Ahmadabad City, India",India
21,-47.435682,-22.8029905,Rita Silva,750521517889425408,2020-06-03 21:35:05,SBO ,city,"Santa Brbara d'Oeste, Brasil",Brasil
171,121.0627355,14.683012,,750521646,2020-02-14 14:13:33,"Bulacan, Central Luzon",city,"Quezon City, National Capital Region",Republic of the Philippines
21,-43.376828,-22.728707999999997,TG ,750521826682478592,2020-04-19 02:19:43,"Belford Roxo, Brasil",city,"Belford Roxo, Brasil",Brasil
49,-80.164441,-0.8465459999999999,Carolina Salas,750522073081053185,2020-02-21 01:26:45,,poi,Calceta,Ecuador
82,74.96758399999999,30.240587,Anand Kashyap,750522445937963008,2020-05-13 02:22:06,"Bharuch, India",city,"Bathinda, India",India
21,-54.6066575,-16.571507500000006,Alisson Siqueira,75052287,2020-02-23 15:02:23,"Rondonpolis, Brasil",city,"Rondonpolis, Brasil",Brasil
222,107.30860167,-6.288444999999999,denmarr,750523055487610880,2020-04-05 03:53:36,"Karawang, Jawa Barat",city,"Karawang Timur, Indonesia",Indonesia
21,-48.551,-22.498260000000002,DeiviD Macalliste ,75052307,2020-04-12 15:01:07,Brasil,city,"Igarau do Tiet, Brasil",Brasil
21,-41.1966945,-20.7898165,light yagami,750523135041167360,2020-04-17 03:42:24,Na sua ,city,"Cachoeiro de Itapemirim, Brasil",Brasil
88,139.543121,35.7362125,,750523339542663168,2020-05-01 15:19:11, ,city, ,
47260,-76.50780850000002,37.090301000000004,Erin-Joi,750523628391952384,2020-02-15 21:33:32,"Newport News, VA",city,"Newport News, VA",United States
14460,-71.162539,42.513715000000005,Lisa Lonergan,750523814,2020-06-09 22:21:17,"Boston, MA",poi,Altavesta School,United States
19780,-93.6063695,41.5764375,Calvin Senteza,750524137,2020-02-18 23:10:51,"Des Moines, IA",city,"Des Moines, IA",United States
175,46.685077,24.7219435, ,750524320791797761,2020-02-14 00:05:18,  .  ,city,",   ",  
21,-47.261794,-22.843816,W,750524975057076224,2020-02-28 04:09:00,"Sumar, Brasil",city,"Sumar, Brasil",Brsil
96,47.905487,29.270203000000002,Nourah Al3jmi,750525198,2020-06-02 00:20:21,KW,poi,Farwania Hospital |  ,Kuwait
186,-3.1474595,40.6153885,QUDATE EN CASA,750525254,2020-03-31 18:27:25,Espaa,city,"Guadalajara, Espaa",Espaa
19100,-97.332139,32.681816,fath,750525260550672384,2020-03-16 06:48:50,"Texas, USA",poi,Little Mexico,United States
120,101.97018461,2.73365523,aina syuhaida jasman,750525684,2020-02-29 08:23:56,"Rasah, Negeri Sembilan",city,"Bandar Seremban, Negri Sembilan",Malaysia
16980,-87.632496,41.883221999999996,Mitchell Burns,75052602,2020-04-04 20:12:16,"St Joseph, MI",city,"Chicago, IL",United States
46060,-111.598027,31.960054,Jennifer Andrews,75052605,2020-02-14 03:32:02,"Tucson, AZ",poi,Kitt Peak National Observatory,United States
82,77.095086,28.638489500000002,Rajeev Somani,75052616,2020-04-02 14:15:52,"New Delhi, India.",city,"New Delhi, India",India
120,101.724508,3.127468,princess.,750526866,2020-03-15 12:06:22,Malaysia,poi,JD Sports,Malaysia
8,-64.459008,-31.244414000000003,SEBA,750527003808366592,2020-02-22 00:08:20,"Crdoba, Argentina",poi,Ro Cosqun,Argentina
41740,-117.120609,32.806737,Emily Maguire,75052714,2020-03-05 16:27:05,"San Diego, CA",poi,101KGB San Diego's Classic Rock Radio Station,United States
26420,-95.4464865,29.838495,Karla,750527244,2020-06-05 19:16:07,,city,"Houston, TX",United States
222,112.36045547,-6.86644299,oporayam,750527432,2020-04-06 01:47:57,Tuban Indonesia,city,"Paciran, Indonesia",Indonesia
119,-96.886083,19.542054,Snop...,750527569846345728,2020-03-14 06:59:05,,city,"Xalapa, Veracruz de Ignacio de la Llave",Mxico
37980,-74.82826899999999,40.181115999999996, Jon,75052773,2020-06-10 20:15:56,,poi,Vermilion Hills Playground,United States
8,-58.5641745,-34.544659,Liz,750527849807970304,2020-02-14 14:02:37,,city,"Ciudad del Libertador General San Martn, Argentina",Argentina
82,78.48394350000001,17.4314645,Dr.VINAY PSPK Btech (IAS) VOTE FOR GLASS ,750528034160029696,2020-03-17 09:08:25,"Hyderabad, India",city,"Medchal, India",India
88,140.1739095,35.940427500000006,,750528494,2020-04-11 13:03:59,,city, ,
38900,-122.80557900000001,45.484891999999995, now what? ,750528566803128320,2020-06-02 09:41:22,"PNW, USA",city,"Beaverton, OR",United States
21,-43.441578,-22.911421500000003,Gabriel Patrocinio,750528975273861120,2020-02-14 00:10:13,"Rio de Janeiro, Brasil",city,"Rio de Janeiro, Brasil",Brasil
119,-104.2541545,20.004811,Luis Arciniega D.,750529381555064832,2020-04-27 05:09:24,"Jalisco, Mxico",city,"Unin de Tula, Jalisco",Mxico
113,-7.6577815,33.4753515,check pointe,750529438081835008,2020-05-06 11:09:45,Maroc,city,"Bouskoura, Royaume du Maroc",Royaume du Maroc
222,112.8320325,-6.9737655,Ibnoe Qoyyim,750529723,2020-05-22 13:40:46,"Bangkalan, Indonesia",city,"Arosbaya, Indonesia",Indonesia
200,28.978144,41.007932000000004,Ibnoe Qoyyim,750529723,2020-05-25 03:23:38,"Bangkalan, Indonesia",city,"stanbul, Trkiye",Trkiye
222,112.833427,-7.0163720000000005,Ibnoe Qoyyim,750529723,2020-05-31 00:10:22,"Bangkalan, Indonesia",poi,Arosbaya,Indonesia
164,-9.159995,38.743614,Blog Menos Um Carro,75052993,2020-02-14 14:36:35,Portugal,city,"Lisbon, Portugal",Portugal
160,-79.10792,-8.085721000000001,Carlos  Li,750529962,2020-02-20 13:12:34,huanchaco-peru,poi,Aeropuerto internacional Capitn FAP Carlos Martnez de Pinillos (TRU),Peru
21,-47.493776000000004,-0.8343745000000001,o trouxa da famlia,750529967063240706,2020-02-27 06:01:42,por ai na vida,city,"Maracan, Brasil",Brasil
26420,-95.4464865,29.838495,The Grill Doctor,750529981223022592,2020-02-18 20:23:47,Seabrook TX,city,"Houston, TX",United States
82,73.910077,18.5081615,Rohini,750530054375944193,2020-03-04 18:25:16,"Nanded, India",city,"Haveli, India",India
15380,-78.8270655,42.787388,David Bartholomew,750530153957232640,2020-02-26 02:16:42,Athol Springs,city,"Blasdell, NY",United States
27460,-79.40978949999997,42.445731,David Bartholomew,750530153957232640,2020-04-12 00:58:57,Athol Springs,city,"Van Buren Point, NY",United States
24,-122.818486,49.111519,chrissy,75053023,2020-02-17 03:51:51,"British Columbia, Canada",city,"Surrey, British Columbia",Canada
171,125.4432615,7.317582499999999,Tara Marie ,750530322303815681,2020-02-15 01:40:55,"Mati City, Davao Oriental",city,"Davao City, Davao Region",Republic of the Philippines
8,-60.69740600000001,-32.9516155,Spooky Mulder,750530371,2020-02-18 01:52:06,"Rosario, Argentina",city,"Rosario, Argentina",Argentina
9,115.9283185,-32.1501005,Jessica Sandhu,750530606,2020-02-15 09:25:06,Perth WA,city,"Perth, Western Australia",Australia
12420,-97.9351915,29.8956065,Lindsay,750530775531999233,2020-02-28 21:48:00,"Texas, USA",city,"San Marcos, TX",United States
26420,-95.53985250000001,30.1812515,Lindsay,750530775531999233,2020-03-27 06:19:22,"Texas, USA",city,"The Woodlands, TX",United States
49180,-80.244984,36.0871685,La Chica Bom Bom ,750531200683565056,2020-03-28 03:50:15,"Carolina del Norte, USA",city,"Winston-Salem, NC",Estados Unidos
41860,-122.43597849999999,37.7706565,Shawn Sato,750531432,2020-03-21 07:08:49,"San Francisco, CA",city,"San Francisco, CA",United States
10740,-106.632718,35.117002500000005,JP$ ,750531529,2020-02-15 15:50:03,505,city,"Albuquerque, NM",United States
8,-64.1980255,-31.4154565,Culonavirus,750531607514214400,2020-02-14 15:00:16,"Crdoba, Argentina",city,"Crdoba, Argentina",Argentina
46700,-122.24515032,38.1392473,Children's Network,75053177,2020-03-04 17:15:17,"Solano County, CA",city,"Vallejo, CA",United States
21,-51.1593095,-30.099836,Negona |,750532161648861185,2020-02-14 04:08:31,Porto Alegre - RS,city,"Porto Alegre, Brasil",Brasil
171,120.95465,13.49965,Kayte Mondala,750532290,2020-02-14 08:47:23,Quezon City,city,"Puerto Galera, Mimaropa",Republic of the Philippines
38300,-79.90169900000002,40.055041499999994,Bryce Lincoski,750532646413959168,2020-02-14 13:57:18,"Pennsylvania, USA",city,"California, PA",United States
49700,-121.6289255,39.121659,,750532651446964224,2020-03-03 22:41:07,"California, USA",city,"Yuba City, CA",United States
40900,-121.469664,38.561721999999996,,750532651446964224,2020-03-28 19:28:38,"California, USA",city,"Sacramento, CA",United States
49700,-121.6289255,39.121659,,750532651446964224,2020-04-06 19:51:39,"California, USA",city,"Yuba City, CA",United States
19100,-96.9328395,33.170365999999994,faith,750532742975139840,2020-06-06 22:31:37,Texas,city,"Little Elm, TX",United States
21,-46.5955455,-23.682803,Victor Caires,750532794665857025,2020-02-14 12:49:25,"So Paulo, Brasil",city,"Sao Paulo, Brazil",Brazil
171,125.20415200000001,6.10805,rasaec,750532815469498369,2020-05-13 11:17:22,Sitzuhan,poi,Gensanville Subdivision,Republic of the Philippines
222,110.6020665,-7.7702035,E Ge Ge Ye,75053313,2020-04-04 16:26:21,Pelukan @sigitpitung,city,"Wedi, Indonesia",Indonesia
31080,-118.4119065,34.0207895,Hamad Almanaei,750533448,2020-02-20 22:59:30,Kuwait  California ,city,"Los Angeles, CA",United States
32860,-91.903835,44.8817265,Tyler Grape,750534042374836224,2020-03-12 13:48:37,"Menomonie, WI",city,"Menomonie, WI",United States
171,124.884224,6.4609345000000005,champagne,750534171299164160,2020-03-26 12:54:11,NY,city,"Koronadal City, Soccsksargen",Republic of the Philippines
171,121.033212,14.5464995,RJ,750534200718036997,2020-05-19 02:39:50,Davao City,city,"Makati City, National Capital Region",Republic of the Philippines
40140,-117.294096,34.134925,Kevin McNeal,750534433,2020-05-08 00:26:42,"San Bernardino, CA",city,"San Bernardino, CA",United States
40140,-117.58565800000001,33.859093,Taylor Dockins,750534537311059968,2020-02-28 18:02:23,,city,"Corona, CA",United States
31080,-118.34615249999999,33.953633499999995,Taylor Dockins,750534537311059968,2020-03-08 03:46:39,,city,"Inglewood, CA",United States
40140,-117.58565800000001,33.859093,Taylor Dockins,750534537311059968,2020-03-15 17:31:50,,city,"Corona, CA",United States
31080,-117.86481850000001,33.926652000000004,Taylor Dockins,750534537311059968,2020-06-02 15:55:48,,city,"Brea, CA",United States
40140,-117.58565800000001,33.859093,Taylor Dockins,750534537311059968,2020-06-08 16:41:33,,city,"Corona, CA",United States
222,116.83169,-1.27726,Name cannot be blank,750534577,2020-03-02 19:39:02,Indonesia,poi,Samarinda,Indonesia
19100,-96.7617535,32.819858499999995,morgs ,750534831956713472,2020-02-29 05:14:53,workingout somewhere ,city,"Dallas, TX",United States
36740,-81.1972755,28.588445,morgs ,750534831956713472,2020-03-02 22:22:54,workingout somewhere ,city,"University, FL",United States
19100,-96.9596635,32.595264,morgs ,750534831956713472,2020-03-21 00:03:34,workingout somewhere ,city,"Cedar Hill, TX",United States
43340,-93.6059875,32.564181,Clint Gobert,750534934541004802,2020-02-15 01:23:05,,city,"Red Chute, LA",United States
31080,-117.91881399999998,33.815232,,750534994104295424,2020-02-26 22:44:36,,poi,Goofy's Playhouse,United States
21,-38.51989,-3.789768,Dickson,750535003,2020-03-07 21:30:52,"Fortaleza, Cear",city,"Fortaleza, Brasil",Brasil
151,6.26473,7.0641300000000005,Ebilenlen10:15 Enterprise,750535150358978564,2020-02-19 22:08:05,"Edo, Nigeria",city,"Auchi, Nigeria",Nigeria
119,-102.5745835,22.770944,Gloria Espinoza,750535309201379328,2020-03-09 05:42:40,Mxico,neighborhood,"Zacatecas Centro, Zacatecas",Mxico
47900,-77.22926700000001,38.697014,Ree.,750535937747218432,2020-02-14 13:57:22,,city,"Lorton, VA",United States
31080,-117.802135,33.7337835,Chloe ,750535956,2020-03-13 01:31:58,"Costa Mesa, CA",city,"Tustin, CA",United States
205,-1.080084,51.615761000000006,Richard elliott,75053613,2020-02-23 08:05:12,London,city,"Ewelme, England",United Kingdom
95,126.950075,37.542683000000004,,750536459828858880,2020-04-12 06:30:01,,poi,  (Shilla Stay Mapo),
222,106.7471192,-6.2364432,eL Meler,75053647,2020-03-10 23:06:21,,city,"Pesanggrahan, Indonesia",Indonesia
18140,-82.83608000000001,39.922146000000005,zo,750536500778045440,2020-03-15 14:47:27,"Ohio, USA",poi,Otherworld Ohio,United States
35840,-82.42046400000002,27.4133895,zo,750536500778045440,2020-03-25 03:20:52,"Ohio, USA",city,"Lakewood Ranch, FL",United States
15940,-81.3968005,40.9672465,zo,750536500778045440,2020-04-04 01:13:23,"Ohio, USA",city,"Uniontown, OH",United States
21,-43.39867255,-22.76739619,,750537146654752768,2020-03-27 13:48:05,"Rio de Janeiro, Brasil",city,"Belford Roxo, Brasil",Brasil
211,-66.815766,10.485083,Nancy,750537433448677376,2020-04-06 20:18:14,"Caracas, Venezuela",city,"Petare, Venezuela",Venezuela
18140,-82.985772,39.9946835,Shawn Burton,750537581780172801,2020-02-17 02:35:06,,city,"Columbus, OH",United States
21,-38.5026475,-12.8753345,Bii Artes,750537583,2020-04-07 01:19:55,,city,"Salvador, Brasil",Brasil
9,138.61115999999998,-35.000767,Ms E.M.,750537818804457473,2020-04-24 07:43:07,"Adelaide, South Australia",city,"Adelaide, South Australia",Australia
100,24.14228,56.95255,airsoftizklaide,75053794,2020-03-20 07:42:12,Latvia,city,"Riga, Latvia",Latvia
41700,-98.5406515,29.417501,Troy,750538097335631876,2020-02-15 07:22:55,Yee Haw ,city,"San Antonio, TX",United States
15180,-97.477426,25.972105499999998,Troy,750538097335631876,2020-02-29 23:24:20,Yee Haw ,city,"Brownsville, TX",United States
41700,-98.5406515,29.417501,Troy,750538097335631876,2020-03-03 00:46:07,Yee Haw ,city,"San Antonio, TX",United States
15180,-97.477426,25.972105499999998,Troy,750538097335631876,2020-03-08 03:10:58,Yee Haw ,city,"Brownsville, TX",United States
41860,-122.43597849999999,37.7706565,Erik Berlin,7505382,2020-02-14 16:45:48,,city,"San Francisco, CA",United States
19100,-97.7817675,32.75286,Mad's,750538362319101953,2020-02-25 16:37:47,riding my dirt bike,city,"Weatherford, TX",United States
171,121.0393165,14.2994805,A L E X,750538524143849473,2020-04-18 14:59:45,Phase3 kinarri carmona cavite,city,"Carmona, Calabarzon",Republic of the Philippines
35620,-73.95613,40.67618,Electric Laughs,750538992966373378,2020-02-29 13:13:06,"Brooklyn, NY",city,"Brooklyn, NY",United States
41940,-122.14278999999999,37.400186,Donny Lang - #NetAppATeam,750538999,2020-02-20 16:36:54,Northeast Wisconsin,poi,"VMware, Inc.",United States
11540,-88.333099,44.23654000000001,Donny Lang - #NetAppATeam,750538999,2020-02-25 00:07:09,Northeast Wisconsin,city,"Darboy, WI",United States
36780,-88.44361500000001,44.218552,Donny Lang - #NetAppATeam,750538999,2020-02-28 17:43:16,Northeast Wisconsin,city,"Menasha, WI",United States
16980,-87.95786149999999,42.28872,Donny Lang - #NetAppATeam,750538999,2020-03-01 01:03:46,Northeast Wisconsin,city,"Libertyville, IL",United States
36780,-88.4824625,44.1572775,Donny Lang - #NetAppATeam,750538999,2020-03-13 13:12:22,Northeast Wisconsin,city,"Neenah, WI",United States
11540,-88.333099,44.23654000000001,Donny Lang - #NetAppATeam,750538999,2020-03-13 23:30:23,Northeast Wisconsin,city,"Darboy, WI",United States
9,145.064973,-37.681342, ,750539126089342977,2020-03-02 01:23:52,,poi,RMIT Building 224,Australia
29460,-81.63166667,28.13333333,Tashea Jeanelle,750539241097138177,2020-05-18 14:59:20,"Florida, USA",city,"Haines City, FL",United States
36740,-81.3775,28.5421,Tashea Jeanelle,750539241097138177,2020-06-09 17:48:59,"Florida, USA",city,"Orlando, FL",United States
21,-43.441578,-22.911421500000003,Isleide Rodrigues,750539479346274305,2020-02-16 03:04:32,Rio de Janeiro,city,"Rio de Janeiro, Brasil",Brasil
47900,-77.0367,38.8951,Jazzi Bear ,750539696,2020-02-23 21:04:29,Vienna ,city,"Washington, DC",United States
25940,-80.748747,32.1898025,JAZZ ,750539696,2020-03-21 23:14:49,Vienna ,city,"Hilton Head Island, SC",United States
41540,-75.07547,38.69077,All Jazzed Up ,750539696,2020-05-26 14:17:26,Vienna ,city,"Dewey Beach, DE",United States
35620,-73.8494415,40.8503475,ilmibr ,75053999,2020-04-14 06:27:17,"New York, NY",city,"Bronx, NY",Stati Uniti
41980,-65.635044,18.369687,Alondra,750540313756860416,2020-05-29 22:45:38,,poi,Balneario Seven Seas,United States
85,12.5451455,41.8984165,Alberto,750540916549677057,2020-04-13 06:24:07,,city,"Roma, Lazio",Italia
119,-116.61923079,31.86687999,ENS BJJ,750540920,2020-02-14 07:00:17,"ENSENADA, BAJA CALIFORNIA",city,"Ensenada, Baja California",Mxico
11460,-83.60180249999998,42.245713,Cassandra Callaway,750541927142088704,2020-02-14 16:20:15,"Ypsilanti, MI",city,"Ypsilanti, MI",United States
31080,-118.4119065,34.0207895,Gay J Apa,750542146571239424,2020-02-14 01:11:15,The Imaginarium,city,"Los Angeles, CA",United States
21,-38.51989,-3.789768,doramaconheira,750542251672104961,2020-05-02 02:20:23,,city,"Fortaleza, Brasil",Brasil
35620,-73.8494415,40.8503475,Kborn Rivers,750542288628150273,2020-02-18 22:10:38,"Bronx, NY",city,"Bronx, NY",United States
38,-74.24367099999999,4.2622835,Edward  Cossio Vega ,750542298,2020-02-15 12:53:43,,city,"Bogot, D.C., Colombia",Colombia
19100,-96.7977,32.7774,Pretty Dynamic,750542569,2020-06-02 22:57:22,"Texas, USA",city,"Dallas, TX",United States
41700,-98.5406515,29.417501,arnold,750542889898352640,2020-02-29 03:11:08,"Texas, USA",city,"San Antonio, TX",United States
21,-43.30696954,-23.01526291,leticinha,750542912707031041,2020-02-25 23:39:22,Rio de Janeiro,city,"Rio de Janeiro, Brasil",Brasil
16980,-87.732013,41.8335845,JayB,750543122313146368,2020-05-21 21:31:20,,city,"Chicago, IL",United States
21,-43.441578,-22.911421500000003,Dod ,750543223806894081,2020-02-16 12:09:56,"cidade alta , vk ",city,"Rio de Janeiro, Brasil",Brasil
205,-1.6453615000000001,54.992055500000006,   ,750543241,2020-05-25 20:51:42,"England, United Kingdom",city,"Newcastle Upon Tyne, England",United Kingdom
175,39.2541285,21.5857105,   ,750543241,2020-05-31 17:44:42,"England, United Kingdom",city,",   ",  
21,-51.0952005,-29.918787,k,750543445442330625,2020-02-15 12:56:39,"Rio Grande do Sul, Brasil",city,"Cachoeirinha, Brasil",Brasil
161,67.0421945,24.9050755,Umair Sadiq,75054351,2020-02-15 16:13:37,Pakistan,city,"Karachi, Pakistan",Pakistan
189,14.3815795,55.559746999999994,Zonterapi sterlen,750543683154485248,2020-05-27 21:41:43,"Simrishamn, Sverige",city,"Simrishamn, Sverige",Sverige
39900,-119.7106945,39.57421650000001,e.,750543962,2020-04-02 16:56:39,"Nevada, USA",city,"Sparks, NV",United States
19740,-105.06379299999999,39.750987,The Master Shift,750544075,2020-04-04 23:26:00,New York,city,"Edgewater, CO",United States
46520,-157.799589,21.3199435,nalu k ,750544088542416900,2020-02-18 23:11:47,"Honolulu, HI",city,"Honolulu, HI",United States
24860,-82.3422685,34.7959415,Upstate Warriors 17U,750544109413265408,2020-02-15 05:08:55,"Greenville, SC",city,"Greenville, SC",United States
26420,-95.4464865,29.838495,pam josselet,750544279,2020-05-11 13:59:14,,city,"Houston, TX",United States
38060,-112.1246765,33.5528625,Pablo Garcia,750544342524239872,2020-03-02 06:23:35,"Chandler, AZ",city,"Phoenix, AZ",United States
35620,-73.950806,40.761173,Spencer Moses,75054457,2020-06-04 02:50:19,,neighborhood,"Roosevelt Island, Manhattan",United States
82,77.20537,28.532487,ROHIT KANSAL,75054458,2020-03-22 11:41:09,Delhi,poi,"A-block, Shivalik",India
21,-36.015144,-8.1849265,Tiel Machest,750544594992070656,2020-03-15 23:15:02,"Caruaru, Brasil",city,"Caruaru, Brasil",Brasil
18580,-97.432425,27.737151,Jacquelyn Jones,750544726982529029,2020-02-23 06:14:56,"Texas, USA",city,"Corpus Christi, TX",United States
31080,-118.25696174,34.03854618,,750544837989036032,2020-02-22 21:13:58,vegas ,city,"Los Angeles, CA",United States
8,-68.0667,-38.95,Nanim Rekacz,7505452,2020-05-04 22:07:58,"Neuqun, Argentina",city,"Neuqun, Argentina",Argentina
82,70.85468,22.92671,jonah sebin,750545656381640704,2020-02-22 19:10:13,,city,"Morbi, India",India
9,152.12265532,-32.71903251,jonah sebin,750545656381640704,2020-02-28 17:41:51,,city,"Nelson Bay - Corlette, New South Wales",Australia
44860,-95.6045469,33.1168353,jonah sebin,750545656381640704,2020-03-31 19:03:35,,city,"Sulphur Springs, TX",United States
82,76.54730558,9.46176151,jonah sebin,750545656381640704,2020-05-06 13:44:32,"Kerala, India",city,"Chethipuzha, India",India
186,-3.727812,40.382363,jonah sebin,750545656381640704,2020-06-05 09:14:36,"Kerala, India",city,"Madrid, Spain",Spain
33100,-80.2333285,25.7823535,Martha,750545694,2020-02-19 02:46:08,305,city,"Miami, FL",United States
19740,-104.9220935,39.713563,Billy Upchurch,750546268464803840,2020-02-28 21:41:24,"Denver, CO",city,"Denver, CO",United States
82,85.5167,25.4667,U_R_Shubh,750546681188548613,2020-03-02 14:58:02,"Patna, India",city,"Bakhtiarpur, India",India
175,39.10348878,21.64500602,Rakan hakami,750546954,2020-02-14 20:30:56,"Miami Beach, FL",city,",   ",  
16740,-80.8467855,35.209059,jaylen ,750547202532057089,2020-05-10 20:51:00,"Charlotte, NC",city,"Charlotte, NC",United States
60,25.48201463,65.01176720000001,Deattn Photos,750547321457344512,2020-02-15 17:05:53,"Oulu, Suomi | Finland",city,"Oulu, Suomi",Suomi
171,125.14252749999999,6.144298,-,750547380,2020-02-14 11:24:59,,city,"Gen. Santos City, Soccsksargen",Republic of the Philippines
42660,-122.205946,47.773496,Kit @ JMoF,750547388,2020-02-26 20:57:07,Seattle,city,"Bothell, WA",United States
151,3.32984429,6.50280494,#YoruBAD-GUY,75054755,2020-02-14 17:12:32,Road 2 Greatness,city,"Lagos, Nigeria",Nigeria
82,77.5584485,12.9231145,subhas,75054768,2020-03-24 03:11:52,"Mandya, India",city,"Bengaluru South, India",India
117,58.4641695,23.549159000000003,Biju,75054779,2020-04-28 18:19:34,,city,"Muscat, Oman",Oman
42200,-119.85796200000001,34.409606,Mr. Peanutbutter ,750548194463977473,2020-04-25 20:56:35,"Isla Vista, CA",poi,Isla Vista Beach,United States
175,39.2541285,21.5857105,,750548299,2020-03-23 22:42:35,Jeddah.,city,",   ",  
33,-70.6596155,-33.4521615,Joel Sarxariri,750548465181159428,2020-03-11 14:56:23,Metropolitana de Santiago,city,"Santiago, Chile",Chile
175,39.2541285,21.5857105,   ,750549229,2020-02-20 03:43:16,,city,",   ",  
171,125.14252749999999,6.144298,wxtch,750549276527329281,2020-03-12 01:53:23,"Polomolok, Rehiyon ng SOCCSKSA",city,"Gen. Santos City, Soccsksargen",Republic of the Philippines
42020,-120.664965,35.27480900000001,Alikuhhh,750549332928106497,2020-02-17 03:18:38,,city,"San Luis Obispo, CA",United States
29620,-84.49235469,42.72808799,Justin P. Leonard,75054954,2020-02-26 18:03:41,"DeWitt, MI",city,"East Lansing, MI",United States
31080,-118.728897,34.0240975,hj,750549548980965376,2020-02-23 01:22:01,,city,"Malibu, CA",United States
35620,-73.9685415,40.780709,liv,750549558808240128,2020-02-19 04:17:59,,city,"Manhattan, NY",United States
45300,-82.44269399999997,27.9965945,kait,750549860,2020-02-20 16:28:38,"Tampa, FL",city,"Tampa, FL",United States
36740,-81.3677725,28.5016785,kait,750549860,2020-05-17 21:42:26,"Tampa, FL",city,"Orlando, FL",United States
45300,-82.479513,28.087675,kait,750549860,2020-05-20 01:44:23,"Tampa, FL",city,"Lake Magdalene, FL",United States
21,-43.018208,-22.821465, Barboosa ,750549926250156033,2020-02-24 15:12:20,"Nicholas , meu balde",city,"So Gonalo, Brasil",Brasil
119,-99.153366,19.432835999999998,carlos cruz suazo,75055021,2020-02-25 14:15:56,ciudad de mexico,city,"Cuauhtmoc, Distrito Federal",Mexico
37340,-80.79363199999999,28.5189,Vance Fundora,750550302546427905,2020-02-23 17:43:45,"Miami, FL",poi,Space Coast Regional Airport (TIX),United States
33100,-80.2333285,25.7823535,Vance Fundora,750550302546427905,2020-04-03 22:33:12,"Miami, FL",city,"Miami, FL",United States
31080,-118.741115,34.04599399999999,Vance Fundora,750550302546427905,2020-05-06 03:25:52,"Miami, FL",city,"Malibu Hills, CA",United States
82,75.80655250000002,18.897235,SURYAKANT RASAL,750550309743824896,2020-05-08 14:15:22,beed,city,"Bid, India",India
242,120.9558625,24.2208365,gepa,750550698,2020-05-14 06:20:13,"Taichung City, Taiwan",city,"Taichung City, Taiwan",Taiwan
14460,-70.9820655,42.367751500000004,Ariana Caggiano,75055083,2020-02-15 02:07:19,"winthrop, ma",city,"Winthrop, MA",United States
21,-48.55507998,-20.54131176,Eryck Suleiman,750550897,2020-02-18 16:07:08,"Barretos, Brasil",city,"Barretos, Brasil",Brasil
47180,-87.49032199999998,38.6806135,matthew,750550975,2020-02-22 14:31:22,"Indiana, USA",city,"Vincennes, IN",United States
31080,-118.4119065,34.0207895,hottgyaal,750551031185022976,2020-02-14 03:03:03,,city,"Los Angeles, CA",United States
12420,-97.9351915,29.8956065,Pikey Promise,750551508052238336,2020-02-22 14:05:25,,city,"San Marcos, TX",United States
18620,-96.4765385,32.092979,Pikey Promise,750551508052238336,2020-03-25 20:48:41,,city,"Corsicana, TX",United States
38,-75.57140600000001,6.206817,Nicols Forero Puello,750551555095552004,2020-02-15 04:25:23,"Medelln, Colombia",poi,Globant-one Plaza,Colombia
40380,-77.74743199999999,43.106881,Adam Phelan,750551886,2020-02-18 15:56:13,3 spartan way,city,"Chili Center, NY",United States
21,-51.177201000000004,-29.915337,Amanda De Oliveira,750551888358150144,2020-02-18 04:53:01,"Canoas, Brasil",city,"Canoas, Brasil",Brasil
222,112.65528436,-7.97499843,daliiiitttt,750551924,2020-03-30 08:16:45,"Malang, Jawa Timur",city,"Kedungkandang, Indonesia",Indonesia
21,-42.802852,-18.8562305,Agridoce,750552090620076032,2020-02-14 00:45:58,Belo Horizonte/MG,city,"Guanhes, Brasil",Brasil
21,-41.94374698,-18.85286719,Mrio Jorge Coelho,75055217,2020-02-16 11:47:26,Governador Valadares MG Brasil,city,"Governador Valadares, Brasil",Brazil
41860,-122.419,37.7793,Mrio Jorge Coelho,75055217,2020-03-26 14:54:09,Governador Valadares MG Brasil,city,"San Francisco, CA",United States
39300,-71.31262199999999,41.488002,Mrio Jorge Coelho,75055217,2020-03-28 22:12:23,Governador Valadares MG Brasil,city,"Newport, RI",United States
31080,-118.3136344,34.09073173,Mrio Jorge Coelho,75055217,2020-03-29 23:21:57,Governador Valadares MG Brasil,city,"Los Angeles, CA",United States
21,-41.9435864,-18.8669139,Mrio Jorge Coelho,75055217,2020-03-30 22:31:04,Governador Valadares MG Brasil,city,"Governador Valadares, Brasil",Brazil
200,28.978144,41.007932000000004,Mrio Jorge Coelho,75055217,2020-04-18 21:33:57,Governador Valadares MG Brasil,city,"stanbul, Trkiye",Turkey
21,-46.6333,-23.55,Mrio Jorge Coelho,75055217,2020-04-19 18:49:32,Governador Valadares MG Brasil,city,"Sao Paulo, Brazil",Brazil
41740,-117.10498899999999,32.810012,TS JANE  Birthday Month!!,750552263794520064,2020-02-18 19:39:58,SAN DIEGO/WORLDWIDE,city,"San Diego, CA",United States
33340,-87.9672925,43.0567225,TS JANE,750552263794520064,2020-03-16 21:46:29,"On A Beach, Somewhere...",city,"Milwaukee, WI",United States
41740,-117.10498899999999,32.810012,TS JANE,750552263794520064,2020-03-22 17:57:34,"On A Beach, Somewhere...",city,"San Diego, CA",United States
88,136.148393,36.030186,,750552347789651968,2020-02-24 02:12:36,,poi,SUPER CENTER PLANT-3 ,
26420,-94.9028,29.3932,Sicky,750552716,2020-03-25 02:39:25,,city,"Texas City, TX",United States
171,121.108852,14.188623000000002,ralphy ,750552958476124160,2020-02-20 03:48:40,,city,"Calamba City, Calabarzon",Republic of the Philippines
21,-45.490088,-23.6210005,Allan GUERRA Gomes,750553095252373504,2020-05-20 17:33:15,Brasil,city,"Caraguatatuba, Brasil",Brasil
9,153.039851,-27.496705,,750553279529160706,2020-04-04 07:38:53,"Woolloongabba, Brisbane",poi,Buranda Railway Station,Australia
19820,-83.23666449999997,42.0629805,Fernando Gomez,750553542,2020-02-21 09:10:18,,city,"Rockwood, MI",United States
48,-68.623478,18.725815,Fernando Gomez,750553542,2020-03-13 05:29:43,,city,"Higey, Dominican Republic",Dominican Republic
19820,-83.23666449999997,42.0629805,Fernando Gomez,750553542,2020-03-21 05:17:33,,city,"Rockwood, MI",United States
19740,-104.949845,39.9054745,Evil Queen,750553820330090497,2020-02-15 05:14:47,"Denver, CO",city,"Thornton, CO",United States
21,-42.897365,-22.7536955,FLUMINENSE ,750553964576473092,2020-02-24 21:35:06,"So Gonalo, Brasil",city,"Itabora, Brasil",Brasil
19100,-96.6021425,32.7749375,Kaless_,750553969269899270,2020-04-02 20:11:44,,city,"Mesquite, TX",United States
173,49.1667,55.7833,Igor Zakharov,750553972507836416,2020-03-26 22:28:40,,city,", ",
35620,-74.19652450000002,40.662479,By Sir. Alienson,750554105429491713,2020-03-26 00:58:16,,city,"Elizabeth, NJ",United States
21,-47.03021800000001,-22.8949945,COBRO,75055416,2020-02-18 11:42:45,Brasil,city,"Campinas, Brasil",Brasil
88,139.73263298,35.66309621,sasuke,750554231015346176,2020-02-17 06:34:50,,city, ,
82,88.352242,22.6127055,Anshu Gupta,750554382618460160,2020-04-17 11:52:50,"kolkata, India",city,"Kolkata, India",India
82,78.95669699999998,10.525469,Appas Ansha,750554461765066752,2020-02-18 18:31:44,Pudukkottai ,city,"Pudukkottai, India",India
41740,-117.3799,33.1917,Noah MacKrille,750554644150124544,2020-02-22 18:15:19,"Cedar Park, TX",city,"Oceanside, CA",United States
158,173.48841149999996,-35.0335875,Brent Haverfield,750554886,2020-03-08 19:45:00,Manly - Sydney - Australia,city,"Far North District, New Zealand",New Zealand
9,151.21217528,-33.91791518,Brent Haverfield,750554886,2020-05-11 22:31:31,Manly - Sydney - Australia,city,"Sydney, New South Wales",Australia
30940,-84.10889399999999,37.144966,jfern,75055501,2020-03-01 20:27:49,,poi,White Castle,United States
24860,-82.3422685,34.7959415,jfern,75055501,2020-04-05 03:35:27,,city,"Greenville, SC",United States
119,-106.16289850000001,28.941866,Trompija,750555412013998081,2020-03-30 08:05:42,"Chihuahua, Mxico",city,"Chihuahua, Mxico",Mxico
65,4.072346,45.601749,Brouilloux,750555508130603008,2020-04-05 13:19:17,,city,"Montbrison, France",France
31860,-93.9992845,44.16514,Brandon Laborde,750556615,2020-02-26 17:19:01,"Rapidan, MN",city,"Mankato, MN",United States
34980,-86.791549,36.200008000000004,Brandon Laborde,750556615,2020-03-15 08:26:36,"Rapidan, MN",city,"Nashville, TN",United States
24,-73.723025,45.5578305,Valiente.,750557036,2020-04-14 04:30:46,Canad,city,"Montral, Qubec",Canad
9,145.0531355,-37.9725665,Diana,750557166268997632,2020-06-06 06:33:38,,city,"Melbourne, Victoria",Australia
19820,-82.93591550000001,42.509768,Kennedy,750557217284390912,2020-04-17 21:53:13,"Detroit, MI",city,"Roseville, MI",United States
35620,-73.9487755,40.655138,Eli Rudy,750557377,2020-02-26 18:28:20,"New York, USA",city,"Brooklyn, NY",United States
41860,-122.2795215,37.875845500000004,Eli Rudy,750557377,2020-05-08 16:29:40,"New York, USA",city,"Berkeley, CA",United States
35620,-73.9487755,40.655138,Eli Rudy,750557377,2020-06-07 21:19:12,"New York, USA",city,"Brooklyn, NY",United States
95,126.83555449999999,37.307038500000004,  ,750557479,2020-02-14 04:29:01,s s   ,city, ,
175,46.685077,24.7219435,,750557761050669056,2020-02-28 20:55:56,  dad,city,",   ",  
88,139.775072,35.701987,TeddyLoid,75055786,2020-03-22 13:43:19,"Tokyo , Japan , Los Angeles",poi,MOGRA,
38,-75.6123815,4.811547,Paola Villegas,750557950188609541,2020-02-15 04:39:02,"Manizales, Colombia",city,"Santa Rosa de Cabal, Colombia",Colombia
12540,-119.2719575,35.75781449999999,catherine,750558065162944512,2020-02-24 04:59:21,"Delano, CA",city,"Delano, CA",United States
35620,-74.00076130000001,40.7207559,Megan Gelson,750558716626362369,2020-05-05 19:31:01,"Hull, UK",city,"Manhattan, NY",United States
91,36.708234499999996,-1.3770995000000001,muratha kinuthia,75055902,2020-04-14 08:28:08,,city,"Ngong, Kenya",Kenya
205,-0.278464,51.390063,Sydney - stay inside!,750559063692414976,2020-03-31 01:17:48,"Kingston upon Thames, London",city,"Kingston upon Thames, London",United Kingdom
82,76.9041855,15.224134,  (Badri Shashimath),750559264922537984,2020-03-27 13:23:50,"Bellary, India",city,"Bellary, India",India
88,139.220853,37.64365700000001,,750559362704412672,2020-03-11 23:59:06,  ,city, ,
222,106.827359,-6.23353,salshabillah,750559656792190976,2020-02-14 13:29:07,"Depok, Indonesia",poi,AXA Financial indonesia,Indonesia
222,110.37981,-7.783057, ,750559916,2020-03-01 06:27:41,kv,poi,Mac Mohan Supra,Indonesia
82,73.88438199999999,18.520764,nilesh nimbalkar,750560049957928961,2020-03-02 16:17:32,"Pune, India",city,"Pune, India",India
82,75.0508035,31.664547499999998,Sam Grumont,750560105108738048,2020-02-29 13:28:29,,city,"Amritsar, India",India
9,144.2195065,-37.0708745,Sam Grumont,750560105108738048,2020-03-05 06:53:56,,city,"Castlemaine, Victoria",Australia
119,-113.39268349999999,27.203792,C.PAPI :),750560253343834112,2020-02-21 20:00:40,"California, USA",city,"Muleg, Baja California Sur",Mexico
171,120.91858,14.185065000000002,HJ,750560280971706372,2020-05-02 10:44:56,"General Trias, Calabarzon",city,"Amadeo, Calabarzon",Republic of the Philippines
21,-48.6231815,-27.0077815,"Hi, Carlos",750560345333370881,2020-02-14 02:51:21,"Balnerio Cambori, Brasil",city,"Balnerio Cambori, Brasil",Brasil
88,139.87610800000002,35.691683000000005,,750560474,2020-03-11 16:16:12,,city, ,
12700,-70.19519650000001,41.66541150000001,NRHS DECA Corp.,750560509,2020-02-16 00:08:08,"Bolton, MA",city,"South Yarmouth, MA",United States
14460,-71.0887125,42.3136695,NRHS DECA Corp.,750560509,2020-02-28 16:49:52,"Bolton, MA",city,"Boston, MA",United States
41940,-121.967821,37.370990000000006,Caitlin Marie Tedrow,750561100706508801,2020-02-14 06:09:32,,city,"Santa Clara, CA",United States
33700,-120.8624785,37.499596000000004,Caitlin Marie Tedrow,750561100706508801,2020-02-21 19:35:43,,city,"Turlock, CA",United States
41940,-121.967821,37.370990000000006,Caitlin Marie Tedrow,750561100706508801,2020-03-15 07:35:51,,city,"Santa Clara, CA",United States
35620,-73.9487755,40.655138,kyearah,750561616555610112,2020-03-01 12:41:49,"Brooklyn, NY",city,"Brooklyn, NY",United States
45940,-74.665028,40.34965,kyearah,750561616555610112,2020-03-21 04:55:56,"Brooklyn, NY",city,"Princeton, NJ",United States
35620,-73.9487755,40.655138,kyearah,750561616555610112,2020-03-24 22:29:59,"Brooklyn, NY",city,"Brooklyn, NY",United States
45940,-74.665028,40.34965,kiki ,750561616555610112,2020-05-26 18:03:16,"Brooklyn, NY",city,"Princeton, NJ",United States
88,135.50315600000002,34.667868,,750561722491138053,2020-03-13 23:59:09, ,poi, ,
19100,-96.5867495,32.973067,Jessica Taylor,750561739,2020-04-24 20:56:03,,city,"Sachse, TX",United States
205,-0.216108,51.498387,Matthew Cruickshank,750561806557511681,2020-02-14 11:05:23,"California, USA",city,"Hammersmith, London",United Kingdom
41860,-122.43597849999999,37.7706565,Matthew Cruickshank,750561806557511681,2020-03-05 00:28:57,"California, USA",city,"San Francisco, CA",United States
14460,-71.157988,42.370199,Liz Townsend,75056182,2020-03-03 15:04:30,,poi,Hellenic Cultural Center,United States
171,121.08234499999999,14.5833065,meow,750562002750337025,2020-02-14 02:23:59,Pasig City,city,"Pasig City, National Capital Region",Republic of the Philippines
88,139.7091805,35.701657,,750562190319558656,2020-02-14 10:11:49, ,city, ,
31080,-118.1567105,33.809171500000005,WSAV,750562820442521600,2020-02-14 07:30:45,"WESTSIDE Long Beach, CA",city,"Long Beach, CA",United States
42660,-122.34122749999999,47.63170750000001,Brandon,750562870845403137,2020-06-01 11:58:12,"Seattle, WA",neighborhood,"Westlake, Seattle",United States
188,37.201109499999994,19.6115645,O_Hussain86,750562907939807233,2020-04-15 07:43:26,,city,Port-Sudan,
31080,-118.4119065,34.0207895,Karter | FrigidBitch,750563019588046848,2020-02-22 19:55:04,"Los Angeles, CA",city,"Los Angeles, CA",United States
164,-8.575350499999999,39.167993,Cristiane Oliveira,7505632,2020-02-25 10:20:55,RJ,city,"Almeirim, Portugal",Portugal
82,77.332316,28.128646999999997,Devi Chitralekhaji,750563567531851777,2020-04-09 15:35:56,Hodal Palwal Haryana National ,poi,Palwal Court,
175,39.2541285,21.5857105,Wannan,750563671,2020-02-23 20:53:11,Jeddah,city,",   ",  
171,120.9839865,14.5914565,pauline lachica,750563844,2020-03-03 13:56:15,Isabela | Manila,city,"Manila City, National Capital Region",Republic of the Philippines
205,-2.117323,53.391344999999994,Cath Brady,750563982,2020-04-30 13:13:43,,poi,Offerton,United Kingdom
88,136.9064285,35.124408,,750564718167879680,2020-03-12 06:44:09,,city,  ,
71,8.46608333,49.49979167,Sebastian Hochwarth,75056509,2020-02-16 00:12:03,Ludwigshafen,city,"Mannheim, Deutschland",Deutschland
173,37.42764250000001,55.7547875,Sliff,75056518,2020-02-25 08:11:35,"Russia, Moscow",city,", ",
48,-69.97159400000001,19.5791895,Sliff,75056518,2020-03-06 13:11:03,"Russia, Moscow",city,"Cabrera, Dominican Republic",Dominican Republic
173,37.42764250000001,55.7547875,Sliff,75056518,2020-03-12 00:27:46,"Russia, Moscow",city,", ",
18980,-86.870635,34.112309499999995,HALEY,750565334,2020-04-20 01:12:12,Alabama ,city,"Good Hope, AL",United States
46220,-87.5334065,33.1966005,HALEY,750565334,2020-05-15 01:54:27,Alabama ,city,"Tuscaloosa, AL",United States
8,-58.442643,-34.604315,Martin Gallardo,750565366833774592,2020-02-14 09:11:21,"La Boca, Argentina ",city,"Ciudad Autnoma de Buenos Aires, Argentina",Argentina
26420,-95.4464865,29.838495,jvy,750565613819596800,2020-04-06 20:09:20,My mind,city,"Houston, TX",United States
175,46.685077,24.7219435,Tareq Alshehri,750565690810269697,2020-02-27 18:52:42,",   ",city,"Riyadh, Kingdom of Saudi Arabia",Kingdom of Saudi Arabia
35620,-74.574653,40.6038875,roy stringcheese!,750565846368616448,2020-03-14 05:55:59,makarakarn,city,"Martinsville, NJ",United States
82,79.55285599999998,29.198377,JAGDISH PANDEY,750566252817637376,2020-05-20 00:28:07,"New Delhi, India",city,"Haldwani-Kathgodam, India",India
8,-58.43585,-34.606438,Vlez Sub del Hincha,750566587,2020-02-23 12:06:40,"Liniers, Capital Federal",poi,Buenos Aires,Argentina
171,121.0627355,14.683012,,750566861926981632,2020-03-31 11:02:59,c,city,"Quezon City, National Capital Region",Republic of the Philippines
205,-1.165898,53.082356499999996,Diana Brown,750567021973307392,2020-02-24 12:03:43,,city,"Ravenshead, England",United Kingdom
21,-43.446886000000006,-22.8025775,DON Ron@ldo De la Vega91_MEX,750567073,2020-05-16 14:40:03,Rio de janeiro,city,"Mesquita, Brasil",Brasil
120,116.10526000000002,5.9336,azaria.leigh,75056720,2020-06-08 04:35:59,heart belongs in beaufort,city,"Kota Kinabalu, Sabah",Malaysia
82,86.008985,20.369460500000002,Bhabani Sankar Sethy,75056765,2020-04-29 06:48:18,"Bhubaneshwar, India",city,"Cuttack, India",India
82,77.095086,28.638489500000002,Shivam Maurya,750568044284575744,2020-02-24 04:49:41,Noida,city,"New Delhi, India",India
168,55.471038799999995,-20.892660100000004,Vish Kistnah,750568315819622403,2020-04-24 13:33:08,Republic of Mauritius,city,"Saint-Denis, La Runion",La Runion
205,-0.44280323,51.47153317,Vish Kistnah,750568315819622403,2020-05-25 07:45:09,Republic of Mauritius,city,"Hillingdon, London",United Kingdom
222,107.61701000000001,-6.869075,ma,750568880,2020-03-11 07:32:54,+62,poi,Budaraa | Kozi 2.0,Indonesia
28940,-83.9638415,35.982470500000005,Mackenzie Walters,750568923297439744,2020-02-14 03:28:06,"Knoxville, TN",city,"Knoxville, TN",United States
9,145.0422836,-37.8895005,Asemeyibo Buowari,75056904,2020-03-26 10:28:32,,city,"Melbourne, Victoria",Australia
38900,-122.770073,45.376468,lacey thurley,750569136292585473,2020-04-05 04:58:35,"Tualatin, OR",city,"Tualatin, OR",United States
39300,-70.8733445,41.625172,emilie ,750569317243248641,2020-02-25 20:22:06,"Acushnet, MA",city,"Fairhaven, MA",United States
91,36.9596,-1.4262005,Judy Wairimu,750569321345257472,2020-02-25 18:52:30,"Nairobi, Kenya",city,"Athi River, Kenya",Kenya
46340,-95.31704,32.315661500000004,Bri,750569332657254401,2020-02-24 05:02:52,ETX,city,"Tyler, TX",United States
82,72.57023199999999,23.013959,Baljinder Kumar,750569513830256640,2020-04-22 17:11:23,,city,"Ahmadabad City, India",India
38060,-111.7385665,33.295215,robb mansfield,75056966,2020-06-02 23:50:32,,city,"Gilbert, AZ",United States
119,-97.7743605,18.926374499999998,Michel Snchez Prez,750569730,2020-02-29 18:07:13,"Huixcolotla, Pue.",city,"San Salvador Huixcolotla, Puebla",Mxico
222,107.29898700000001,-6.3237190000000005,dian,750569935,2020-03-13 12:40:33,Indonesia,poi,"Teluk jambe ,karawang",Indonesia
22900,-94.3099345,35.335646000000004,Darin Davenport,750569952617398272,2020-04-20 03:43:53,"Fort Smith, AR",city,"Barling, AR",United States
24620,-82.84830099999998,36.14116,Christy Moore,75057034,2020-02-14 02:31:04,"Tennessee, USA",city,"Greeneville, TN",United States
34980,-86.809822,36.140908,Christy Moore,75057034,2020-02-22 15:36:35,"Tennessee, USA",poi,Vanderbilt Track & Field,United States
28940,-83.9638415,35.982470500000005,Christy Moore,75057034,2020-02-23 00:13:59,"Tennessee, USA",city,"Knoxville, TN",United States
24620,-82.84830099999998,36.14116,Christy Moore,75057034,2020-02-23 02:27:02,"Tennessee, USA",city,"Greeneville, TN",United States
42940,-83.76864549999998,35.8771845,Christy Moore,75057034,2020-03-15 21:38:16,"Tennessee, USA",city,"Seymour, TN",United States
24620,-82.84830099999998,36.14116,Christy Moore,75057034,2020-03-16 00:39:12,"Tennessee, USA",city,"Greeneville, TN",United States
175,46.685077,24.7219435,' O',750570554806169605,2020-05-29 19:55:30,", ",city,",   ",  
19100,-97.2859135,32.7799665,Brayden Hodgest,750570675929251840,2020-02-15 17:36:08,The Ring,city,"Fort Worth, TX",United States
8,-58.56449,-34.4587225, ,750570919,2020-02-19 01:40:13,Donde nadie sabe de mi. ,city,"San Fernando, Argentina",Argentina
119,-109.76626850000001,23.269879,Rosella Banderas Gandara,75057094,2020-02-15 05:47:29,"Cabo San Lucas,BCS",city,"Los Cabos, Baja California Sur",Mexico
208,-55.738128,-34.773666,SebaGnzr,75057117,2020-06-05 19:17:25,Uruguay,poi,Playa Las Toscas,Uruguay
31080,-118.591898,34.185303999999995,caca,750571450931802112,2020-02-19 03:33:20,"Los Angeles, CA",poi,Your Moms House,United States
71,6.7333405000000015,53.588465500000005,Borkum,75057169,2020-02-14 11:07:40,"Borkum, Germany",city,"Borkum, Deutschland",Deutschland
120,102.2989755,2.2501729999999998,ashraf weirdo ,750571819,2020-03-20 17:38:40,,city,"Bukit Katil, Melaka",Malaysia
96,48.110009000000005,29.195233,H,750571886,2020-02-23 16:33:06,Kuwait,poi,Tiramixu Cafe,Kuwait
82,77.4044755,23.272495000000003,Ravi Narayan,75057189,2020-05-06 13:36:31,,city,"Bhopal, India",India
33100,-80.13296249999998,25.8169655,Nati,750572245,2020-02-22 18:24:29,USA,city,"Miami Beach, FL",Estados Unidos
33100,-80.1936,25.7751,DANIEL L,75057265,2020-04-26 18:38:11,"Miami, FL",city,"Miami, FL",Estados Unidos
9,144.749764,-36.136500500000004,Ash Weldon,750572731368873989,2020-04-24 14:53:21,"Echuca, Victoria",city,"Echuca, Victoria",Australia
120,101.7874095,3.0549095,apittt,750572737,2020-03-24 07:40:31,Malaysia,city,"Cheras, Selangor",Malaysia
171,124.4948135,8.47264,PINYA.,750572822146195459,2020-02-15 01:04:03,,city,"El Salvador, Northern Mindanao",Republic of the Philippines
222,108.1793065,-6.7551245,dkbbh_,750572923442831361,2020-05-23 15:39:53,"Majalengka, Indonesia",city,"Kadipaten, Indonesia",Indonesia
18140,-82.985772,39.9946835,Mesfin Atalay,750573286677938176,2020-03-07 06:28:07,"Columbus, OH",city,"Columbus, OH",United States
88,139.614344,35.141636,,750573502483271680,2020-02-26 06:35:02,,poi, (/),
82,72.91801,19.377516500000002,Sunita Lobo,750574039148720128,2020-02-14 14:14:52,"Thane, India",city,"Thane, India",India
128,4.3581900000000005,51.2605565,TimBroddin,7505742,2020-05-08 18:56:05,"Antwerp, Belgium",city,"Antwerp, Belgium",Belgium
38,-76.49608,3.364182,LUIS BENAVIDES,750574634,2020-06-05 14:19:07,"Tulu, Valle del Cauca",city,"Candelaria, Colombia",Colombia
82,86.1755555,22.263447,Vinit Agarwal,750576226788605952,2020-04-03 12:05:32,", ",city,"Rairangpur, India",India
211,-66.815766,10.485083,Carlos Mijares,75057635,2020-05-13 15:04:04,"Caracas, Venezuela",city,"Petare, Venezuela",Venezuela
88,135.5212205,34.787812, Vs Team Flog,750576572629913604,2020-02-14 00:13:07, ,city, ,
47260,-76.01156800000001,37.222590000000004,Frondelli,750576726,2020-03-28 03:02:48,,poi,Earth,United States
36740,-81.651338,28.352158000000003,Frondelli,750576726,2020-05-28 02:36:04,,city,"Four Corners, FL",United States
47260,-76.255686,36.895082,Frondelli,750576726,2020-06-10 00:38:14,,city,"Norfolk, VA",United States
91,36.9819755,-1.1780745,KenyaLittleLeague,750576962,2020-02-16 05:35:09,"Nairobi, Kenya",city,"Ruiru, Kenya",Kenya
8,-58.647999,-34.443915999999994,Deb Villalba,750576974687563776,2020-03-08 15:23:11,Argentina,city,"Tigre, Argentina",Argentina
49,-80.87048949999998,-1.109478,Gustavo A.,750577596,2020-02-18 15:41:00,"Manta, Ecuador",city,"Manta, Ecuador",Ecuador
21,-47.794358,-22.7106265,Franze Faria,75057764,2020-02-14 02:19:52,"So Jos Campos/SP , Brasil",city,"Piracicaba, Brasil",Brasil
178,28.060613,-26.058708,Alexandra Abada,750577850709864450,2020-04-01 07:26:31,"Cape Town, South Africa",city,"Sandton, South Africa",South Africa
171,124.62850049999999,8.376078499999998,E,750578481252163585,2020-03-28 06:13:41,"Cagayan De Oro City, Northern ",city,"Cagayan De Oro City, Northern Mindanao",Republic of the Philippines
205,-1.8906405,52.493966500000006,Malesela Ledwaba,750578665319170054,2020-02-23 20:12:26,"Birmingham, England",city,"Birmingham, England",United Kingdom
205,-4.307883,55.852956000000006,E,75057886,2020-04-21 14:01:04,,poi,Ibrox Stadium,United Kingdom
12060,-84.43310600000001,33.7671945,Chrissy Nichole ,750578877228060672,2020-02-26 17:24:57,"Atlanta, GA",city,"Atlanta, GA",United States
31340,-79.179013,37.4009555,Esther Lusenge,750579096,2020-03-31 20:31:01,"Virginia, USA",city,"Lynchburg, VA",United States
151,3.9052964999999995,7.4290745,Tobby Richards,750580078506086400,2020-02-22 18:21:39,"Lagos, Nigeria ",city,"Ibadan, Nigeria",Nigeria
21,-43.1975,-22.908,Marcos Felipe,75058033,2020-05-25 21:03:39,Rio de Janeiro,city,"Rio de Janeiro, Brasil",Brasil
82,78.99475749999998,25.535289000000002, Rinku Dixit,750580346983415808,2020-06-05 08:13:22,", ",city,"Tahrauli, India",India
41740,-117.10498899999999,32.810012,pmaikai,750580358463315968,2020-02-14 04:52:18,Unceded Kumeyaay Territory,city,"San Diego, CA",United States
40140,-117.39761599999999,33.935821999999995,pmaikai,750580358463315968,2020-02-16 21:59:10,Unceded Kumeyaay Territory,city,"Riverside, CA",United States
31080,-117.716173,34.1190165,pmaikai,750580358463315968,2020-02-20 21:57:39,Unceded Kumeyaay Territory,city,"Claremont, CA",United States
40140,-117.39761599999999,33.935821999999995,pmaikai,750580358463315968,2020-02-21 18:21:04,Unceded Kumeyaay Territory,city,"Riverside, CA",United States
41740,-117.10498899999999,32.810012,pmaikai,750580358463315968,2020-02-22 05:55:22,Unceded Kumeyaay Territory,city,"San Diego, CA",United States
40140,-117.294096,34.134925,francis,750580421092601856,2020-02-14 20:27:15,alpha phi,city,"San Bernardino, CA",United States
21,-42.1347125,-22.9346425,mari,750580589309390850,2020-02-15 14:08:01,"Rio das Ostras, Brasil",city,"Arraial do Cabo, Brasil",Brasil
35620,-74.184848,40.734494,Chelsea (C-Dog),750580832859979776,2020-06-05 07:17:52,Somewhere Daydreaming  ,city,"Newark, NJ",United States
82,85.217741,25.601514,Abhishek Kant,75058097,2020-03-10 14:54:41,,poi,Yo! China,India
27260,-81.465551,30.28622,Leighton Hoey,750581017,2020-03-27 19:39:23,,poi,The Pool,United States
82,77.4044755,23.272495000000003,Shivam Tiwari,750581215,2020-03-23 06:52:15,"Madhya Pradesh, India",city,"Bhopal, India",India
171,121.033212,14.5464995,emily ,750581786179174400,2020-05-28 16:30:58,http://twitch.tv/miipai,city,"Makati City, National Capital Region",Republic of the Philippines
82,88.352242,22.6127055,SUPARNA PAUL. ,750582036381966336,2020-02-14 03:21:56,"Kolkata, India",city,"Kolkata, India",India
88,140.95885950000005,38.275952,,750582117969649664,2020-02-18 01:59:38,,city,  ,
222,110.4087895,-7.7676955,Henky Yoga Ari Pratama,750582250132148224,2020-04-07 04:41:43,"Metro, Lampung, Indonesia",city,"Depok, Indonesia",Indonesia
33100,-80.32799849999999,26.0278895,1,750582479581487108,2020-02-28 21:36:56,"Davie, FL",city,"Pembroke Pines, FL",United States
171,121.1242275,14.606717499999998,Vadsi,750582997443829761,2020-02-14 02:57:58,,city,"Cainta, Calabarzon",Republic of the Philippines
32820,-89.8494555,34.9563885,S Js ,75058308,2020-02-14 23:02:30,"Olive Branch, MS",city,"Olive Branch, MS",United States
205,-0.882951,52.238853999999996,Koushik,75058325,2020-02-28 20:54:59,"England, United Kingdom",city,"Northampton, England",United Kingdom
88,139.733403,35.662221,@,750583346,2020-02-16 10:35:50,,poi,BrewDog Roppongi,
193,100.49346,13.70006,Day@Hond101,750583364613201921,2020-02-23 11:11:31,Banglol,city,", ",
65,2.35515098,48.8239721,Day@Hond101,750583364613201921,2020-04-19 14:54:53,Banglol,city,"Paris, France",France
205,-2.3495665,53.4753035,,750583547967238148,2020-02-14 01:50:09,"Leeds, England",city,"Salford, England",United Kingdom
96,48.014305,29.274776,,750583547967238148,2020-04-29 17:41:01,"Leeds, England",poi,    ,Kuwait
193,100.559009,13.778016,,750583592611418112,2020-03-26 14:54:39,"Bangkok, ",city,", ",
21,-39.6971778,-12.1780281,Alonso Oliveira Neto,75058368,2020-03-24 21:23:53,por a...,city,"Ipir, Brasil",Brasil
21,-47.5736535,-5.3899099999999995,junior mazolli ,75058373,2020-02-25 19:12:14,Araguatins-TO,city,"Imperatriz, Brasil",Brasil
82,78.3852855,17.3950375,Vishal lohiya,750583737709125634,2020-03-22 03:29:23,"jodhpur, Rajasthan ",city,"Rajendra Nagar, India",India
42660,-122.20318936,47.61018887,Alexey,75058383,2020-02-14 03:46:49,"Minsk, Belarus",city,"Bellevue, WA",United States
31080,-118.37494,34.07294,Alexey,75058383,2020-02-17 05:27:16,"Minsk, Belarus",city,"Los Angeles, CA",United States
12060,-84.39486082,33.75779922,Alexey,75058383,2020-02-23 18:26:35,"Minsk, Belarus",city,"Atlanta, GA",United States
31080,-118.40560198,33.94332434,Alexey,75058383,2020-03-07 20:56:17,"Minsk, Belarus",city,"Los Angeles, CA",United States
186,-5.6919445,43.509797,Eva Rogado  Cosmtica y Belleza,75058392,2020-02-14 14:03:49,Asturias. Spain,city,"Gijn, Espaa",Espaa
71,8.520513000000001,52.015122,DJ LILBRIEH,75058442,2020-03-26 20:01:12,Bielefeld,city,"Bielefeld, Deutschland",Deutschland
88,139.700553,35.661592,AKORosePetal,750584638834348032,2020-02-29 08:12:46, ,poi,HMV&BOOKS,Japan
49300,-81.934474,40.81569,Daniel R Williams,750585125839208449,2020-02-26 02:57:31,"Wooster, OH",city,"Wooster, OH",United States
65,-2.4928529999999998,48.46198800000001,Yves Clment,750585386926243844,2020-03-18 14:19:05,"Lamballe,  22  France ",city,"Lamballe, France",France
31080,-118.4119065,34.0207895,Adrianna Sandoval,750585668,2020-02-14 06:14:42,"Los Angeles, CA",city,"Los Angeles, CA",United States
222,106.80798999999999,-6.60162,Sari Ruwanti D,750585852,2020-02-23 13:23:33,,city,"Bogor Selatan, Indonesia",Indonesia
222,106.9427665,-6.8424059999999995,retno ambar,750586310579122176,2020-02-29 09:37:04,bumi yang indah,city,"Sukabumi, Indonesia",Indonesia
38,-74.036688,4.7321580999999995,Daniella B. Ch.,75058647,2020-04-01 15:21:35,"Bogot, D.C., Colombia",city,"Bogot, D.C., Colombia",Colombia
82,73.2,22.3,Chakachak,750586499666743297,2020-02-21 03:17:32,,city,"Vododara, India",India
88,139.349842,36.307464,,750586764755099648,2020-05-10 15:21:17,40-13,city, ,
24,-82.20302,42.41637,Len Copeland,75058711,2020-03-26 19:33:21,Chatham ON / Rondeau Park,city,"Chatham-Kent, Ontario",Canada
120,101.73869499999999,3.1614240000000002,Gee_,750587556,2020-03-07 20:40:20,"Kuala Lumpur, Wilayah Persekut",poi,Yahala Restaurant,Malaysia
178,23.071391000000002,-28.320158000000003,Madela,750588189316907012,2020-02-17 18:48:28,"Northern Cape,South Africa",city,"Postmasburg, South Africa",South Africa
171,121.18178200000001,13.939445000000001,Pipo,750588218278641664,2020-02-14 05:00:40,,city,"Lipa City, Calabarzon",Republic of the Philippines
82,76.7782,30.3793,Harpreet,750588372289224704,2020-03-04 06:56:48,Mumbai,city,"Ambala, India",India
222,112.73278775,-7.31251442,TITA,750588918,2020-02-16 12:04:52,"Kota Surabaya, Jawa Timur",city,"Gayungan, Indonesia",Indonesia
160,-76.9785,-12.1333,  ,750589018799218689,2020-05-05 22:29:41,"Lima, Peru",city,"Santiago de Surco, Peru",Peru
88,135.502204,34.7003735,bar @3,750589060805169152,2020-02-14 10:16:25,8-142F,city,  ,
35620,-73.9487755,40.655138,Roger Danforth,75058950,2020-02-15 17:54:31,New York City,city,"Brooklyn, NY",United States
178,28.24308,-26.085862,tinah dzvova,750589604554797056,2020-05-16 23:26:10,,city,"Kempton Park, South Africa",South Africa
26420,-95.4464865,29.838495,Pricila,750590141773807616,2020-03-10 16:34:16,,city,"Houston, TX",United States
82,72.87424399999999,19.174139999999998,Arvind Mishra,750590400725938177,2020-02-26 10:00:35,sitapur up,city,"Mumbai, India",India
205,-2.250699,52.381068,Tim Edwards,75059061,2020-04-30 04:57:35,Kidderminster,city,"Kidderminster, England",United Kingdom
225,55.384795999999994,25.359604,Muhammad Atif Khan,750590718884868097,2020-04-25 18:28:00,"Barhing,Bhimber Azad Kashmir",poi,Heart Of Sharjah /  ,United Arab Emirates
171,120.907503,14.4480255,meowlalisa,750591150281678848,2020-02-29 10:30:05,behindyou,city,"Kawit, Calabarzon",Republic of the Philippines
21,-40.7652095,-20.4331505,CIBIEN,750591430528266242,2020-04-09 04:21:42,"Vila Velha, Brasil",city,"Marechal Floriano, Brasil",Brasil
200,29.642494,38.428703000000006,Okan Can,750591669263884288,2020-03-14 21:59:20,"Uak, Trkiye",poi,cadde cafe,Trkiye
82,77.4044755,23.272495000000003,@RISHSHI SHREEVAS,750591716365860864,2020-05-11 09:03:18,"Bhopal, India",city,"Bhopal, India",India
19740,-104.989567,39.741546,osca,750591846,2020-03-09 02:51:53,"Colorado, USA",poi,7-Eleven,United States
175,39.8016865,21.389833000000007,eng.adel.alwakeel,750591893281640448,2020-03-10 14:41:55,  ,city," ,   ",  
71,6.963493,50.938497,REWE digital,750592078049112065,2020-02-19 16:32:08,Kln,poi,MS Loreley,Deutschland
222,106.82246943,-6.20427623,Achmad Rivai Syahrir,75059213,2020-02-15 11:37:20,"T: -6.125165,106.883602",city,"Tanah Abang, Indonesia",Indonesia
88,137.879262,35.072218500000005,,750592154322472960,2020-03-07 12:43:11, ,city, ,
139,18.840455,42.769647,Mikica Vuini,750592682750271488,2020-04-01 05:52:57,Niki,poi,Slano jezero,Crna Gora
186,3.06380283,41.81575491,Maurici Jimnez,75059275,2020-04-26 12:29:43,Castell d'Aro - Girona,city,"Castell-Platja d'Aro, Espanya",Espanya
21,-39.064457,-12.200165,alline,75059280,2020-04-04 23:44:10,Feira de Santana-bahia,city,"Feira de Santana, Brasil",Brasil
88,139.5298335,36.0267415,PACHI,750592974413758465,2020-05-31 00:51:26,,city, ,
82,77.095086,28.638489500000002,Deep Pandey,750593222,2020-05-04 11:38:38,"New Delhi, India",city,"New Delhi, India",India
186,-1.790589,43.320681,Jose Luis Garcia,750593399883956224,2020-03-12 13:23:50,"Irun, Espaa",city,"Irun, Espaa",Espaa
205,-2.2554814999999997,55.143254000000006,Rachael Moore,750593922330718209,2020-05-01 13:45:44,Northumberland,city,"Bellingham, England",United Kingdom
16980,-87.732013,41.8335845,Claire Kaido,75059413,2020-02-15 23:20:42,"New York, NY",city,"Chicago, IL",United States
82,75.19622700000001,31.2133025,Tejinderjit singh,750594191374295042,2020-05-27 07:12:48,"Sultanpur Lodhi, India",city,"Sultanpur Lodhi, India",India
222,106.63074732,-6.26615775,SCUTO gading serpong,750594215609036800,2020-05-28 04:00:27,"Tangerang, Banten",city,"Legok, Indonesia",Indonesia
37100,-118.91365649999999,34.4029385,angela ,750594355040227329,2020-05-07 05:32:09,,city,"Fillmore, CA",United States
38300,-79.9806895,40.431389,Darian Nicole Green,750594860,2020-02-19 17:26:05,,city,"Pittsburgh, PA",United States
186,-5.65,40.9667,@cdelbosquesalamanca,750595386599931905,2020-05-08 14:52:42,"Salamanca, Espaa",city,"Salamanca, Spain",Spain
120,101.6846865,3.124524,Danny,750595598,2020-02-14 10:48:02,,city,"Kuala Lumpur, Wilayah Persekutuan Kuala Lumpur",Malaysia
31080,-117.92886200000001,33.990221999999996,lilo,750596015871361024,2020-06-06 21:29:16,"Rowland Heights, CA",poi,Peter F. Schabarum Regional Park,United States
88,135.40468900000002,34.423415999999996,,750596172168003585,2020-04-07 03:48:44, ,city, ,
21,-51.1593095,-30.099836,Henrique,75059646,2020-02-14 00:53:20,"Porto Alegre, Brasil",city,"Porto Alegre, Brasil",Brasil
88,140.014262,35.7316915, ,750596502037209088,2020-02-17 14:55:07,,city, ,
119,-99.15234,19.328383,Aquilino Francisco,75059673,2020-03-20 14:37:12,DF,city,"Coyoacn, Distrito Federal",Mxico
26420,-95.3694,29.7602,Chuck Norfolk,750596832,2020-03-18 13:02:17,"Houston, Texas",city,"Houston, TX",United States
82,77.5584485,12.9231145,Pavan K,750596988882849792,2020-05-25 03:41:10,"Bengaluru, India",city,"Bengaluru South, India",India
88,139.745379,35.652789,Cristina Bellido,750597397437358080,2020-03-29 00:15:24,"San Francisco, CA",city,"Minato-ku, Tokyo",Japan
128,4.949773,50.091623,Cristina Bellido,750597397437358080,2020-06-05 17:24:35,"San Francisco, CA",city,"Beauraing, Belgique",Belgium
35380,-90.01100799999999,29.982601000000003,hoe burrow,750597408,2020-02-14 16:20:39,,city,"New Orleans, LA",United States
12940,-91.0907995,30.4591,hoe burrow,750597408,2020-02-18 21:02:48,,city,"Baton Rouge, LA",United States
35380,-90.01100799999999,29.982601000000003,hoe burrow,750597408,2020-02-24 17:49:17,,city,"New Orleans, LA",United States
12940,-91.013039,30.358721000000003,hoe burrow,750597408,2020-03-05 14:09:28,,city,"Old Jefferson, LA",United States
35380,-90.01100799999999,29.982601000000003,hoe burrow,750597408,2020-03-06 17:32:48,,city,"New Orleans, LA",United States
205,-4.051351,52.486312,Erin Kavanagh,750597458451959809,2020-02-23 11:13:54,Ceredigion,poi,Borth Beach,United Kingdom
12420,-97.863458,29.9892425,Eric Henry,750597686,2020-04-29 18:08:50,,city,"Kyle, TX",United States
15980,-81.986834,26.63648,,750597770600472577,2020-05-10 05:28:16,nova,city,"Cape Coral, FL",United States
39460,-82.116175,26.992597999999997,,750597770600472577,2020-05-16 13:12:41,nova,city,"Port Charlotte, FL",United States
15980,-81.986834,26.63648,,750597770600472577,2020-05-16 19:22:38,nova,city,"Cape Coral, FL",United States
13820,-86.79391700000001,33.5422375,Lil'B,750597787,2020-05-19 20:40:30,"Bessemer,Al",city,"Birmingham, AL",United States
29820,-115.223125,36.232915000000006,Farbod Danesh,75059813,2020-02-14 04:28:33,"Las Vegas, NV",city,"Las Vegas, NV",United States
31080,-118.4119065,34.0207895,Farbod Danesh,75059813,2020-04-09 03:48:44,"Las Vegas, NV",city,"Los Angeles, CA",United States
222,112.58476375,-7.89884617,Aby Ranjau,750598196,2020-03-11 02:22:08,Jakarta_Indonesia,city,"Junrejo, Indonesia",Indonesia
82,77.095086,28.638489500000002,The Crypto DJ,750598351016656897,2020-05-30 18:19:47,,city,"New Delhi, India",India
119,-99.14605434,19.433641,Jorge Nava,75059842,2020-03-04 03:26:24,Mexico,city,"Cuauhtmoc, Distrito Federal",Mexico
211,-67.36153,9.912231,Jorge Nava,75059842,2020-03-04 18:26:02,Mexico,city,"San Juan De Los Morros, Venezuela",Venezuela
119,-99.10736,19.34976959,Jorge Nava Quarantino,75059842,2020-05-02 01:08:35,Mexico,city,"Iztapalapa, Distrito Federal",Mexico
164,-8.561306,41.078391499999995,,750598574,2020-03-14 16:10:57,"Porto, Portugal",city,"Vila Nova de Gaia, Portugal",Portugal
171,121.18178200000001,13.939445000000001,APOL,750598729053396992,2020-02-14 11:01:42,"Malvar,Batangas",city,"Lipa City, Calabarzon",Republic of the Philippines
8,-64.1980255,-31.4154565,Cecilia Carolina ,750599210,2020-02-24 02:11:52,"Crdoba, Argentina",city,"Crdoba, Argentina",Argentina
189,20.592823000000003,68.207941,saharsh dronawat,75059926,2020-05-07 09:53:33,"Sector 36, Noida",city,"Kiruna, Sweden",Sweden
88,133.777284,34.285126,,750599714270244864,2020-05-23 03:59:50,,poi, (Sanuki-Shioya Sta.),
186,-3.6419348,40.438742, ~,750599730594537473,2020-03-14 21:06:30,"Madrid, Comunidad de Madrid",city,"Madrid, Espaa",Espaa
85,8.7424,45.6197545,Nico,75060009,2020-02-19 20:39:36,,city,"Ferno, Lombardia",Italia
21,-46.005841499999995,-21.364529,Lu.Oliv,750600604519690240,2020-03-01 13:28:28, Cidade do glitter ,city,"Alfenas, Brasil",Brasil
82,72.91801,19.377516500000002,Ashvini Upadhyay,750600617798893568,2020-03-04 08:43:16,,city,"Thane, India",India
200,41.2221995,37.083607,Merihhh,750600658496135168,2020-03-11 15:18:44,stanbul/ nsaybin,city,"Nusaybin, Trkiye",Trkiye
69,-1.612222,6.693627,breezy_ maybach1,750601154002837504,2020-03-17 02:54:01,"Abuakwa, Ghana",city,"Kumasi, Ghana",Ghana
82,74.736304,34.177133999999995,Naveed Bhat,75060128,2020-05-16 08:24:33,"Sopore, Jammu And Kashmir",city,"Baramula, Jammu And Kashmir",
222,106.8022175,-6.18947,IvanYap,75060140,2020-06-03 10:56:12,,city,"Palmerah, Indonesia",Indonesia
21,-53.831619200000006,-29.663180800000003,licheze,75060174,2020-05-04 12:41:53,santa maria/RS,city,"Santa Maria, Brasil",Brasil
-9999,-61.8117305,44.321234,carla macleod,75060177,2020-04-10 15:27:40,,city,"Halifax, Nova Scotia",Canada
164,-8.0551475,37.214364,NFMK,750601850936782849,2020-05-03 22:29:36,Portugal,city,"Loul, Portugal",Portugal
46060,-110.91557350000001,32.1893905,,750601900660109312,2020-02-26 05:27:56,,city,"Tucson, AZ",United States
41700,-98.608735,29.597217999999998,aBrilcita,750602033317621760,2020-03-14 03:13:08,,poi,Poltergeist,United States
65,-0.58623,44.863738,nlamirault,7506022,2020-02-20 06:28:33,"Bordeaux, France",city,"Bordeaux, France",France
186,-5.5607690000000005,36.2294295,Antonio Roncero,750602548873134080,2020-02-14 17:57:36,"Los Barrios, Espaa",city,"Los Barrios, Espaa",Espaa
82,77.58411894,34.16471869,abhishek gupta,75060269,2020-05-05 09:19:28,new delhi. india,city,"Leh, Jammu And Kashmir",
37100,-119.16538899999999,34.181956,Jackie,750603564918009856,2020-03-25 22:36:35,"Oxnard, CA",city,"Oxnard, CA",United States
21,-43.20909,-22.98489,Luciene Junger,75060384,2020-02-29 20:28:04,,city,"Rio de Janeiro, Brasil",Brasil
12060,-84.5660342,33.41473823,Dr. Chris Andreone,750604375,2020-03-04 12:03:56,Peachtree City,city,"Peachtree City, GA",United States
91,36.882702,-1.285419,Dee,750604382673182720,2020-04-16 10:07:38,"Nairobi, Kenya",poi,Sonko Road,Kenya
171,123.380104,10.790546,Angelo,750604820344508417,2020-05-23 14:37:09,Malibu,poi,Central Bato,Republic of the Philippines
82,86.200901,22.768045,hmp,750605028,2020-02-29 12:41:40,"Ghatshila, Jharkhand",poi,Tatanagar Railway Station,India
33460,-93.4648835,45.1085325,Emily Marsh,750605124,2020-04-15 03:19:58,"Maple Grove, MN",city,"Maple Grove, MN",United States
31080,-118.4119065,34.0207895,Oceankash ,750605357563584513,2020-03-02 20:08:19,"Los Angeles, CA",city,"Los Angeles, CA",United States
41860,-122.2286855,37.791994,Oceankash ,750605357563584513,2020-03-02 20:08:19,"Los Angeles, CA",city,"Oakland, CA",United States
21,-38.5026475,-12.8753345,sarah mello,75060548,2020-03-14 02:46:30,"Rio de Janeiro, Brasil",city,"Salvador, Brasil",Brasil
38260,-94.6962235,37.4057675,Angela Lewis,750605894,2020-04-23 00:44:19,"Pittsburg, KS",city,"Pittsburg, KS",United States
120,110.335847,1.610583,Raian J. ,750606666,2020-03-18 07:57:10,Wakanda,poi,Sumber Alam Sanctuary,Malaysia
205,-1.337269,53.48955700000001,Gala Performance,750606751242870784,2020-02-17 13:39:41,(+44) 01709 803457,city,"Brampton, England",United Kingdom
82,72.87424399999999,19.174139999999998,Ravi V Pandey,750607062535639044,2020-04-05 21:23:08,"Mumbai, India",city,"Mumbai, India",India
8,-58.013021499999994,-34.9363185,Agustn Flores,75060714,2020-02-14 02:13:26,La Plata ,city,"La Plata, Argentina",Argentina
119,-99.153366,19.432835999999998,48R4H4M:),75060717,2020-02-23 13:06:03,"Distrito Federal, Mxico",city,"Cuauhtmoc, Distrito Federal",Mxico
200,32.500079,37.955305,Svari,750607548567420928,2020-02-14 18:32:10,"Konya, Trkiye",city,"Seluklu, Trkiye",Trkiye
82,77.403878,32.0685025,upadhyay Bharat gas,750608446957850624,2020-05-24 08:10:41,katrain,city,"Kullu and Manali, India",India
205,-0.6099479999999999,51.180081,Robinson Buckley (a Headley Group Limited company),750609176993361920,2020-02-14 14:32:18,"Godalming, Eng 01483 426300",city,"Godalming, England",United Kingdom
88,139.75636450000002,35.68688450000001,htomi,750609276511539200,2020-03-13 01:03:42,,city, ,
120,103.33926,3.69688,Fiqri,750609383239802880,2020-05-18 09:25:43,"Kuantan, Pahang",poi,Pantai Sepat,Malaysia
31080,-118.593107,34.423043,G.,750609901,2020-03-10 23:22:53,"Portland, OR",poi,Six Flags Magic Mountain,United States
38900,-122.677885,45.517262,G.,750609901,2020-04-10 04:34:29,"Portland, OR",poi,Downtown Portland,United States
13140,-94.12863349999999,30.086918,uosuo snpp ,750610303948206080,2020-02-28 18:16:23,"beaumont, tx",city,"Beaumont, TX",United States
26420,-95.4464865,29.838495,uosuo snpp ,750610303948206080,2020-06-01 21:08:18,"beaumont, tx",city,"Houston, TX",United States
13140,-94.12863349999999,30.086918,uosuo snpp ,750610303948206080,2020-06-05 16:56:50,"beaumont, tx",city,"Beaumont, TX",United States
82,75.96818400000002,22.6714825,Narayan Patel,750610408289898497,2020-06-07 06:11:25,"Indore, India",city,"Indore, India",India
171,121.09037350000001,14.278017000000002,Ferggie Mendoza,750610535134076929,2020-02-14 15:11:14,Philippines,city,"Santa Rosa City, Calabarzon",Republic of the Philippines
82,77.3508815,28.3312135,Gaurav Bansal,750611035384586240,2020-04-08 07:06:41,,city,"Faridabad, India",India
88,137.7261825,34.72989800000001,LALA.S,750611108122071040,2020-02-14 12:12:41, ,city,  ,
9,151.21393,-33.87785,Sydney Sauna,750611620267585536,2020-02-16 05:39:13,"Sydney, New South Wales",poi,Sydney Sauna,Australia
65,1.464728,43.566074,Christelle BORDES,750611723275599872,2020-02-27 13:48:28,"Toulouse, France",poi,Universit Paul Sabatier - Toulouse III,France
36540,-96.023101,41.246823,Toni Zeta ,750611883497889792,2020-02-22 19:55:51,402 ,poi,First Watch - Aksarben,United States
33100,-80.2333285,25.7823535,Toni Zeta,750611883497889792,2020-04-27 01:32:18,402 ,city,"Miami, FL",United States
36540,-96.062561,41.1774495,Toni Zeta,750611883497889792,2020-05-22 02:17:20,NY-402,city,"La Vista, NE",United States
30700,-96.6965625,40.803235,Toni Zeta,750611883497889792,2020-06-07 22:54:24,NY-402,city,"Lincoln, NE",United States
22180,-79.0021125,35.054627,Darrin Alleman,75061200,2020-02-14 10:15:05,"Fayetteville, NC",city,"Fayetteville, NC",United States
88,135.7335895,34.006294,KaMe,750612987245801472,2020-04-03 08:04:42,,city, ,
82,72.87424399999999,19.174139999999998,Nikunj Jain,750613328582455297,2020-03-18 10:23:49,"Mumbai, India",city,"Mumbai, India",India
21,-34.939349,-8.043603,Gabriel Peixoto,75061337,2020-02-28 15:12:49,pernambuco,city,"Recife, Brasil",Brasil
164,-7.760834,41.300601,u ,750613373692289024,2020-06-03 18:28:40,Jupiter,city,"Vila Real, Portugal",Portugal
171,121.147728,13.945951999999998,,750613411050844160,2020-04-11 06:10:06,,poi,Canossa Academy Lipa City,Republic of the Philippines
186,0.63132,41.61269,CFA Segri,750613659756457984,2020-03-06 15:19:56,"Lleida, carrer Santa Ceclia 1",city,"Lleida, Espanya",Espanya
91,37.657046,-0.32111999999999996,Peater Arika,750613807991521280,2020-06-09 14:22:31,"Nakuru, Kenya",poi,Chuka University,Kenya
57,16.379845500000002,48.22012,Mona Chaitidis,750613864153309184,2020-06-08 14:12:31,,city,"Wien, sterreich",sterreich
85,11.354151,46.4875725,Leonardo Pavoletti,750614006688256004,2020-03-07 14:29:52,,city,"Bolzano, Trentino-Alto Adige",Italia
199,10.315484,36.915701,Dekpeya,750614041,2020-02-27 08:30:12,,poi,Htel Le Palace Gammarth *****,Tunisie
171,120.53997700000001,14.917792000000002,Kid ,750614205863112704,2020-02-23 14:52:30,Bocaue Bulacan,poi,"Lubao, Pampanga",Republic of the Philippines
82,72.67227600000002,23.215227,Leslee Lazar,750614486084677632,2020-02-15 03:52:50,"Gandhinagar, India",city,"Gandhinagar, India",India
158,174.8562435,-36.595729,Lia ,750615124424003584,2020-02-14 06:49:46,"Auckland, New Zealand",city,"Auckland, New Zealand",New Zealand
222,110.452316,-7.6309825,Diyan Wahyutri.,750615216,2020-02-23 16:46:43,"Tangerang, Indonesia",city,"Cangkringan, Indonesia",Indonesia
222,106.752205,-6.647944,K,750615465156718594,2020-04-24 05:40:28,Kunaon?,city,"Ciomas, Indonesia",Indonesia
119,-98.775808,20.1056375,Fernando Hidalgo V.,75061547,2020-02-14 04:06:06,"Centro de la Ciudad de Mxico, Cuauhtmoc",city,"Pachuca de Soto, Hidalgo",Mxico
159,-54.6383115,-25.5363025,Ana Philippsen ,75061620,2020-03-04 19:55:14,"Curitiba, Paran",city,"Puerto Presidente Stroessner, Paraguay",Paraguay
21,-54.098451000000004,-25.265458499999998,Ana Philippsen ,75061620,2020-03-21 23:21:04,"Curitiba, Paran",city,"Medianeira, Brasil",Brazil
205,-1.56549,53.801956,KidOrbit,750616202,2020-02-16 20:03:36,"Leeds, England",city,"Leeds, England",Reino Unido
82,77.095086,28.638489500000002, ,750616315929427968,2020-02-26 02:50:13,"New Delhi, India",city,"New Delhi, India",India
82,73.4619625,22.6100445,Panchmahal Mirror,750616462839001089,2020-03-24 17:20:38,"Halol, India",city,"Kalol, India",India
82,84.4102715,26.422562,Kumar pawan,750616804914069505,2020-04-22 04:34:42,India,city,"Gopalganj, India",India
88,135.868991,34.5965885,,750617101014937601,2020-05-21 23:10:24,632-007219-1,city, ,
16300,-91.6828545,41.976528,aydith.,750617112113082368,2020-02-15 21:18:08,"Manchester, IA",city,"Cedar Rapids, IA",Estados Unidos
178,28.103551,-25.988404,. .  . Y,750617791,2020-02-14 19:46:15,"Johannesburg, South Africa",city,"Midrand, South Africa",South Africa
205,-2.451174,52.6671545,Shropshire Chauffeur,750618378,2020-03-15 05:55:31,"Telford,Shrewsbury,Birmingham",city,"Telford, England",United Kingdom
164,-7.939788,41.5317315,9,750618391719870464,2020-03-02 23:29:40,"Cabeceiras de Basto, Portugal",city,"Cabeceiras de Basto, Portugal",Portugal
82,79.3286135,21.396009,Nichiket Nimkar,750618394400059392,2020-02-15 10:09:36,"Aroli,Nagpur,maharashtra",city,"Ramtek, India",India
88,141.36625800000002,40.685139,,750618941785935872,2020-02-15 13:23:35,,poi,Tubes,
91,36.863620000000004,-1.2748635,ochibo,750618978515574784,2020-02-14 04:14:54,"Nairobi, Kenya",city,"Nairobi, Kenya",Kenya
151,7.029838000000001,5.498543,Kenechukwu Samuel,750618981808082944,2020-04-14 08:51:48,Nigeria,city,"Owerri, Nigeria",Nigeria
200,26.4096465,40.131109499999994,sohbet,750619095129817088,2020-03-10 08:09:54,"stanbul, Trkiye",city,"anakkale, Trkiye",Trkiye
171,120.791537,14.953207,,750619192466878464,2020-02-24 11:29:58,,city,"Apalit, Central Luzon",Republic of the Philippines
13140,-93.9399,29.8849,Marvin Cacaito,75061976,2020-04-18 14:48:19,"T: 40.8268052,-73.9492295",city,"Port Arthur, TX",Estados Unidos
