currentGEOID,lon,lat,name,author_Id,created_at,location,place_type,place_full_name,place_country
89,-77.01621999999999,18.007997,dirt = dirt,707731397008437249,2020-05-12 15:09:09,greenhouse,poi,Dovecot Memorial Park,Jamaica
35620,-73.9487755,40.655138,fuck 12,707731397008437249,2020-06-08 23:06:46,greenhouse,city,"Brooklyn, NY",United States
16740,-80.8467855,35.209059,fuck 12,707731397008437249,2020-06-09 16:28:51,greenhouse,city,"Charlotte, NC",United States
49180,-80.244984,36.0871685,fuck 12,707731397008437249,2020-06-09 21:02:52,greenhouse,city,"Winston-Salem, NC",United States
8,-58.280767000000004,-34.747911,maleNN,707731612079955968,2020-05-14 04:24:58,"Quilmes, Argentina",city,"Quilmes, Argentina",Argentina
31080,-117.7957155,33.7635055,Jirf,707731776869806082,2020-02-20 20:28:02,"North Tustin, CA",city,"North Tustin, CA",United States
12580,-76.485224,38.97876,reachforthewall,707731897057730560,2020-02-22 15:16:56,,poi,United States Naval Academy,United States
21,-43.440057200000005,-22.74825024,Lary ,707731917253300224,2020-02-15 01:11:10,"Rio de Janeiro, Brasil",city,"Nova Iguau, Brasil",Brasil
65,3.9771514999999997,47.839971000000006,emilie,707731969,2020-03-03 21:22:46,,city,"Tonnerre, France",France
21,-34.883371000000004,-7.1494765000000005,Handerson Palhano,707732236959932416,2020-02-15 00:56:18,,city,"Joo Pessoa, Brasil",Brasil
35620,-73.9487755,40.655138,Justin #CultureTakeoverActivated,707732364047327232,2020-02-16 03:06:49,"Brooklyn, NY",city,"Brooklyn, NY",United States
29420,-114.73721699999999,36.016123,Katherine Tovar,707732462,2020-02-18 23:20:15,,poi,Hoover Dam,United States
41740,-117.14895600000001,32.735355,Katherine Tovar,707732462,2020-02-19 23:20:14,,poi,San Diego Zoo,United States
21340,-106.4174305,31.793368,Sky ,707732779237122048,2020-02-14 03:08:54,at the gym ,city,"El Paso, TX",United States
37780,-102.8864845,30.8917385,Sky ,707732779237122048,2020-04-03 06:19:20,at the gym ,city,"Fort Stockton, TX",United States
21340,-106.4174305,31.793368,Sky ,707732779237122048,2020-04-04 06:12:46,at the gym ,city,"El Paso, TX",United States
119,-94.432482,18.135455,Metzin Herrera ,707732923,2020-05-31 05:11:43,coatzacoalcos,city,"Coatzacoalcos, Veracruz de Ignacio de la Llave",Mxico
21,-43.296872,-22.644558,Andrade ,707733574519226368,2020-02-15 14:10:03,Duque de caxias,city,"Duque de Caxias, Brasil",Brazil
36740,-81.3677725,28.5016785,Elaine Mercenas Lima,707733685408284673,2020-02-27 03:33:25,Orlando ,city,"Orlando, FL",Estados Unidos
175,49.9945455,26.353591499999997,Mohamed,707733936860954625,2020-02-14 07:18:52,Kingdom of Saudi Arabia,city,"Dammam, Kingdom of Saudi Arabia",Kingdom of Saudi Arabia
88,140.10045449999998,35.6617655,,707734061003898880,2020-03-20 10:26:08,,city,  ,
88,135.73604643,35.02643823,Krijali,7077342,2020-04-05 19:43:28,  ,city,"Kyoto-shi Kita-ku, Kyoto",Japan
21,-46.5955455,-23.682803,3Brothers GamePlay,70773420,2020-06-06 22:39:05,So Paulo - SP,city,"So Paulo, Brasil",Brasil
21,-47.796623,-15.776254000000002,Breno Castelo Branco,707734460826001411,2020-03-17 18:16:03,"Braslia, Brasil",city,"Braslia, Brasil",Brasil
8,-58.442643,-34.604315,Pato a pata,707734673686990848,2020-02-20 11:52:41,Buenos Aires ,city,"Ciudad Autnoma de Buenos Aires, Argentina",Argentina
205,-0.10301400000000001,51.390614,Nasar Ali.Lilu,707734830793039873,2020-04-12 22:34:28,"Croydon, London",poi,Queens Community Hall,United Kingdom
31080,-117.824049,33.810159000000006,Angel Hernandez,707734844126527490,2020-02-14 03:46:09,"Los Angeles, CA",city,"Orange, CA",United States
88,140.300207,37.4459445,ueda yoko,707734888758124548,2020-02-26 10:43:41,,city, ,
88,140.084546,36.092128,,707735005196234753,2020-04-04 14:23:49,,city,"Tsukuba-shi, Ibaraki",Japan
120,116.181414,5.8058049999999986,Wanies ,707735100029403136,2020-02-26 11:33:33,"Sabah, Malaysia",city,"Penampang, Sabah",Malaysia
175,39.8016865,21.389833000000007,HamidorusDikastes,707735173,2020-02-14 01:07:07,Makkah Al Mukarrama,city,"Makkah Al Mukarrama, Kingdom of Saudi Arabia",Kingdom of Saudi Arabia
205,-0.7566495,52.6911175,Debbie Sowter,707735231,2020-03-22 10:34:16,"Langham, Rutland",city,"Langham, England",United Kingdom
65,2.025307,48.777592,psychose ,707735545,2020-03-17 16:18:07,snap : delphiinelol ,city,"Montigny-le-Bretonneux, France",France
44060,-117.434547,47.667438,haley,707735650338873344,2020-04-27 09:43:17,"Great Falls, MT",city,"Spokane, WA",United States
33540,-114.03115,46.8791,haley,707735650338873344,2020-05-02 03:49:23,"Great Falls, MT",city,"Missoula, MT",United States
222,110.39362690000002,-7.0091466,      _     _   ,707735722627706880,2020-03-31 11:03:32,"Jawa Tengah, Indonesia",city,"Gajahmungkur, Indonesia",Indonesia
18140,-82.5220145,39.9092055,J Fry-Hamilton,707736073409994753,2020-02-15 21:31:17,"Logan, OH",city,"Millersport, OH",United States
10420,-81.47053299999999,41.001881,J Fry-Hamilton,707736073409994753,2020-06-06 14:19:40,"Logan, OH",poi,JEDD PARK,United States
69,-0.33328800000000003,5.549599,,707736274656960512,2020-03-10 02:47:04,", ",city,"New Bortianor, Ghana",Ghana
38,-75.6993,4.8141,Moises Chaljub,70773671,2020-06-07 00:52:27,"Armenia, Colombia",city,"Santa Rosa de Cabal, Colombia",Colombia
21,-43.441578,-22.911421500000003,M ,707736764023181312,2020-02-14 01:28:27,"Penha, Rio de Janeiro",city,"Rio de Janeiro, Brasil",Brasil
96,47.955617,29.359761,,707736797040795648,2020-02-17 19:57:18,Kuwait,poi,  ,Kuwait
21,-42.503134499999994,-20.983109,joo victor,707736830037385216,2020-02-14 00:46:49,"Juiz de Fora, Brasil",city,"Rosrio da Limeira, Brasil",Brasil
21,-43.441578,-22.911421500000003,J )( #Mesoltafest,707736917761265664,2020-05-08 01:47:11,"Rio de Janeiro, Brasil",city,"Rio de Janeiro, Brasil",Brasil
21,-53.340532,-29.5619245,K Ju,707737210863353856,2020-04-03 01:53:31,RJ,city,"Dona Francisca, Brasil",Brasil
26420,-95.4464865,29.838495, ,707737705321504768,2020-02-17 19:19:52,"Angleton, TX",city,"Houston, TX",United States
21580,-107.0451655,37.2655605, ,707737705321504768,2020-03-12 03:46:28,"Angleton, TX",city,"Pagosa Springs, CO",United States
19100,-96.7617535,32.819858499999995, ,707737705321504768,2020-03-13 17:19:17,"Angleton, TX",city,"Dallas, TX",United States
26420,-95.4464865,29.838495, ,707737705321504768,2020-03-13 21:56:55,"Angleton, TX",city,"Houston, TX",United States
119,-103.389752,20.696116,Yakzal,70773776,2020-04-04 21:33:28,"T: 20.694655,-103.348474",poi,Dolphy Providencia,Mexico
82,73.850897,18.530488000000002,Abhijeet Dalvi,707737823730794497,2020-03-10 15:33:15,Pune,poi,Shivaji Nagar,India
21,-43.296872,-22.644558,May,707737840101281793,2020-05-02 21:20:41,Rj,city,"Duque de Caxias, Brasil",Brasil
21,-43.0596095,-22.904549000000006,~SK ~,707737868563779585,2020-02-14 17:55:11,,city,"Niteri, Brasil",Brasil
21,-43.959822499999994,-19.918692,  ,707737990135734272,2020-03-04 03:40:31,Beaga,city,"Belo Horizonte, Brasil",Brasil
21,-35.6871125,-9.5333295,Evany ,707738066748837888,2020-06-10 21:37:42,,city,"Macei, Brasil",Brasil
178,28.136677000000002,-26.172960500000002,Mkhonto,707738089,2020-03-02 13:39:34,Duduza,city,"Bedfordview, South Africa",South Africa
26420,-95.46818499999999,29.738137,KAE,707738438997413888,2020-03-08 00:28:37," Houston, TX",poi,Hyatt Place Houston/Galleria,United States
17300,-87.3221685,36.5509835,Manders,707738888803057665,2020-04-10 23:37:25,,city,"Clarksville, TN",United States
18220,-85.154674,39.660625,Manders,707738888803057665,2020-04-25 20:17:28,,city,"Connersville, IN",United States
17300,-87.3221685,36.5509835,Manders,707738888803057665,2020-04-27 00:42:02,,city,"Clarksville, TN",United States
39980,-85.1691275,39.811561,Manders,707738888803057665,2020-05-23 00:55:19,,city,"Cambridge City, IN",United States
34620,-85.39135,40.1972405,Manders,707738888803057665,2020-05-30 03:43:41,,city,"Muncie, IN",United States
39980,-85.20486399999999,39.8120135,Manders,707738888803057665,2020-05-30 14:26:30,,city,"Dublin, IN",United States
17300,-87.3221685,36.5509835,Manders,707738888803057665,2020-06-07 18:49:26,,city,"Clarksville, TN",United States
152,4.904053500000001,52.354728,M.Amarouch,707739462449688577,2020-03-16 16:04:34,"Amsterdam, Nederland",city,"Amsterdam, Nederland",Nederland
33100,-80.137196,25.956117499999998,Maxim Szarf,707739635263410176,2020-03-05 18:26:40,"Miami Beach, FL",city,"Aventura, FL",United States
205,-1.375457,52.018851500000004,Joff Tibbetts,707739870,2020-04-03 12:50:17,"Bloxham, England",city,"Bloxham, England",United Kingdom
95,129.0558455,35.1617785,() 01067728457,707739882,2020-02-14 03:18:31, ,city, ,
21,-41.936468,-22.775515,Ed,707740314593857536,2020-02-15 01:51:10,armao dos bzios ,city,"Armao dos Bzios, Brasil",Brasil
12940,-91.196952,30.521715000000004,Kara St.Cyr,707740377093005312,2020-03-10 17:24:20,"Baton Rouge, LA",poi,Southern University and A&M College,United States
15260,-81.504908,31.2144885,Marian Men's Tennis,707740971505680385,2020-03-07 01:05:46,"Indianapolis, IN",city,"Brunswick, GA",United States
26900,-86.1429225,39.7795625,Marian Men's Tennis,707740971505680385,2020-04-08 19:31:03,"Indianapolis, IN",city,"Indianapolis, IN",United States
33100,-80.13144,25.787110000000002,AL3X 1988,707741100123918337,2020-02-28 20:08:36,"Carolina del Norte, USA",city,"Miami Beach, FL",United States
205,-0.3841695,51.3342375,Stephanie Zinser,70774128,2020-03-24 09:46:49,Cobham Surrey,city,"Cobham, South East",United Kingdom
21,-46.5955455,-23.682803,lele,707741308056702976,2020-02-14 01:28:07,"So Paulo, Brasil",city,"So Paulo, Brasil",Brasil
158,176.2984605,-38.2528305,Ian  Anderson,707741340,2020-05-06 07:32:47,"Rotorua,New Zealand",city,"Rotorua District, New Zealand",New Zealand
21,-43.244601,-22.940012,Ale,707741410167013376,2020-02-16 06:32:30,Triagem City,poi,Comunidade da Formiga,Brasil
193,99.030855,7.619548,pops,707741509,2020-03-02 02:14:13,"Cambridge, England",city,"Sala Dan, Thailand",Thailand
205,-0.0512355,52.080382,pops,707741509,2020-03-22 08:40:27,"Cambridge, England",city,"Bassingbourn, England",United Kingdom
200,29.0052225,41.0213205,Zozan Aydn,707741621,2020-02-23 10:08:53,,city,"stanbul, Trkiye",Trkiye
38,-74.24367099999999,4.2622835,I S A ,707741713,2020-02-15 23:53:11,"Bogot, D.C., Colombia",city,"Bogot, D.C., Colombia",Colombia
38300,-79.9806895,40.431389,Yinzer MoBBer,707741906470461440,2020-03-03 05:37:42,"Pittsburgh, PA",city,"Pittsburgh, PA",United States
21,-43.43008,-22.820062,A tal da Belly,707742011508592640,2020-02-14 00:37:47,Brahmeira  pelo RJ,city,"Nilpolis, Brasil",Brasil
39300,-71.536052,41.4825475,Ryan McDonough,707742159047237634,2020-02-28 00:04:42,"Vero Beach, FL",city,"Kingston, RI",United States
42680,-80.40473399999998,27.6309955,Ryan McDonough,707742159047237634,2020-05-01 19:17:31,"Vero Beach, FL",city,"Vero Beach, FL",United States
45220,-84.26617399999999,30.4762155,Ryan McDonough,707742159047237634,2020-05-11 12:25:51,"Vero Beach, FL",city,"Tallahassee, FL",United States
42680,-80.40473399999998,27.6309955,Ryan McDonough,707742159047237634,2020-06-02 19:35:40,"Vero Beach, FL",city,"Vero Beach, FL",United States
82,78.5191052,17.3675929,Sagar,707742183630233601,2020-04-02 19:33:51,", ",city,"Hyderabad, India",India
193,100.751947,13.692419000000001,,707742471229313028,2020-02-21 06:37:35,  ,poi,Suvarnabhumi Airport (BKK) ,
222,110.25674450000001,-6.976735499999999,5 -UN F@qoth,707742590427246592,2020-03-31 03:53:22,"Semarang Barat, Indonesia",city,"Kaliwungu, Indonesia",Indonesia
26420,-95.584618,29.8935655,Jose Baltazar,707742973,2020-02-15 00:51:15,,city,"Jersey Village, TX",United States
47380,-97.18859599999999,31.4553305,Nado,707743007869538304,2020-06-07 16:12:39,"Foxborough, MA",city,"Hewitt, TX",United States
222,112.61703899999999,-7.962297,Yoyong T. A,707743044,2020-03-09 05:45:35,"Malang, Jawa Timur",poi,Universitas Negeri Malang,Indonesia
173,20.45693039,54.71139654,Yoyong T. A,707743044,2020-03-13 17:29:20,"Malang, Jawa Timur",city,"Kaliningrad, Russia",Russia
222,112.625725,-7.946485000000001,Yoyong T. A,707743044,2020-03-14 20:17:02,"Malang, Jawa Timur",poi,Roktto Coffee & Co,Indonesia
26420,-95.4464865,29.838495,Kellye Meador,707743172496138241,2020-02-22 00:56:02,,city,"Houston, TX",United States
19100,-97.3028295,32.5209975,Kellye Meador,707743172496138241,2020-03-20 01:06:57,,city,"Burleson, TX",United States
31080,-117.67161100000001,33.6463475,Bruna Bastos Kirst,70774318,2020-02-17 01:52:57,"Irvine, CA",city,"Lake Forest, CA",United States
36740,-81.3677725,28.5016785,Bruna Bastos Kirst,70774318,2020-04-03 00:22:02,"Irvine, CA",city,"Orlando, FL",United States
31080,-117.67161100000001,33.6463475,Bruna Bastos Kirst,70774318,2020-04-03 16:51:22,"Irvine, CA",city,"Lake Forest, CA",United States
19100,-97.29691600000001,33.02216,lil byrd,707743863654391808,2020-04-15 21:00:00,,poi,Fairways @ Championship Circle,United States
51,-6.2357200000000015,53.494598,Steven Blythe,707743909,2020-03-13 08:40:31,,city,"Fingal, Ireland",Ireland
205,0.5277305,51.263579,Steven Blythe,707743909,2020-03-18 20:32:11,,city,"Maidstone, South East",United Kingdom
173,60.613638,56.815532999999995,,707744174917943296,2020-03-15 16:31:24,"Moscow, RU",city,"Ekaterimburgo, Rusia",Rusia
158,176.185,-37.643,Nora Aati,707744738317721600,2020-02-19 22:21:39,,city,"Tauranga City, New Zealand",New Zealand
34900,-122.30626399999998,38.2970715,ccla,707744897495740416,2020-03-28 08:50:23,,city,"Napa, CA",United States
120,103.246877,3.1852975,Nik Hishamuddin,707745021219344384,2020-05-14 05:18:12,"Pahang, Malaysia",city,"Bebar, Pahang",Malaysia
21,-44.294391999999995,-19.446538,Gaby,707745887624232960,2020-02-14 01:18:28,"Minas Gerais, Brasil",city,"Sete Lagoas, Brasil",Brasil
88,140.6813675,41.9549485,,707746341372362753,2020-03-25 06:48:23, ,city, ,
21,-50.52102,-29.82957,fritzgreen,707746365460320256,2020-02-15 18:06:30,,city,"Santo Antnio da Patrulha, Brasil",Brasil
89,-76.89751,17.961557,Garbo,707746519,2020-03-26 21:32:10,I'll never tell ,poi,Progressive Foods Supermarket,Jamaica
41700,-98.5406515,29.417501,Kobe Hernandez,707746734328254464,2020-02-23 05:26:53,"Pearland, TX",city,"San Antonio, TX",United States
26420,-95.3268995,29.5478845,Kobe Hernandez,707746734328254464,2020-03-11 20:08:56,"Pearland, TX",city,"Pearland, TX",United States
24,-75.80014150000001,45.248791,Sandi Petersen,707746916,2020-03-16 01:53:36,"Ottawa, ON",city,"Ottawa, Ontario",Canada
88,140.939941,41.859722,,707747210981552128,2020-03-25 03:04:42,,city, ,
16980,-88.282978,42.035574,Dog's Paw Brewing,707747335510429696,2020-03-14 21:14:12,"Elgin, IL",poi,Dog's Paw Brewing,United States
119,-99.655676,19.2843215,George Hernandez,707747536480514048,2020-04-21 13:38:58,,city,"Toluca, Mxico",Mexico
21,-43.209652,-22.902928, Peter ,707747548128219136,2020-06-07 22:38:08,So Janurio,poi,em algum lugar por ai,Brasil
24,-72.9656445,45.283321,JF Lemoine,707747712184270848,2020-03-24 23:39:34,"Farnham, Qubec",city,"Farnham, Qubec",Canada
88,139.8767675,36.596727,uchiwa,707747774830252032,2020-04-08 04:27:37,,city, ,
88,135.5122,34.6603, tohko,707747799798980608,2020-05-02 16:18:41,,city,  ,
21,-43.5243665,-22.696528,Gabriel Santos,707747870032658432,2020-06-07 12:16:21,"Nova Iguau, Brasil",city,"Nova Iguau, Brasil",Brasil
45460,-87.38205400000001,39.457639,Greg Halls,707748185,2020-02-16 03:16:08,"Terre Haute, IN",city,"Terre Haute, IN",United States
41180,-90.202749,38.62676,Greg Halls,707748185,2020-03-06 01:36:17,"Terre Haute, IN",poi,Enterprise Center,United States
45460,-87.38205400000001,39.457639,Greg Halls,707748185,2020-03-11 23:58:06,"Terre Haute, IN",city,"Terre Haute, IN",United States
35620,-74.251126,40.888940000000005,Gregory Silverstein,707748232110039040,2020-02-29 23:48:16,"Montclair, NJ",poi,Rt 46 West,United States
119,-99.5799145,19.251530499999998,Axel Bueno ,707748328725872641,2020-02-29 18:34:14,Mexico,city,"Metepec, Mxico",Mxico
12420,-97.754724,30.3233455,Ty,707748607,2020-02-14 15:38:30,"Austin, TX",city,"Austin, TX",United States
37300,-96.1599535,31.7195795,Ty,707748607,2020-05-10 16:26:37,"Austin, TX",city,"Fairfield, TX",United States
12420,-97.672732,30.519340500000002,Ty,707748607,2020-05-14 20:48:16,"Austin, TX",city,"Round Rock, TX",United States
8,-64.1980255,-31.4154565,Beatriz Nicolas,707748643214852096,2020-02-20 14:34:39,,city,"Crdoba, Argentina",Argentina
21,-43.43110682,-22.78668373,Lua,707748689,2020-02-14 16:40:51,021,city,"Mesquita, Brasil",Brasil
21,-47.855252,-24.494885,Deus me dibre,70774878,2020-02-14 01:27:34,,city,"Registro, Brasil",Brasil
12940,-90.945734,30.2850505,Stevie,707748849012645888,2020-03-15 02:47:36,,city,"Prairieville, LA",United States
200,27.838919500000006,37.83980250000001,Halil Trkeli,70774909,2020-04-28 18:20:47,Aydin,city,"Aydn, Trkiye",Trkiye
162,21.06179,52.2328355,BUSHMELON,707749206,2020-03-27 07:13:32,"Toronto, Ontario",city,"Warsaw, Poland",Poland
102,24.036983,54.63328799999999,BUSHMELON,707749206,2020-03-27 10:38:05,"Toronto, Ontario",city,"Prienai, Lietuva",Lithuania
24,-80.934422,43.4946365,Stratford Farm Equip,707749645548720128,2020-02-14 13:59:54,"Ontario, Canada",city,"Perth East, Ontario",Canada
41980,-65.9461665,18.362115,Samkuso787 #JOYCONBOYZFOREVER,707750107408699393,2020-04-10 04:49:08,"Puerto Rico, USA",city,"Trujillo Bajo, Puerto Rico",United States
18140,-83.087396,39.948840000000004,c4,707750212,2020-05-24 15:58:05,,poi,Westgate Park,United States
42660,-122.3306025,47.614816999999995,Andr Gutirrez,707750310,2020-02-14 00:22:09,"Seattle, WA",city,"Seattle, WA",United States
24,-123.123581,49.257639000000005,Andr Gutirrez,707750310,2020-02-24 10:07:53,"Seattle, WA",city,"Vancouver, British Columbia",Canada
42660,-122.3306025,47.614816999999995,Andr Gutirrez,707750310,2020-02-25 22:05:17,"Seattle, WA",city,"Seattle, WA",United States
29820,-115.13516499999999,36.060964500000004,Andr Gutirrez,707750310,2020-02-28 08:03:46,"Seattle, WA",city,"Paradise, NV",United States
42660,-122.192819,47.81301550000001,Andr Gutirrez,707750310,2020-03-03 01:30:56,"Seattle, WA",city,"Grace, WA",United States
13980,-80.428864,37.229290999999996,Rakesh Patel ( Go Hokies ... .!!!!! ),70775061,2020-03-12 12:14:22,"Blacksburg, VA",city,"Blacksburg, VA",United States
15580,-112.604658,46.003128,Cheryl Johnson Richardson,707750660352167936,2020-02-14 15:51:15,"Butte, MT",city,"Rocker, MT",United States
41180,-90.247824,38.653771,Vet Mckinney,70775075,2020-03-07 05:15:18,"St Louis, MO",city,"St Louis, MO",United States
175,41.687540000000006,27.508333500000003, ,707750886949392385,2020-03-25 07:08:53,",   ",city,",   ",  
34980,-86.791549,36.200008000000004,Hannah Sorrells,707750938,2020-02-22 23:58:05,"Nashville, TN",city,"Nashville, TN",United States
31080,-118.4119065,34.0207895,Hannah Sorrells,707750938,2020-03-09 01:52:31,"Nashville, TN",city,"Los Angeles, CA",United States
14460,-71.0887125,42.3136695,Hannah Sorrells,707750938,2020-03-09 17:04:59,"Nashville, TN",city,"Boston, MA",United States
12060,-83.7117025,33.800984,Hannah Sorrells,707750938,2020-04-22 00:53:05,"Nashville, TN",city,"Monroe, GA",United States
38,-74.24367099999999,4.2622835,San Joaqun Parroquia,707750982348890112,2020-02-18 17:17:44,"Bogot, D.C., Colombia",city,"Bogot, D.C., Colombia",Colombia
171,125.4432615,7.317582499999999,ANONYMOUS,707751016150671360,2020-04-06 12:52:32,"Tacurong, Soccsksargen",city,"Davao City, Davao Region",Republic of the Philippines
222,109.367,-7.4,Julianto,707751089781604352,2020-03-02 05:56:08,,city,"Purbalingga, Indonesia",Indonesia
18140,-82.985772,39.9946835,Bruce Davis,707751456145874944,2020-02-14 14:52:37,,city,"Columbus, OH",United States
34980,-86.791549,36.200008000000004,Bruce Davis,707751456145874944,2020-02-19 02:30:52,,city,"Nashville, TN",United States
18140,-82.91453800000001,40.148988,Bruce Davis,707751456145874944,2020-02-20 11:46:09,,city,"Westerville, OH",United States
28140,-94.5592815,39.1000485,Bruce Davis,707751456145874944,2020-02-26 16:17:40,,city,"Kansas City, MO",United States
18140,-82.985772,39.9946835,Bruce Davis,707751456145874944,2020-02-28 21:22:11,,city,"Columbus, OH",United States
19100,-96.961483,32.863917,"Ami Melaine, Witch",707751718520496128,2020-02-14 22:05:26,"Dallas, TX",city,"Irving, TX",United States
35380,-90.1023445,29.9266635,"Ami Melaine, Witch",707751718520496128,2020-02-24 23:18:54,"Dallas, TX",city,"New Orleans, LA",United States
19100,-96.961483,32.863917,"Ami Melaine, Witch",707751718520496128,2020-02-28 17:28:31,"Dallas, TX",city,"Irving, TX",United States
42220,-122.699418,38.343445,Steven Gu,707751813840113664,2020-04-27 04:23:35,,city,"Rohnert Park, CA",United States
21,-43.296872,-22.644558,Igor Carvalho ,707751873680379905,2020-04-08 22:51:01,"Duque de Caxias, Brasil",city,"Duque de Caxias, Brasil",Brasil
24,-78.82221799999998,43.8309855,Janice,707752115,2020-03-27 22:43:14,,city,"Oshawa, Ontario",Canada
205,-1.449612,53.3831645,Jo Firth  ,707752470,2020-02-14 11:18:31,Sheffield,city,"Sheffield, England",United Kingdom
21,-52.43540350000001,-27.567819,Elias,707752493158162433,2020-05-12 20:24:08,"Baro de Cotegipe, Brasil",city,"Baro de Cotegipe, Brasil",Brasil
33,-70.610759,-33.429485,Achap,70775271,2020-03-29 02:48:40,"Santiago, Chile",city,"Providencia, Chile",Chile
33100,-80.11290349999999,26.533486,Daniel Weissing,707752981836341248,2020-02-15 02:44:29,"West Palm Beach, FL",city,"Boynton Beach, FL",United States
15980,-81.8231765,26.622149,Al Garcia,707753079,2020-06-04 13:20:08,,city,"Fort Myers, FL",United States
85,9.2744485,45.5845001,TMJ-ITA R-Est,70775332,2020-03-18 14:22:47,Italy,city,"Monza, Lombardia",Italy
35620,-73.92766272,40.865853,Yesenia Guerra,707753444086575104,2020-02-14 05:17:15,"New York, NY",city,"Manhattan, NY",United States
12220,-85.4915405,32.597245,Ty Cobb,707753498,2020-02-16 14:31:44,"Auburn, AL",city,"Auburn, AL",United States
19300,-87.843186,30.629935999999997,Ty Cobb,707753498,2020-02-29 16:56:28,"Auburn, AL",city,"Daphne, AL",United States
12220,-85.4915405,32.597245,Ty Cobb,707753498,2020-03-04 15:45:43,"Auburn, AL",city,"Auburn, AL",United States
13820,-86.760091,33.385555,The Auburn Tiger King,707753498,2020-06-10 03:54:02,"Auburn, AL",city,"Hoover, AL",United States
32820,-89.88769099999998,35.318409499999994,door matt,707753675813490688,2020-03-06 15:45:25,"Memphis, TN",city,"Millington, TN",United States
151,7.237208499999999,8.878810000000003,Makun Joy,707754083,2020-03-26 09:16:37,"Abuja,Nigeria",city,"Kuje, Nigeria",Nigeria
21,-43.441578,-22.911421500000003,Brenda,707754091330605056,2020-04-16 02:27:24,Rio,city,"Rio de Janeiro, Brasil",Brasil
37980,-75.117998,40.0048655,$$,707754196444045312,2020-05-22 16:57:59,,city,"Philadelphia, PA",United States
16700,-79.837322,32.847946500000006,Karl Interrante,707754214898929666,2020-03-25 14:03:10,"Mount Pleasant, SC",city,"Mount Pleasant, SC",United States
15260,-81.406249,31.138724,Karl Interrante,707754214898929666,2020-05-22 14:18:05,"Mount Pleasant, SC",poi,Sea Island - Seaside Course,United States
12060,-84.43310600000001,33.7671945,A,707754574141063168,2020-03-08 23:18:06,Daydreaming,city,"Atlanta, GA",United States
120,101.705305,3.1485305,Wan Prostyla,707755070109016065,2020-02-20 07:08:30,KL,city,"Kuala Lumpur City, Kuala Lumpur Federal Territory",Malaysia
46220,-87.5334065,33.1966005,Danny Stew,707755498859335680,2020-03-23 19:11:01,"Huntsville, AL",city,"Tuscaloosa, AL",United States
13820,-86.760091,33.385555,Mullet Enthusiast Danny Stew,707755498859335680,2020-04-18 21:52:31,"Huntsville, AL",city,"Hoover, AL",United States
46220,-87.5334065,33.1966005,Mullet Enthusiast Danny Stew,707755498859335680,2020-04-19 17:36:50,"Huntsville, AL",city,"Tuscaloosa, AL",United States
26620,-86.611411,34.7060265,Mullet Enthusiast Danny Stew,707755498859335680,2020-06-04 03:50:52,"Huntsville, AL",city,"Huntsville, AL",United States
28940,-83.9638415,35.982470500000005,Mullet Enthusiast Danny Stew,707755498859335680,2020-06-04 16:05:19,"Huntsville, AL",city,"Knoxville, TN",United States
42940,-83.57759899999998,35.7992495,Mullet Enthusiast Danny Stew,707755498859335680,2020-06-05 02:31:59,"Huntsville, AL",city,"Pigeon Forge, TN",United States
46220,-87.5334065,33.1966005,Mullet Enthusiast Danny Stew,707755498859335680,2020-06-09 00:15:32,"Huntsville, AL",city,"Tuscaloosa, AL",United States
38060,-111.8808735,33.2824505,MahoganySoul,707756016,2020-02-20 13:41:05,AZ resident,city,"Chandler, AZ",United States
26420,-95.4464865,29.838495,Aileen Rivera,707756251317272576,2020-06-10 01:24:12,"Katy, TX",city,"Houston, TX",United States
200,27.744695,41.201282,Selda Kaya,707756334,2020-06-01 05:33:21,,city,"orlu, Trkiye",Trkiye
119,-99.096496,19.399101,ALI VEG,707756570,2020-04-04 03:53:08,Nepal,city,"Iztacalco, Distrito Federal",Mxico
222,106.846645,-6.190237000000001,Decy Zaara,707756620957155329,2020-03-25 05:06:30,Jakarta Capital Region,city,"Menteng, Indonesia",Indonesia
205,-0.1937195,51.4516565,#RC,707756780,2020-03-28 01:10:23,"London, England",city,"Wandsworth, London",United Kingdom
71,13.4246065,52.506701,Sarah Nizze,707756856,2020-02-20 10:27:22,Berlin,city,"Berlin, Deutschland",Deutschland
71,10.05478,50.195423,HappyMaryLP,707756978307735552,2020-02-18 11:10:39,"Bayern, Deutschland",city,"Bad Kissingen, Deutschland",Deutschland
175,40.316318,21.071862,,707757036,2020-02-21 16:44:52,,poi,Alshafa | ,  
171,123.7529665,8.120474,  ,707757086617153537,2020-02-14 09:47:17,,city,"Ozamis City, Northern Mindanao",Republic of the Philippines
222,110.3433205,-6.977263000000001,maryanto,707757396035112961,2020-04-17 08:27:04,,city,"Tugu, Indonesia",Indonesia
27620,-92.1778075,38.5526005,DarkmistHollow,70775742,2020-05-10 15:35:29,,city,"Jefferson City, MO",United States
46520,-157.799589,21.3199435,shigekix ,707757434513719296,2020-02-21 01:35:40,   Espaa,city,"Honolulu, HI",United States
88,135.50016100000002,34.733484000000004,RMCV ,707757434513719296,2020-03-10 06:57:41,   Espaa,poi, (Shin-Osaka Sta.),
31080,-118.4119065,34.0207895,BABY TULIP ,707757546891661312,2020-04-10 09:17:47,"Hollywood, Los Angeles",city,"Los Angeles, CA",United States
82,73.85961308,18.5189558,Shubham Sharma,707757577,2020-02-16 05:47:24,Pune ,city,"Pune, India",India
88,140.084546,36.092128,,707757650310606849,2020-02-25 08:30:27,,city, ,
65,2.9000543999999997,50.6558672,G,70775786,2020-02-14 11:07:12,LORGIES (France),city,"La Chapelle-d'Armentires, France",France
80,21.062742999999998,47.9233525,freeroute,707757865,2020-04-13 14:03:48,Hungary,city,"Tiszajvros, Magyarorszg",Magyarorszg
24,-120.77881399999998,50.1093655,freeroute,707757865,2020-04-22 09:54:39,Hungary,city,"Merritt, British Columbia",Canada
46660,-83.30251200000002,30.856084499999998,Jon LaRoque,707758069413969920,2020-02-14 19:37:50,"Valdosta, Georgia USA",city,"Valdosta, GA",United States
45620,-83.95952650000002,30.8626945,Jon LaRoque,707758069413969920,2020-02-18 15:21:27,"Valdosta, Georgia USA",city,"Thomasville, GA",United States
46660,-83.30251200000002,30.856084499999998,Jon LaRoque,707758069413969920,2020-02-18 21:02:07,"Valdosta, Georgia USA",city,"Valdosta, GA",United States
38,-75.5496355,10.3904485,Arantxa,707758196,2020-02-14 17:26:45,"Cartagena, Colombia",city,"Cartagena, Colombia",Colombia
23060,-85.1700515,41.086917,Clay Meadows,707758197767933952,2020-02-16 19:53:40,,city,"Fort Wayne, IN",United States
26900,-85.672627,40.10539850000001,Clay Meadows,707758197767933952,2020-02-21 16:10:12,,city,"Anderson, IN",United States
35220,-85.38054050000001,39.9326065,Clay Meadows,707758197767933952,2020-04-19 19:46:58,,city,"New Castle, IN",United States
26900,-85.672627,40.10539850000001,Clay Meadows,707758197767933952,2020-04-20 17:38:21,,city,"Anderson, IN",United States
119,-99.2115105,19.4299345,Mario Castillo,70775825,2020-02-14 03:17:04,CDMX,city,"Miguel Hidalgo, Distrito Federal",Mexico
222,106.806998,-6.274780000000001,Zee #NEOZONE,707758406,2020-03-07 00:50:10,+62,poi,"Korea,Seoul",Indonesia
85,12.57713047,44.07165114,Alechan. ,707758528,2020-02-28 21:58:44,[ ENF  J ]  ,city,"Rimini, Emilia Romagna",Italia
82,72.85725,23.43704,HarsH S PateL,707758622,2020-05-02 11:38:52,"Gujarat, India",city,"Prantij, India",India
35620,-73.8669,40.85,melissa #nycmom #bronxmom #socialdistancequeen,707758634709753856,2020-04-06 12:49:22,"Bronx, NY",city,"Bronx, NY",United States
171,121.09037350000001,14.278017000000002,Depoy,707758796446171136,2020-02-14 07:30:06,meg,city,"Santa Rosa City, Calabarzon",Republic of the Philippines
82,72.87424399999999,19.174139999999998,shashikala borhade,707759091,2020-03-23 12:06:55,"Mumbai, India",city,"Mumbai, India",India
21,-44.3657935,-23.032432500000002,Denver ,707759299502723072,2020-04-24 15:52:04,"Caputera I, Angra dos Reis",city,"Angra dos Reis, Brasil",Brasil
21,-43.441578,-22.911421500000003,Gordin do Corte ,707759333933719552,2020-03-02 03:46:42,Longe de toda negatividade ,city,"Rio de Janeiro, Brasil",Brasil
21,-43.77561729,-19.53858718,Sandro,70775940,2020-02-27 18:31:30,"Jaboticatubas, Brasil",city,"Jaboticatubas, Brasil",Brasil
178,18.4890615,-34.1216575,Angeline,707759554,2020-03-11 18:12:16,,city,"Cape Town, South Africa",South Africa
8,-62.06414700000001,-31.4309855,Paoo Snchez ,707759734284292097,2020-03-03 18:09:13,,city,"Frontera, Argentina",Argentina
200,35.3286,36.9875,Haci mehmet,707759904,2020-02-18 13:13:38,,city,"Adana, Trkiye",Trkiye
119,-98.84366700000001,19.69236,Larissa sandoval,707760186,2020-03-15 17:43:29,"Matamoros, Tamaulipas",poi,Pirmide del Sol,Mxico
96,48.0212,29.248976000000003,.,707760395,2020-02-14 13:49:27,Kuwait,city,"Al Wusta, Kuwait",Kuwait
26420,-95.4464865,29.838495,E J A A Y ,707760573090365440,2020-02-14 14:24:56,HOU$TONMFTEXAS,city,"Houston, TX",United States
24,-79.27256949999999,43.629311,OddsFiche ,707760893455699969,2020-02-14 11:26:46,"Toronto, Ontario",city,"Toronto, Ontario",Canada
71,13.4246065,52.506701,Chipi Chipi Bombn,707761076155387904,2020-02-29 11:31:13,"Friedrichshain, Berlin",city,"Berlin, Germany",Germany
12060,-83.9925,33.9531,Michelle Bachelor Robinson,707761170745311232,2020-02-19 17:59:21,"Georgia, USA",city,"Lawrenceville, GA",United States
24,-73.7444065,45.360966,Alfred Bauer,707761202953379840,2020-03-09 18:34:00,,city,"Chteauguay, Qubec",Canada
82,77.288752,28.460797999999997,RWAOmaxeHills2_Fbd,707761253268193280,2020-02-22 07:09:46,,poi,Omaxe Hills,India
175,46.685077,24.7219435,,707761424374882304,2020-02-15 02:03:49,,city,"Riyadh, Kingdom of Saudi Arabia",Kingdom of Saudi Arabia
222,112.69885249999999,-7.2862313,Vasa Hotel Surabaya,707761950273314816,2020-02-14 09:59:07,"Kota Surabaya, Jawa Timur",city,"Dukuh Pakis, Indonesia",Indonesia
8,-55.909711,-27.404671,Maximiliano lvarez,707761976,2020-02-25 18:45:21,Posadas-Misiones,city,"Posadas, Argentina",Argentina
21,-38.58680575,-3.83173483,Marcio Pinheiro,70776205,2020-02-15 01:18:47,FORTALEZA,city,"Fortaleza, Brazil",Brazil
45300,-82.61341999999999,28.062051,Big Popa,707762094196793344,2020-02-17 19:29:53,tampa ,city,"Westchase, FL",United States
21,-68.7664244,-11.01798066,cleidy cayalo mendoz,707762096,2020-05-04 14:29:08,BOLIVIA - PANDO,city,"Brasilia, Brasil",Brasil
88,139.6089312,36.402242,,707762110558638080,2020-03-28 02:16:13,,city, ,
17300,-87.4933555,36.848471,Eric Cremeens,707762592262000641,2020-02-19 13:11:46,Richmond KY,city,"Hopkinsville, KY",United States
29740,-106.7374385,32.3422995,Eric Cremeens,707762592262000641,2020-03-02 04:17:52,Richmond KY,city,"Las Cruces, NM",United States
40080,-84.36725899999999,37.882164,Eric Cremeens,707762592262000641,2020-05-16 02:53:33,Richmond KY,poi,The Bull at Boone's Trace Golf Club,United States
19100,-96.798212,32.782215,Jim Peck,70776270,2020-02-18 15:01:55,"Dallas, TX",poi,Tower Club Dallas,United States
10740,-106.632718,35.117002500000005,Jim Peck,70776270,2020-02-23 15:53:32,"Dallas, TX",city,"Albuquerque, NM",United States
19100,-96.7617535,32.819858499999995,Jim Peck,70776270,2020-02-26 14:52:32,"Dallas, TX",city,"Dallas, TX",United States
10740,-106.632718,35.117002500000005,Jim Peck,70776270,2020-03-19 22:32:29,"Dallas, TX",city,"Albuquerque, NM",United States
19100,-96.7617535,32.819858499999995,Jim Peck,70776270,2020-03-24 15:07:05,"Dallas, TX",city,"Dallas, TX",United States
82,79.87466026,23.10921308,Suraj Kumar,707762981589753856,2020-02-20 14:26:31,", ",city,"Jabalpur, India",India
88,135.263738,34.777971,,707763029140582402,2020-05-15 09:04:07,,poi,,
33100,-80.17766800000001,25.9056055,anjel,707763420003766272,2020-02-16 01:37:15,"Miami, FL",city,"North Miami, FL",United States
161,74.3584865,31.5318195,Muhammad Noman,707763488828100608,2020-02-24 13:16:09,Gujrat,city,"Lahore, Pakistan",Pakistan
26420,-95.4464865,29.838495,Laura Lee Weathers,707764049581191169,2020-03-13 12:52:46,,city,"Houston, TX",United States
160,-77.089605,-12.079635499999998, ,707764537395716096,2020-02-17 01:37:44,"Lima, Peru",city,"San Miguel, Peru",Peru
21,-48.45979749999999,-1.2729295,Marcos Lopes,707764578122387457,2020-04-30 00:47:37,"Belm, Brasil",city,"Belm, Brazil",Brazil
31080,-118.243,34.0522,L A C E D ,70776459,2020-02-19 16:50:09,"Los Angeles, CA",city,"Los Angeles, CA",United States
21,-40.37516700000001,-20.427329500000003,A CARA DO ENQUADRO,707764984395272192,2020-02-14 02:36:23,Vila Velha,city,"Vila Velha, Brasil",Brasil
41700,-98.61822,29.58397,FIRE,707765024266137601,2020-02-17 18:19:16,"San Antonio, TX",poi,Sombrilla,United States
41180,-91.0096345,38.546088,Gina Leimkuehler,707765270,2020-02-14 14:38:38,,city,"Washington, MO",United States
25540,-72.464218,41.8326995,ThatdailyTypeR,707765828,2020-05-14 01:28:03,"Vernon, CT",city,"Vernon, CT",United States
31080,-118.496826,34.016785,fatima,707765926406463488,2020-03-06 21:41:04,,poi,Paperboy,United States
120,110.333028,1.4292295,Yie,707765939148693508,2020-02-15 10:00:25,"Kuching, Sarawak",city,"Kuching, Sarawak",Malaysia
21,-43.441578,-22.911421500000003,Lucas,707765996489195520,2020-02-14 17:53:31,021,city,"Rio de Janeiro, Brasil",Brasil
119,-107.3420565,24.662488500000002,Carlos calvz,707766056652136449,2020-02-16 15:50:13,,city,"Culiacn, Sinaloa",Mxico
33,-70.66534932,-33.45130682,Gaby Paz,707766448735780864,2020-02-14 03:44:51,"Santiago, Chile",city,"Santiago, Chile",Chile
35620,-74.20490699999999,40.079605,Fabi Todd,707766481447231488,2020-03-21 10:41:10,"Lakewood, NJ",city,"Lakewood, NJ",United States
29820,-115.223125,36.232915000000006,riss,707766772120702976,2020-03-05 14:39:19,lv | they / them,city,"Las Vegas, NV",United States
21,-43.441578,-22.911421500000003,Lincoln,707766863757881344,2020-05-17 03:41:07,rj,city,"Rio de Janeiro, Brasil",Brasil
41700,-98.5406515,29.417501,X ,707767011422523392,2020-02-17 00:22:33,satx,city,"San Antonio, TX",United States
12420,-97.9351915,29.8956065,X ,707767011422523392,2020-03-07 05:16:19,satx,city,"San Marcos, TX",United States
41700,-98.31451750000001,29.5142925,X ,707767011422523392,2020-03-07 07:00:59,satx,city,"Converse, TX",United States
12420,-97.9351915,29.8956065,Xiolani ,707767011422523392,2020-03-15 05:01:41,satx,city,"San Marcos, TX",United States
41700,-98.5406515,29.417501,Xiolani ,707767011422523392,2020-03-19 06:35:20,satx,city,"San Antonio, TX",United States
18580,-97.432425,27.737151, ,707767011422523392,2020-05-17 19:14:59,satx,city,"Corpus Christi, TX",United States
41700,-98.5406515,29.417501, ,707767011422523392,2020-05-18 02:04:43,satx,city,"San Antonio, TX",United States
205,-0.18919,51.5037865,WESTSIDE,707767458178973696,2020-02-15 02:02:16,"London, England",city,"Kensington, London",United Kingdom
31080,-118.4119065,34.0207895,westside,707767458178973696,2020-03-15 08:16:34,"London, England",city,"Los Angeles, CA",United States
205,-0.216108,51.498387,westside,707767458178973696,2020-03-24 14:13:04,"London, England",city,"Hammersmith, London",United Kingdom
16740,-80.84333333,35.22694444,Michael A. Stephens,70776781,2020-02-15 03:40:34,charlotte nc,city,"Charlotte, NC",United States
20500,-79.04388562,35.89948632,Michael A. Stephens,70776781,2020-02-16 00:33:46,charlotte nc,city,"Chapel Hill, NC",United States
16740,-80.811848,35.11851624,Michael A. Stephens,70776781,2020-04-04 01:17:08,charlotte nc,city,"Charlotte, NC",United States
33,-70.84339849999999,-33.419059000000004,Jeannette Pamela,70776787,2020-03-12 15:56:25,Chile,city,"Pudahuel, Chile",Chile
43900,-81.94029800000001,34.9499645,Jacob Burley,707767953651933184,2020-02-23 02:39:56,USA,city,"Spartanburg, SC",United States
41940,-121.407179,36.845566999999996,Jacob Burley,707767953651933184,2020-03-27 19:47:47,USA,city,"Hollister, CA",United States
41660,-100.46976483,31.46847801,Nate P,70776814,2020-02-23 02:57:09,"Texas, USA",city,"San Angelo, TX",United States
21,-41.95066114,-18.86071014,SOU HEXA - ,70776815,2020-04-12 02:33:04,"Minas Gerais, Brasil",city,"Governador Valadares, Brasil",Brasil
205,-3.2030084999999997,55.943195499999995,Anton Barenbrug,707768360,2020-02-22 18:23:29,Scotland,city,"Edinburgh, Scotland",United Kingdom
205,0.250689,50.814142,Monika Bailey,707768688,2020-03-24 20:21:58,polegate,city,"Willingdon, England",United Kingdom
40140,-117.39896350000001,34.06075850000001,Torres,707768816,2020-04-23 18:05:15,,city,"Bloomington, CA",United States
40140,-117.17863500000001,33.53257642,SRCAR,70776902,2020-03-10 16:41:31,"Murrieta, CA",city,"Murrieta, CA",United States
82,82.93402499999998,25.0204155,Imshashankrajput,707769666924466177,2020-02-23 08:02:53,"New Delhi, India",city,"Chunar, India",India
39900,-119.784874,39.503197,nandez.,707769935334748160,2020-03-12 17:59:22,"Reno, NV",poi,Costco,United States
16180,-119.7425635,39.150822999999995,nandez.,707769935334748160,2020-04-04 22:00:43,"Reno, NV",city,"Carson City, NV",United States
39900,-119.82718200000001,39.512436,nandez.,707769935334748160,2020-04-07 04:17:34,"Reno, NV",city,"Reno, NV",United States
16180,-119.7425635,39.150822999999995,"Thanks, I Hate It",707769935334748160,2020-04-12 20:33:06,"Reno, NV",city,"Carson City, NV",United States
39900,-119.82718200000001,39.512436,"Thanks, I Hate It",707769935334748160,2020-04-12 22:29:12,"Reno, NV",city,"Reno, NV",United States
88,139.41942450000002,35.859382000000004,,707770035075297281,2020-03-24 02:21:33,,city, ,
11500,-85.80365400000001,33.7593875,Scott Bradshaw,707770147751112704,2020-06-06 17:49:27,"Alabama, USA",city,"Weaver, AL",United States
35620,-73.9685415,40.780709,Kenne Shepherd,70777015,2020-03-06 20:12:24,"New York City, NY ",city,"Manhattan, NY",United States
42220,-122.699418,38.343445,Adriana,707770436835102720,2020-02-15 22:49:18,"Rohnert Park, CA",city,"Rohnert Park, CA",United States
119,-98.1542665,19.0322295,Viridiana Valdez,707770490622881794,2020-04-29 06:31:56,"Cuautlancingo, Puebla",city,"Puebla, Mxico",Mxico
8,-58.547943200000006,-34.6560494,Gustavo Gomez,70777055,2020-02-21 23:17:31,Ramos Meja,city,"Gonzlez Catn, Argentina",Argentina
200,34.009482500000004,38.364603,Siyah inci  Hediyem Olsun,707770670,2020-02-27 20:11:19,,city,"Aksaray, Trkiye",Trkiye
24,-73.5922312,45.51033988,Yuhei,707770714116399105,2020-02-25 08:42:16,"Toronto, Ontario",city,"Montral, Qubec",Canada
88,136.917,35.4833,Yuhei,707770714116399105,2020-03-18 09:59:04,"Toronto, Ontario",city,"Seki-shi, Gifu",Japan
65,2.29455382,48.85838631,Yuhei,707770714116399105,2020-03-29 02:06:52,"Toronto, Ontario",city,"Paris, France",France
24,-73.55729699,45.55735773,Yuhei,707770714116399105,2020-04-10 03:01:01,"Toronto, Ontario",city,"Montral, Qubec",Canada
88,136.917,35.4833,Yuhei,707770714116399105,2020-05-16 22:15:01,"Toronto, Ontario",city,"Seki-shi, Gifu",Japan
119,-98.082815,22.560886,Alejandro diaz,707770821767368704,2020-02-17 13:49:41,,city,"Altamira, Tamaulipas",Mxico
43300,-96.5622275,33.740883000000004,Denison Development,70777084,2020-03-20 18:45:18,"Denison, Texas",city,"Denison, TX",United States
21,-34.939349,-8.043603,Byakuya Cu Chique,70777090,2020-05-04 06:47:53,,city,"Recife, Brasil",Brasil
15980,-81.8231765,26.622149,Myra Hawkins,707770918,2020-02-16 19:06:31,,city,"Fort Myers, FL",United States
8,-60.3234155,-33.2415755,Cande,707770976860299265,2020-02-29 08:22:33,,city,"Constitucin, Argentina",Argentina
26420,-95.3778145,30.0635145,DeBreonia,707771138777042945,2020-03-15 00:38:24,"Houston, TX",city,"Spring, TX",United States
26660,-94.931595,30.720739,DeBreonia,707771138777042945,2020-04-04 19:20:22,"Houston, TX",city,"Livingston, TX",United States
26420,-95.3778145,30.0635145,DeBreonia,707771138777042945,2020-04-05 04:41:38,"Houston, TX",city,"Spring, TX",United States
26660,-94.931595,30.720739,DeBreonia,707771138777042945,2020-05-10 12:30:53,"Houston, TX",city,"Livingston, TX",United States
26420,-95.410718,29.684727000000002,Alicia Alaniz,70777129,2020-03-07 22:19:54,Texas,poi,NRG Stadium,United States
41860,-122.0857755,37.64127050000001,Elmer Beltran,707771604269314049,2020-02-14 18:41:18,"Hayward, CA",city,"Hayward, CA",United States
21,-47.796623,-15.776254000000002,BRFERT,707771631100370944,2020-03-10 03:25:56,"Braslia, Brasil",city,"Braslia, Brasil",Brasil
21,-43.441578,-22.911421500000003,L12!,707771843193790464,2020-02-14 10:07:37,"Senador Camar, Rio de Janeiro",city,"Rio de Janeiro, Brasil",Brasil
96,47.99146789,29.38452048,,707771915767779329,2020-02-14 18:19:55,,city,",  ", 
205,-2.9402835,54.902331499999995,Cinnamon-Lilly,707772102,2020-02-16 01:56:02,"North West, England",city,"Carlisle, England",United Kingdom
46700,-122.04297450000001,38.233362,tnydksisy addisson,707772111192895489,2020-03-03 20:53:56,,city,"Fairfield, CA",United States
16980,-87.78369,41.872890000000005,"Dr. Davila, DC",707772308862148608,2020-02-14 16:50:48,"Willowbrook, IL",city,"Oak Park, IL",United States
71,13.4125,52.51694444,Shane Heneghan,70777246,2020-03-03 18:58:50,"Berlin, Germany",city,"Berlin, Germany",Germany
128,4.38047937,50.83906585,Shane Heneghan,70777246,2020-04-01 16:46:34,,city,"Etterbeek, Belgi",Belgium
205,-2.7901905,55.92137099999999,John Bain,707773187,2020-06-05 15:57:13,,city,"Bolton, Scotland",United Kingdom
35620,-73.8494415,40.8503475,the greatest ever.,707773353361281024,2020-04-13 01:19:26,"New York, NY",city,"Bronx, NY",United States
35620,-73.8311875,40.6708795,NYC Council Member Carlina Rivera,707774032473694211,2020-03-06 02:45:44,"Manhattan, NY",city,"Queens, NY",United States
16980,-87.798147,41.56597100000001,Pastor J.J. Bell,70777411,2020-02-15 11:53:30,"Tinley Park, IL",city,"Tinley Park, IL",United States
24,-75.80014150000001,45.248791,jem,707774143966670848,2020-06-08 10:11:09,"Ottawa, Ontario",city,"Ottawa, Ontario",Canada
9,150.931975,-33.848244,Kylie Parker (LotusAccts),707774180612112385,2020-02-14 03:08:47,"Sydney, New South Wales",city,"Sydney, New South Wales",Australia
21,-46.4956,-23.4456,Dh Ferreira,70777423,2020-04-23 19:25:53,Brasil,city,"Guarulhos, Brasil",Brasil
21,-43.3086,-22.8439,Vanessa Duval,70777450,2020-04-14 16:34:05,vila da penha,city,"Rio de Janeiro, Brasil",Brasil
35380,-90.01100799999999,29.982601000000003,YaGirlNell,707774713590734848,2020-03-18 09:08:42,SomeWhereMindingMyBusiness,city,"New Orleans, LA",United States
21,-42.77957,-14.219029999999998,Hyago Teixeira Fotografia,707775232451481600,2020-02-29 12:27:27,"Guanambi, Brasil",city,"Guanambi, Brasil",Brasil
120,101.07759399999999,4.5967139999999995,Wxtinn,707775592892993536,2020-03-09 03:54:25,"Rantau Panjang, Kelantan",poi,Plan B,Malaysia
17900,-81.16470699999999,34.006679999999996,Lexington Elementary,707775817074352129,2020-02-14 17:20:30,"Lexington, SC",poi,Meadow Glen Middle School,United States
38,-74.24367099999999,4.2622835,William Saza Londoo,707775938235338752,2020-02-15 01:39:14,,city,"Bogot, D.C., Colombia",Colombia
178,18.4890615,-34.1216575,Jean-Baptiste Wiroth,707776171,2020-02-20 15:10:56,"Cape Town, South Africa",city,"Cape Town, South Africa",South Africa
65,7.2530225,43.703021,Jean-Baptiste Wiroth,707776171,2020-03-27 14:19:25,"Cape Town, South Africa",city,"Nice, France",France
137,7.4225685000000015,43.7471065,Jean-Baptiste Wiroth,707776171,2020-05-30 20:32:35,"Cape Town, South Africa",city,"Beausoleil, France",France
24660,-79.85736349999998,36.090397,Maci Griggs,707776259942580224,2020-04-10 23:51:09,,city,"Greensboro, NC",United States
33100,-80.2333285,25.7823535,Astrid Polamalu,707776609,2020-03-03 04:12:35,"Miami, FL",city,"Miami, FL",United States
38,-74.7964,10.9639, ,707776716,2020-05-02 16:45:30,Colombia,city,"Barranquilla, Colombia",Colombia
12420,-98.1063025,29.995683000000003,Keely McCarthy,707777249655660544,2020-03-07 21:22:31,Shiner/ Huntsville,city,"Wimberley, TX",United States
88,140.95885950000005,38.275952,,707777319037837312,2020-04-15 12:50:40,,city,"Sendai-shi Miyagino, Miyagi",Japan
72,144.80098850000005,13.522667000000002,AARON,707777750,2020-04-07 10:58:07,"San Diego, CA",city,"Tumon, USA",United States
205,0.6547569999999999,51.602396,james,707777874,2020-02-19 21:38:04,,city,"Hockley, East",United Kingdom
160,-77.0353,-12.0611,sady c_ martinez ,707778072,2020-04-06 08:12:31,lima peru,city,"Lima, Peru",Peru
37980,-75.117998,40.0048655,Caitlin McCafferty,707778234,2020-02-24 02:01:23,,city,"Philadelphia, PA",United States
42540,-75.61770899999999,41.418195000000004,Caitlin McCafferty,707778234,2020-03-16 23:57:15,,city,"Dunmore, PA",United States
45660,-83.18478350000002,41.1147845,Carter,707778455815921665,2020-02-21 04:54:27,,city,"Tiffin, OH",United States
41780,-82.702766,41.450872499999996,Carter,707778455815921665,2020-03-24 02:44:21,,city,"Sandusky, OH",United States
39500,-91.368036,39.926189,Carter,707778455815921665,2020-05-25 23:52:46,,city,"Quincy, IL",United States
33460,-93.3407565,45.10809550000001,Suzette McKee,707778509272326145,2020-02-16 16:02:31,,city,"Brooklyn Park, MN",United States
36420,-97.455741,35.695221999999994,Suzette McKee,707778509272326145,2020-05-29 15:58:17,"Brooklyn Park, MN",city,"Edmond, OK",United States
33460,-93.3407565,45.10809550000001,Suzette McKee,707778509272326145,2020-06-10 04:37:06,"Brooklyn Park, MN",city,"Brooklyn Park, MN",United States
88,133.10835400000002,36.077497,,707778551819280385,2020-03-19 08:50:10,,city,"Ama-cho, Shimane",Japan
186,-1.687642,42.803799,fernando azcona,707778565,2020-05-26 19:56:55,"Barain, Espaa",city,"Barain, Espaa",Espaa
44940,-80.220046,33.688221500000004,jakiaaaaa,707779047497961472,2020-03-03 06:38:53,"South Carolina, USA",city,"Manning, SC",United States
21,-51.14083100000001,-29.741586,Malmacedo Seguros,707779338607972353,2020-02-20 13:42:44,"So Leopoldo, Brasil",city,"So Leopoldo, Brasil",Brasil
49660,-80.7517875,41.037097499999994,Mike Marquette,707780370,2020-02-15 18:25:28,"Youngstown, OH",city,"Canfield, OH",United States
65,-0.7822835,44.88597350000001,Ligs ,707780709,2020-02-14 15:16:32,"Bordeaux, France",city,"Saint-Mdard-en-Jalles, France",France
186,2.9257835,42.319129499999995,Ligs ,707780709,2020-03-04 02:20:34,"Bordeaux, France",city,"Pont de Molins, Espaa",Spain
65,-0.7822835,44.88597350000001,Ligs ,707780709,2020-03-07 16:04:18,"Bordeaux, France",city,"Saint-Mdard-en-Jalles, France",France
8,-58.442643,-34.604315,Seamos Libres ,707780816,2020-02-21 18:17:46,Argentina,city,"Ciudad Autnoma de Buenos Aires, Argentina",Argentina
19740,-105.05325,39.75213,Anaya Robinson,707780832820219904,2020-02-23 20:02:25,"Denver, CO",city,"Edgewater, CO",United States
41700,-98.5406515,29.417501,Hans Hassinger,707781013028663296,2020-03-11 19:07:31,"Lima, Per",city,"San Antonio, TX",United States
120,101.770181,2.9490515,Arep,707781148454166528,2020-02-14 00:49:41,"Kuala Lumpur Federal Territory, Malaysia",city,"Kajang, Selangor",Malaysia
31080,-118.17438999999999,33.767720000000004,Clan Bacon,707781276472770560,2020-02-17 10:14:27,Everywhere!,city,"Long Beach, CA",United States
46060,-110.89933,32.23592,Clan Bacon,707781276472770560,2020-02-22 05:22:35,Everywhere!,city,"Tucson, AZ",United States
18140,-83.00210266,39.9728337,Clan Bacon,707781276472770560,2020-03-06 00:32:33,Everywhere!,city,"Columbus, OH",United States
38060,-112.06960201,33.49872749,Clan Bacon,707781276472770560,2020-03-07 21:57:47,Everywhere!,city,"Phoenix, AZ",United States
39140,-111.789,34.8599,Clan Bacon,707781276472770560,2020-05-17 04:36:24,Everywhere!,city,"Sedona, AZ",United States
205,-0.36118,51.5254325,Camila Mujica,70778142,2020-02-26 09:49:37,"London, England",city,"Southall, London",United Kingdom
186,-0.352529,39.422484499999996,Mari Carmen Snchez ,707781538,2020-05-23 14:32:21,Espaa,city,"Valencia, Espaa",Espaa
21,-43.441578,-22.911421500000003,D3zin,707781976758083588,2020-02-15 02:56:10,Em outro patamar,city,"Rio de Janeiro, Brasil",Brasil
41860,-122.43597849999999,37.7706565,Maurice Harper,707782022,2020-02-19 02:10:37,,city,"San Francisco, CA",United States
24,-97.1526765,49.8538055,NorthSideEric,707782054767759361,2020-06-10 17:11:39,204,city,"Winnipeg, Manitoba",Canada
21,-46.5955455,-23.682803,Dbora Drumond,707782136590417921,2020-02-14 20:40:39,"Moema, So Paulo",city,"So Paulo, Brasil",Brasil
21,-50.6213465,-21.142682500000003,EdgarD,707782248,2020-02-15 02:29:38,"Araatuba, Brasil",city,"Araatuba, Brasil",Brasil
48700,-77.051351,41.2217075,spencetagradio,707782307,2020-02-14 02:23:55,,city,"Duboistown, PA",United States
222,113.81252419,-7.939855499999999,KPU BONDOWOSO,707782316223901696,2020-06-04 10:30:31,"Bondowoso, Indonesia",city,"Bondowoso, Indonesia",Indonesia
186,-0.47836300000000004,38.342209000000004,Angel Kiss / Anna,70778249,2020-02-21 11:15:04,London UK / Warsaw PL,poi,Hotel Spa Porta Maris,Spain
205,-0.591521,51.77392,Angel Kiss / Anna,70778249,2020-03-06 13:17:46,London UK / Warsaw PL,city,"Northchurch, England",United Kingdom
205,-3.0079355,53.874422499999994,Phil Donaldson,707782772,2020-02-14 19:32:13,Thornton cleveleys ,city,"Fleetwood, England",United Kingdom
37860,-86.8762135,30.4243925,Harrison Jackson | Underated,707782782383038464,2020-06-03 18:54:13,,city,"Navarre, FL",United States
38300,-79.9975,40.4411,Jrmy Burnich,707782994,2020-02-24 20:25:18,GMT +0000 UTC,city,"Pittsburgh, PA",United States
9,145.546875,-36.03133178,Jrmy Burnich,707782994,2020-03-08 21:28:24,GMT +0000 UTC,neighborhood,"Naring, Victoria",Australia
38300,-79.9975,40.4411,Jrmy Burnich,707782994,2020-03-14 23:25:03,GMT +0000 UTC,city,"Pittsburgh, PA",United States
151,7.422322500000001,10.511245,Mr. Integrity,707783058,2020-03-02 14:09:49,"Kaduna, Nigeria",city,"Kaduna, Nigeria",Nigeria
173,39.62796400000001,47.2610955, ,707783293,2020-02-17 08:41:41,--,city,"--, ",
85,11.331656,44.488735, -,707783372,2020-04-17 10:30:23,Da qualche parte.,city,"Bologna, Emilia Romagna",Italia
24,-74.5892818,46.12305217,Lissette Ayala,707783376,2020-05-11 02:04:08,"Mont-Tremblant, Qubec",city,"Mont-Tremblant, Qubec",Canada
35620,-74.399048,40.774339000000005,Ashley Hoerr,707783738986532864,2020-02-22 08:07:51,"Florham Park, NJ",city,"Florham Park, NJ",United States
221,25.840108999999998,-17.927035999999998,Snake Eyes,707783823,2020-02-28 18:05:48,"Harare, Zimbabwe",poi,The Three Monkeys,Zambia
178,27.968098,-26.2761385,Stormbreaker,707783823,2020-05-21 15:24:57,"Harare, Zimbabwe",city,"Johannesburg, South Africa",South Africa
191,8.5367615,47.37746900000001,Stormbreaker,707783823,2020-06-08 09:18:40,"Harare, Zimbabwe",city,"Zurich, Switzerland",Switzerland
16740,-80.8467855,35.209059,Karson ,70778392,2020-02-14 23:48:42,"Charlotte, NC",city,"Charlotte, NC",United States
11700,-82.56700749999999,35.539072499999996,Karson ,70778392,2020-03-15 00:39:36,"Charlotte, NC",city,"Asheville, NC",United States
16740,-80.8467855,35.209059,Karson ,70778392,2020-03-18 00:51:13,"Charlotte, NC",city,"Charlotte, NC",United States
205,-0.3506925,51.461742,Dayne Turbitt,707784729,2020-03-15 20:07:51,UK,city,"Hounslow, London",United Kingdom
175,39.2541285,21.5857105,#_,707784778,2020-02-14 03:37:53,jeddah,city,",   ",  
21,-43.441578,-22.911421500000003,ray,707785368,2020-05-14 23:30:22,Rio de Janeiro - RJ,city,"Rio de Janeiro, Brasil",Brasil
242,121.23213999999999,24.854815,JENNNNIE,707785482076160002,2020-02-14 05:07:37,,city,", ",
-9999,122.947014,25.1233055,JENNNNIE,707785482076160002,2020-03-09 09:41:18,,city,", ",
242,121.561476,25.085756,JENNNNIE,707785482076160002,2020-03-13 00:38:20,,city,", ",
119,-87.0316645,21.048719000000002,LikDawg,707785501827137536,2020-03-13 22:45:34,,city,"Benito Jurez, Quintana Roo",Mexico
39580,-78.657837,35.8439815,$LikDawgHuncho,707785501827137536,2020-06-05 01:54:18,,city,"Raleigh, NC",United States
47900,-76.92123149999999,38.848156,$LikDawgHuncho,707785501827137536,2020-06-05 02:50:27,,city,"Suitland, MD",United States
205,-0.14467149999999998,52.780998,Gary Gedney,707785840,2020-02-19 07:42:17,,city,"Spalding, England",United Kingdom
82,85.29276999999998,25.5082565,Vikash Vishal,707785981869449216,2020-04-24 13:32:42,"Patna, Bihar, India",city,"Patna City Outer, India",India
49,-79.770544,-2.011486,Carlos Martinez,707786178,2020-02-18 04:30:56,,city,"Samborondon, Ecuador",Ecuador
21,-46.658612,-23.581258,Miss Mortadela,707786249197756416,2020-02-15 21:44:02,Brasil,poi,Bloco Monobloco,Brasil
200,27.006511,38.4079305,Ata Sezer,70778626,2020-03-17 17:07:14,zmir,city,"zmir, Trkiye",Trkiye
41740,-117.320879,33.226316,Jodie,707786322,2020-02-14 15:14:56,,city,"Oceanside, CA",United States
119,-101.65367031,21.11405844,Czesto Hdez Sno,707786543188955140,2020-02-21 22:25:39,"Len, Guanajuato, Mexico ",city,"Len, Guanajuato",Mexico
21,-43.554934,-22.9016305,mitsuo,707786833791422464,2020-02-14 18:39:54,"So Paulo, Brasil",city,"Rio de Janeiro, Brasil",Brasil
21,-47.8180015,-21.2139225,Cristiane Ferreira ,707786874,2020-02-20 15:39:58,So Paulo - Zona Norte ,city,"Ribeiro Preto, Brasil",Brasil
173,37.42764250000001,55.7547875, ,707786915,2020-02-14 16:04:05,", ",city,", ",
33100,-80.128061,25.79214, ,707786915,2020-03-06 21:14:27,", ",poi,Delano Beach Club,United States
173,37.42764250000001,55.7547875, ,707786915,2020-03-18 16:11:33,", ",city,", ",
38,-75.8833,8.75,Willy Ruiz Lpez,707787074,2020-03-01 23:59:08,"Montera, Colombia",city,"Montera, Colombia",Colombia
43300,-96.5622275,33.740883000000004,makaila,707787305793093632,2020-03-21 17:50:44,,city,"Denison, TX",United States
21,-51.1593095,-30.099836,Rodrigues,707787421,2020-02-17 00:34:54,"Porto Alegre, Brasil",city,"Porto Alegre, Brasil",Brasil
175,39.1660135,21.54327597,Nesren,707787996863528965,2020-03-05 18:28:39,Jeddah,city,"Jeddah, Kingdom of Saudi Arabia",Kingdom of Saudi Arabia
46380,-123.20435649999999,39.268267,Dohnnovan,707788326229573633,2020-03-27 20:35:40,"Redwood Valley, CA",city,"Redwood Valley, CA",United States
8,-68.2375265,-38.9533245,Viviana Marin,707788404457603073,2020-03-02 10:20:41,,city,"Plottier, Argentina",Argentina
205,-4.172646,55.820915500000005,Jamie Wilson,707788426,2020-05-17 08:44:04,,city,"Cambuslang, Scotland",United Kingdom
21,-48.586596,-27.585732,Matheus ,707788446128021508,2020-03-12 04:07:39,,poi,Estdio Orlando Scarpelli,Brasil
12420,-98.356646,30.5425615,Drew Cooper CRU,707788615993044993,2020-03-12 01:04:43,"Llano, TXBelton, TX",city,"Horseshoe Bay, TX",United States
40140,-117.58565800000001,33.859093,Joseph Cisneros,707788651074162688,2020-02-15 07:28:41,"Corona, CA",city,"Corona, CA",United States
14260,-116.399697,43.6120725,Claire Schlechte,707788672469315585,2020-05-29 22:55:41,"Boise, ID",city,"Meridian, ID",United States
193,99.8429145,14.039204500000002,Ploy_ssss1,707788702223900672,2020-03-02 15:15:54,,city,", ",
161,73.06521592,33.69386247,Bedah Graffix (Graphics & Website Designer),707789060165804032,2020-05-05 13:35:22,Moi university & Nairobi Kenya,city,"Islamabad, Pakistan",Pakistan
23420,-119.63618899999999,36.830799,thecensoredONE,707789094315696128,2020-02-20 05:35:20,United States,city,"Clovis, CA",United States
88,139.732001,35.664053, ,707789161965576200,2020-04-05 09:04:51,,poi, (ABBEY ROAD),
33460,-93.04499100000001,44.9638255,Matt's investment club,707789212716802048,2020-02-25 19:19:42,"St Paul, MN",city,"Maplewood, MN",United States
205,-2.3200565,52.1193725,nancy howard,707789438,2020-02-22 15:52:49,"Worcester, England",city,"Great Malvern, England",United Kingdom
188,32.456742999999996,15.643079,Ezoo,707789573607268352,2020-05-02 15:30:11,,city,Omdurman,
88,135.502204,34.7003735,@maker,707789795825614848,2020-02-18 06:15:12,Facebookjun miyazaki,city,  ,
36500,-122.92351599999999,47.064528,mads,707789802347823105,2020-03-16 01:14:21,Oly ,city,"Olympia, WA",United States
31080,-117.656773,33.603508000000005,"Dr. Josh Luke, Speaker, Healthcare Authority",707790183022858240,2020-02-22 22:51:51,Coming to a Stage near you,city,"Mission Viejo, CA",United States
29420,-114.3106095,34.491052999999994,"Dr. Josh Luke, Keynote Speaker, Futurist",707790183022858240,2020-04-10 09:42:44,Coming to a Stage near you,city,"Lake Havasu City, AZ",United States
31080,-117.789005,33.8904245,"Dr. Josh Luke, Keynote Speaker, Futurist",707790183022858240,2020-04-13 16:12:47,Coming to a Stage near you,city,"Yorba Linda, CA",United States
88,139.71293374,35.69246629,(),707790505707380736,2020-05-05 09:35:19,,city, ,
10780,-92.48682149999999,31.293275,krisbey.kreme ,707790584010792960,2020-02-16 03:41:23,"Alexandria, LA",city,"Alexandria, LA",United States
35380,-90.01100799999999,29.982601000000003,krisbey.kreme ,707790584010792960,2020-03-02 02:55:23,"Alexandria, LA",city,"New Orleans, LA",United States
10780,-92.48682149999999,31.293275,krisbey.kreme ,707790584010792960,2020-03-10 17:56:48,"Alexandria, LA",city,"Alexandria, LA",United States
21,-47.796623,-15.776254000000002,Bela ,707791510,2020-02-14 02:57:35,,city,"Braslia, Brasil",Brasil
26420,-95.020205,29.547321999999998,bEy,707791671270973440,2020-03-06 03:30:25,"Houston, TX",poi,Kemah Boardwalk,United States
211,-66.930644,10.483539,Who & E,707791748249083907,2020-03-18 12:40:16,,city,"Caracas, Venezuela",Venezuela
186,1.268756,41.1252385,Rocio Perian Blanco,707791860,2020-02-15 18:46:22,Tarragona,city,"Tarragona, Espaa",Espaa
16820,-78.487448,38.0400365,Michael Moriarty,70779196,2020-02-29 21:22:33,"McLean, Va., USA",city,"Charlottesville, VA",United States
47900,-77.26325200000001,38.900207,Michael Moriarty,70779196,2020-03-07 14:55:20,"McLean, Va., USA",city,"Vienna, VA",United States
33980,-77.00664499999998,34.6638645,Michael Moriarty,70779196,2020-06-10 22:36:01,"McLean, Va., USA",city,"Emerald Isle, NC",United States
24,-97.1526765,49.8538055,Trisha Yellow Horn,70779197,2020-02-15 00:54:37,Canada,city,"Winnipeg, Manitoba",Canada
41740,-117.23193799999999,32.865946,Luis,707792060598886400,2020-02-22 02:06:18,UC San Diego,poi,La Jolla Village Square,United States
31080,-118.1940255,33.938045,Luis,707792060598886400,2020-03-01 04:20:09,UC San Diego,city,"South Gate, CA",United States
193,100.600267,13.7948215,,707792107310858240,2020-02-24 10:55:04,"Bang Khen, Bangkok",city,"Saphan Song, Thailand",Thailand
26420,-95.4464865,29.838495,Leonel ,707792191511523329,2020-02-20 14:31:19,,city,"Houston, TX",United States
40900,-121.293954,38.802465999999995,cameron,707792215192506369,2020-05-26 07:59:28,"California, USA",poi,Lucille's Smokehouse Bar-B-Que,United States
51,-6.775433500000001,53.64991800000001,Collar & Cuff,707792289,2020-02-28 18:59:06,"Harts Corner, Glasnevin",city,"Meath, Ireland",Ireland
85,12.3147815,45.31631342,Storia in movimento,707792783,2020-05-04 09:54:50,"Venezia, Pellestrina ",city,"Venezia, Veneto",Italia
186,-3.833599,40.36348,Kort  loves JW,707792801891753985,2020-02-14 07:30:42,"Baltimore, MD",city,"Alcorcn, Spain",Spain
205,-0.18919,51.5037865,Kort  loves JW,707792801891753985,2020-02-15 09:14:28,"Baltimore, MD",city,"Kensington, London",United Kingdom
164,-9.159995,38.743614,Kort  loves JW,707792801891753985,2020-02-17 20:18:33,"Baltimore, MD",city,"Lisbon, Portugal",Portugal
186,-3.833599,40.36348,Kort  loves JW,707792801891753985,2020-02-18 16:05:31,"Baltimore, MD",city,"Alcorcn, Spain",Spain
35620,-73.9487755,40.655138,Kort  loves JW,707792801891753985,2020-03-14 18:36:58,"Alcorcn, Spain",city,"Brooklyn, NY",United States
12580,-76.82334499999999,39.4944215,Kort  loves JW,707792801891753985,2020-03-15 00:21:41,"Alcorcn, Spain",city,"Reisterstown, MD",United States
41740,-117.2397795,33.184920500000004,grace fairlie,707793051800969216,2020-02-17 19:52:53,,city,"Vista, CA",United States
8,-58.351764,-34.682640500000005,Rulord7,707793176,2020-02-17 18:26:24,,city,"Avellaneda, Argentina",Argentina
186,-16.723685999999997,28.378062,Raquel Guzmn.,707793260,2020-03-24 19:17:29,Tenerife,poi,Playa de San Marcos,Espaa
27980,-156.45941599999995,20.755341,Chef Matt Yakabouski,707793340809519105,2020-04-01 08:33:16,"Hawaii, USA",city,"Kihei, HI",United States
82,72.87424399999999,19.174139999999998,Satish Jha,707793472904945664,2020-04-06 05:46:43,"Mumbai, India",city,"Mumbai, India",India
205,-1.6453615000000001,54.992055500000006,Francine Butler,70779370,2020-02-25 13:35:37,,city,"Newcastle Upon Tyne, England",United Kingdom
31080,-118.4119065,34.0207895,balam.soul,707793923197030402,2020-05-25 04:03:10,,city,"Los Angeles, CA",United States
47260,-76.28878,36.851144,Co-Co,707794464,2020-03-09 18:45:23,Norfolk Virginia,poi,Sushi King,United States
17140,-84.6426,38.9932,Irish Punisher,707794706,2020-05-09 22:11:10,Northern KY,city,"Florence, KY",United States
45540,-81.9968975,28.922832,Chris Carrizzo,70779487,2020-03-08 19:10:43,Florida,city,"The Villages, FL",United States
21,-48.478899,-27.609691, ,707794870522478598,2020-05-03 13:59:12,,city,"Florianpolis, Brasil",Brasil
19100,-97.115358,32.729091,.,707795204405915648,2020-03-03 20:07:25,,poi,University of Texas at Arlington,United States
35380,-90.01100799999999,29.982601000000003,samms,707795427563798529,2020-02-29 03:52:28,,city,"New Orleans, LA",United States
46220,-87.5334065,33.1966005,savannah s,707795427563798529,2020-03-05 21:18:54,,city,"Tuscaloosa, AL",United States
205,-2.2594365,53.48352489999999,Brad The Bear Boi ,707795508,2020-03-09 18:10:57,"Littleborough, Rochdale",city,"Salford, England",United Kingdom
193,99.8589705,13.824203,Janeji,707795612624941056,2020-02-21 00:30:26,,city,", ",
21,-40.062181,-18.7968105,cielle,707795632162009088,2020-02-14 01:19:33,,city,"So Mateus, Brasil",Brasil
12420,-97.751876,30.456954999999997,UTDCDenise,707795686360805376,2020-03-06 23:16:46,"Austin, TX",city,"Jollyville, TX",United States
82,82.14311749999997,26.689338,Er.  ,707795721349668865,2020-02-18 09:39:23,Lucknow ,city,"Faizabad, India",India
21,-45.85156355,-23.215566199999998,F Em Deus Gabriel Desgraado,707795806,2020-05-10 20:50:01,SP - So Jos dos Campos,city,"So Jos dos Campos, Brasil",Brasil
36540,-95.221436,41.014815500000005,Gator Stephens,707796067987922944,2020-03-15 21:20:11,United States,city,"Red Oak, IA",United States
21,-46.784484000000006,-23.533433,Edu Gomes,707796175387287552,2020-04-08 06:27:05,"Graja, Brasil",city,"Osasco, Brasil",Brasil
88,141.33136100000002,43.094734,schokolade,707796396380917760,2020-04-05 07:49:42, ,city,"Sapporo-shi Kita-ku, Hokkaido",Japan
119,-99.12721607,23.72588241,Lizardo Desilos,70779643,2020-02-18 01:23:47,"Ciudad Victoria, Tamaulipas",city,"Victoria, Tamaulipas",Mexico
35620,-74.44110450000001,40.48819500000001,ZV,707796445,2020-04-24 22:25:21,,city,"New Brunswick, NJ",Estados Unidos
31080,-118.4119065,34.0207895,Vane! Mojica,70779662,2020-02-17 20:00:05,"Los Angeles, CA",city,"Los Angeles, CA",United States
18580,-97.432425,27.737151,Marcus Mendoza,707797081,2020-05-05 17:20:41,,city,"Corpus Christi, TX",United States
119,-98.308599,19.022994,Gonzalo Malpica,707797892132683777,2020-02-19 03:44:56,"Puebla, Mxico",city,"San Andrs Cholula, Puebla",Mxico
39340,-111.63634850000001,39.2630285,Jim Bob Pipes,7077982,2020-03-19 14:53:25,"Manti, UT",city,"Manti, UT",United States
21,-43.441578,-22.911421500000003,cela,707798522,2020-02-18 02:33:33,,city,"Rio de Janeiro, Brasil",Brasil
21340,-106.4174305,31.793368,Josh Ruva,707799095654612992,2020-02-27 21:50:08,"Texas, USA",city,"El Paso, TX",United States
188,33.4406245,16.6920135,abdumeedo,707799378,2020-03-08 10:13:54,Sudan-shendi,city,Shendi,
8,-58.442643,-34.604315,Juan Jos,70779946,2020-02-14 00:41:45,"Buenos Aires, Argentina",city,"Ciudad Autnoma de Buenos Aires, Argentina",Argentina
35840,-82.5296125,27.590224,Eddie L,707799484005294080,2020-04-22 07:32:12,,city,"Rubonia, FL",United States
161,67.04046249,24.94048922,Fahad Masti,707799643,2020-05-25 07:22:38,"Karachi, Sindh, Pakistan",city,"Karachi, Pakistan",Pakistan
20460,-96.415184,33.953371999999995,a,707799701278564353,2020-02-16 08:27:52,UH,poi,Choctaw Casino Resort,United States
175,46.685077,24.7219435,pJLcJl o Iq,707799743,2020-04-07 14:07:20,",   ",city,",   ",  
21,-48.6829,-26.91,Patrcia Silveira,70780015,2020-03-24 21:36:47,Itaja - SC,city,"Itaja, Brasil",Brazil
88,139.84493476,35.73022887,umichan / ,707800343879536640,2020-03-25 13:46:45,7th Heaven,city, ,
65,1.4329005,43.600757,Le_neptunien,707800470,2020-03-11 21:11:38,,city,"Toulouse, France",France
186,-4.8729125,36.507495,DN,707801073,2020-02-14 09:21:34,"Marbella, Spain",city,"Marbella, Espaa",Espaa
21,-35.003737,-8.1485835,naldia,70780110,2020-02-18 22:06:33,"Recife, Brasil",city,"Jaboato dos Guararapes, Brasil",Brasil
222,105.3822135,-5.322774,OhYeaH!,707801194345963520,2020-03-12 06:24:07,Thailand,city,"Jati Agung, Indonesia",Indonesia
12420,-96.8779025,29.9079735,Mikaylee,707801225685815300,2020-03-05 03:25:09,"La Grange, TX",city,"La Grange, TX",United States
42660,-122.3306025,47.614816999999995,josiah,707801432,2020-03-28 06:00:35,"Seattle, WA",city,"Seattle, WA",United States
31080,-118.001298,34.04074,alejandra ,707801628330631168,2020-03-08 06:10:59,"San Ignacio, Sinaloa",city,"Avocado Heights, CA",United States
42940,-83.5641,35.7939,Glenda Liz Music,707802077,2020-03-08 03:33:05,www.glenlizworship.wix/music,city,"Pigeon Forge, TN",United States
205,-3.43055,51.583999999999996,Hoops Health&Fitness,707802475,2020-05-20 15:21:30,"Tonyrefail, South Wales, UK",city,"Tonyrefail, Wales",United Kingdom
205,-2.468416,56.833311,Liz Davidson ,70780251,2020-02-14 21:58:38,laurencekirk,city,"Laurencekirk, Scotland",United Kingdom
32820,-89.92202900000002,35.1335205,KennyMuney,707803055379628032,2020-05-10 04:29:48,"Memphis, TN",city,"Memphis, TN",United States
21,-43.441578,-22.911421500000003,Ray,707803198774448129,2020-02-23 07:55:28,,city,"Rio de Janeiro, Brasil",Brasil
88,139.761374,35.671224,,707803666464505857,2020-02-23 06:43:08,,poi, ,
31080,-117.918989,33.810485,,707803681140445185,2020-03-07 21:59:15,octavio,poi,Disneyland Park,United States
119,-116.929102,32.332876500000005,Candy.Garcia,70780376,2020-04-09 06:06:17,"tijuana,bc",city,"Tijuana, Baja California",Mxico
171,121.5245095,14.3765275,l,707803855862550529,2020-03-16 13:14:10,zzZzzz,city,"Paete, Calabarzon",Republic of the Philippines
65,4.83156,45.7706,Eric S. ,707804119,2020-05-27 12:34:29,Lyon,city,"Lyon, France",France
82,77.4233395,28.773568,Samar Choudhary ,707804191901786112,2020-03-28 06:56:11,"Ghaziabad, India",city,"Ghaziabad, India",India
37980,-75.36783050000001,40.0283595,"im the closer, son",707804282603626496,2020-02-14 15:04:10,"Pittsburgh, PA",city,"Radnor Township, PA",United States
49660,-80.63954050000002,41.105271,DJ Kela,707804282603626496,2020-03-01 21:41:21,"Pittsburgh, PA",city,"Youngstown, OH",United States
37980,-75.36783050000001,40.0283595,DJ Kela,707804282603626496,2020-03-09 12:31:21,"Pittsburgh, PA",city,"Radnor Township, PA",United States
49660,-80.497282,41.2350315,DJ Kela,707804282603626496,2020-03-15 03:37:26,"Pittsburgh, PA",city,"Sharon, PA",United States
158,174.7657,-36.8473,Jared Rogers,707804418528387077,2020-02-16 16:43:42,"Auckland, New Zealand",city,"Auckland, New Zealand",New Zealand
200,34.63096619,36.81285801,ibrahim can,707805139,2020-02-14 12:26:03,,city,"Mersin, Trkiye",Trkiye
33460,-93.2024385,44.746673,Wendy Braun,70780535,2020-05-26 23:18:55,,city,"Apple Valley, MN",United States
151,3.8809199999999997,7.444832000000001,Mojee_Oshaa ,707805558032752640,2020-03-15 23:18:21,Nigeria ,poi,Polytechnic of Ibadan,Nigeria
88,141.4078,43.0944955,,707805835683041280,2020-02-23 07:52:35,,city,"Sapporo-shi Higashi-ku, Hokkaido",Japan
151,7.46697566,9.05311263,Scofi,707805839,2020-03-11 11:42:57,Abuja,city,"Abuja, Nigeria",Nigeria
82,77.095086,28.638489500000002,sher mohammad,707805983419076608,2020-04-21 22:40:29,,city,"New Delhi, India",India
205,-1.7430130000000001,53.931526,carolinescott,70780608,2020-02-15 08:39:12,london,city,"Askwith, England",United Kingdom
21,-46.4539065,-23.39208,Andr Alves,70780687,2020-03-31 02:53:06,"Guarulhos, So Paulo, Brasil",city,"Guarulhos, Brasil",Brasil
88,130.55822450000002,33.296299499999996,19,707807015637262336,2020-03-25 13:58:48,,city,"Kurume-shi, Fukuoka",Japan
34380,-84.772176,43.593853,JP.,707807414,2020-02-15 16:29:45,"Mount Pleasant, MI",city,"Mount Pleasant, MI",United States
82,75.74752099999999,26.909683,Dpk,707807761,2020-06-10 19:22:45,Jaipur,city,"Jaipur, India",India
88,136.2628005,35.01285900000001,,707808014468775936,2020-03-04 12:09:18, ,city, ,
28740,-74.158105,41.607268499999996,Scoffer,707808166,2020-03-05 12:18:36,"Wallkill, NY",city,"Wallkill, NY",United States
35620,-74.942363,41.3165135,Scoffer,707808166,2020-03-14 22:59:56,"Wallkill, NY",city,"Gold Key Lake, PA",United States
28740,-74.158105,41.607268499999996,Scoffer,707808166,2020-03-29 10:42:38,"Wallkill, NY",city,"Wallkill, NY",United States
35620,-74.942363,41.3165135,Scoffer,707808166,2020-05-25 11:55:34,"Wallkill, NY",city,"Gold Key Lake, PA",United States
28740,-74.158105,41.607268499999996,Scoffer,707808166,2020-06-05 14:35:23,"Wallkill, NY",city,"Wallkill, NY",United States
21,-46.2900965,-23.86332,Guri,707808234984349696,2020-02-15 21:06:19,,city,"Santos, Brasil",Brasil
71,10.94679,49.4529,Sylke Otto,707808623,2020-02-26 23:11:24,,city,"Zirndorf, Deutschland",Deutschland
200,30.680889,36.89007,Evren Eren,707808685,2020-02-18 11:04:49,,city,"Antalya, Trkiye",Trkiye
88,139.77174068,35.70067635,,707808705623035904,2020-02-16 06:09:45,,city, ,
88,136.910046,35.17161,,70780873,2020-02-14 06:29:41,,poi,    ,
200,27.744695,41.201282,buse etin,707808849638592512,2020-03-29 17:58:51,"orlu, Trkiye",city,"orlu, Trkiye",Trkiye
242,120.9558625,24.2208365,Albert Lin,707808882865905665,2020-02-26 09:27:14,Taichung ,city,", ",
193,100.5297155,13.7639525, ,707809024088088577,2020-02-25 17:27:29,,city,"Ratchathewi, Thailand",Thailand
178,27.968098,-26.2761385,Chantal Stanfield,70780938,2020-02-17 12:19:23,South Africa ,city,"Johannesburg, South Africa",South Africa
82,86.702802,24.49307,Jitendra Singh King,707809523944333314,2020-03-17 16:00:45,,poi,Shivganga,India
172,-66.2160815,18.094944,luis guzman,707809534,2020-05-11 20:30:37,,city,"Pasto Viejo, USA",Estados Unidos
33,-70.656707,-33.438228,Ta de Jimena,70780964,2020-04-03 00:54:43,"Santiago, Chile",poi,Edificio Catedral 1350,Chile
171,121.55396366,14.11586123,Ronnie Fontanil Abad,707809835304263680,2020-04-23 14:10:26,"San, Francisco quezon",city,"Lucban, Calabarzon",Republic of the Philippines
26620,-86.611411,34.7060265,Marce,707809849652989952,2020-02-14 06:59:19,,city,"Huntsville, AL",United States
88,133.00512650000002,34.4553855,naoko,707810108626083840,2020-03-13 06:08:02,,city, ,
41700,-98.731789,29.7827985,Carla Hernandez,707810121452294144,2020-02-28 20:28:26,Cloud 9,city,"Boerne, TX",United States
175,43.7381905,25.955932500000007,2klh,707810244894834688,2020-06-09 11:08:25,,city,"Al Badai, Kingdom of Saudi Arabia",Kingdom of Saudi Arabia
151,7.424094,9.073663999999999,pApi ,707810270840758272,2020-03-26 13:21:43,"Abuja, Nigeria",city,"Abuja, Nigeria",Nigeria
186,-3.68333,40.4,The Smoked Man  ,707810394,2020-02-16 21:06:15,Algn mundo de yupi,city,"Madrid, Espaa",Espaa
82,72.859206,19.0778325,Ajay Shinde,707810506531282944,2020-03-23 08:02:22,,neighborhood,"Santacruz East, Mumbai",India
119,-99.0170165,19.432722000000002,marco Antonio,707810576,2020-03-09 19:07:44,,city,"Nezahualcyotl, Mxico",Mxico
205,-5.928413,54.59586899999999,Household Belfast,707810767,2020-03-20 18:18:31,Belfast,city,"Belfast, Northern Ireland",United Kingdom
27740,-82.3882145,36.3447405,Patrick Kelley,707810821506789376,2020-03-07 22:21:45,,city,"Johnson City, TN",United States
9,146.41901000000001,-36.6784,David Morgan,707811090659459072,2020-05-12 03:51:57,"King Valley, Victoria",neighborhood,"King Valley, Victoria",Australia
38,-74.24367099999999,4.2622835,sinegly Prez,707811230,2020-03-17 23:05:38,,city,"Bogot, D.C., Colombia",Colombia
42200,-119.8286955,34.439463,Juan Parra,70781156,2020-05-03 05:12:23,"Santa Barbara, Los Angeles",city,"Goleta, CA",United States
29420,-114.3372,34.4774,Lew Jabro,70781173,2020-02-20 21:17:57,Lake Havasu City AZ,city,"Lake Havasu City, AZ",United States
31080,-118.4119065,34.0207895,Sean,707812020570165248,2020-03-17 21:33:29,"Los Angeles, CA",city,"Los Angeles, CA",United States
200,29.0052225,41.0213205,OKAN AKIN,70781235,2020-02-14 20:35:21,"stanbul, Trkiye",city,"stanbul, Trkiye",Turkey
178,18.59674215,-33.96831339,OKAN AKIN,70781235,2020-02-16 11:46:24,"stanbul, Trkiye",city,"Cape Town, South Africa",South Africa
200,29.0052225,41.0213205,OKAN AKIN,70781235,2020-02-21 17:02:48,"stanbul, Trkiye",city,"stanbul, Trkiye",Turkey
222,106.8022175,-6.18947,OKAN AKIN,70781235,2020-02-22 12:22:10,"stanbul, Trkiye",city,"Palmerah, Indonesia",Indonesia
200,28.93107215,41.04775194,OKAN AKIN,70781235,2020-02-29 13:55:42,"stanbul, Trkiye",city,"stanbul, Trkiye",Turkey
71,10.003524,53.7038605,OKAN AKIN,70781235,2020-03-01 14:57:26,"stanbul, Trkiye",city,"Norderstedt, Deutschland",Germany
200,29.0310658,41.07880909,OKAN AKIN,70781235,2020-03-02 16:19:38,"stanbul, Trkiye",city,"stanbul, Trkiye",Turkey
14460,-71.02134000000001,42.256124,OKAN AKIN,70781235,2020-03-08 20:27:58,"stanbul, Trkiye",city,"Quincy, MA",United States
200,28.87232752,40.97720043,OKAN AKIN,70781235,2020-03-09 19:47:49,"stanbul, Trkiye",city,"stanbul, Trkiye",Turkey
26020,-103.147538,32.7417365,It's Jennifer!! ,70781335,2020-02-26 21:37:49,"Jal, New Mexico",city,"Hobbs, NM",United States
16100,-104.4259405,32.824449,It's Jennifer!! ,70781335,2020-02-29 06:31:49,"Jal, New Mexico",city,"Artesia, NM",United States
26020,-103.147538,32.7417365,It's Jennifer!! ,70781335,2020-03-31 19:10:41,"Jal, New Mexico",city,"Hobbs, NM",United States
82,72.87424399999999,19.174139999999998,Noorjehan S N,707813359878610944,2020-04-18 07:36:44,,city,"Mumbai, India",India
205,-0.0350195,51.5148305,Gueredo,707813381,2020-06-10 23:24:23,"Londres, Inglaterra",city,"Poplar, London",Reino Unido
35620,-74.171711,40.4267405,JRod,707813432,2020-02-14 01:30:02,"Hazlet, NJ",city,"Hazlet, NJ",United States
33100,-80.14917249999999,26.150368,JRod,707813432,2020-03-09 18:35:12,"Hazlet, NJ",city,"Fort Lauderdale, FL",United States
35620,-74.171711,40.4267405,JRod,707813432,2020-03-17 14:58:22,"Hazlet, NJ",city,"Hazlet, NJ",United States
21,-50.8108909,-29.640356099999998,Igor Verona ,707813702,2020-03-19 12:09:29,Parob,city,"Parob, Brasil",Brasil
200,29.0052225,41.0213205,Hanan. Aljaafreh,707813717,2020-03-09 22:54:02,"Istanbul , Turkey ",city,"stanbul, Trkiye",Turkey
175,49.6276765,25.458642,ammar ibrahim,707813720,2020-05-07 18:09:28,,city,",   ",  
178,28.136677000000002,-26.172960500000002,Black_Jesus,707813857,2020-04-03 07:02:46,Brick City,city,"Bedfordview, South Africa",South Africa
151,5.641287999999999,6.3349545,Ken,707814228,2020-04-10 22:41:22,Benin City. Nigeria,city,"Benin-City, Nigeria",Nigeria
119,-99.175075,19.497523,Miguel Angel Flores,707814320,2020-03-15 01:03:16,"Distrito Federal, Mxico",poi,Arena Ciudad de Mxico,Mxico
205,-0.22443000000000002,51.49474,Ryan Candy,707814360874360832,2020-03-15 13:19:21,,city,"Hammersmith, London",United Kingdom
41740,-117.18181100000001,32.909566,Kaushik Awala,707814577430462464,2020-02-22 21:01:28,,poi,Google San Diego,United States
29820,-115.13516499999999,36.060964500000004,OC BLACK,707814703926550528,2020-02-16 20:35:13,"Foothill Ranch, CA",city,"Paradise, NV",United States
205,-2.960794,53.430746,  ,707815055,2020-03-11 23:07:03,my own bubble,poi,Anfield,United Kingdom
65,0.295835,46.586225,bellavia deborah,707815321,2020-02-16 19:05:44,"Poitiers, France",city,"Biard, France",France
19820,-83.0507,42.3368,Electric Six,70781559,2020-03-05 23:55:41,"Detroit, MI",city,"Detroit, MI",United States
173,37.24558,55.99918,,707815826519400448,2020-06-06 08:53:49,", ",city,", ",
193,100.585438,13.732404,,707816010183741442,2020-02-14 17:15:44,3 month for everything,poi,DEMO (),
186,-6.2715629999999996,36.492477,Silvi,707816102,2020-03-14 21:17:41,"Cdiz, Espaa y ol.",city,"Cdiz, Espaa",Espaa
31080,-118.6311135,34.478413,Orik,707816262034968579,2020-03-08 01:44:59,"Castaic, CA",city,"Castaic, CA",United States
21,-43.441578,-22.911421500000003,Ra Chaves,70781665,2020-02-14 15:54:49,Rio de Janeiro,city,"Rio de Janeiro, Brazil",Brazil
178,30.9725795,-29.900636,South African Sniper ,707816802,2020-02-17 16:24:26,"Durban, South Africa",city,"Durban, South Africa",South Africa
24,-78.33212138,44.28209706,CCS Peterborough,70781698,2020-02-27 01:12:22,"Peterborough, Ontario",city,"Peterborough, Ontario",Canada
47900,-77.3244645,38.8969455,Gym Leader Psyduck ,707817049880465408,2020-02-14 00:26:24,"Fairfax, VA",city,"Oakton, VA",United States
40060,-77.58889350000001,37.599557,Eddie,707817049880465408,2020-03-02 02:32:33,"Fairfax, VA",city,"Tuckahoe, VA",United States
47900,-77.3244645,38.8969455,Eddie,707817049880465408,2020-03-05 08:21:58,"Fairfax, VA",city,"Oakton, VA",United States
31080,-117.824049,33.810159000000006,Baffoonering,707817188749668353,2020-02-29 23:46:41,"California, USA",city,"Orange, CA",United States
40140,-117.31987099999999,34.057348000000005,Baffoonering,707817188749668353,2020-03-03 20:43:42,"California, USA",city,"Colton, CA",United States
48620,-97.256632,37.5505705,jerry,707817282,2020-02-24 18:17:54,"Kansas, USA",city,"Derby, KS",United States
31080,-118.26,33.8397,B-Tip,70781769,2020-02-19 18:34:58,Global,city,"Carson, CA",United States
24,-75.51841999999999,44.70942,B-Tip,70781769,2020-03-03 22:30:30,Global,city,"Prescott, Ontario",Canada
41620,-111.883,40.75,B-Tip,70781769,2020-03-04 21:17:31,Global,city,"Salt Lake City, UT",United States
31080,-118.26,33.8397,B-Tip,70781769,2020-03-09 22:05:41,Global,city,"Carson, CA",United States
24,-75.51841999999999,44.70942,B-Tip,70781769,2020-03-10 15:19:35,Global,city,"Prescott, Ontario",Canada
31080,-118.13486999999999,34.14505,B-Tip,70781769,2020-03-13 00:29:35,Global,city,"Pasadena, CA",United States
85,10.0,45.0,B-Tip,70781769,2020-04-09 22:31:39,Global,city,"Besenzone, Emilia Romagna",Italy
41620,-111.883,40.75,B-Tip,70781769,2020-04-27 19:55:26,Global,city,"Salt Lake City, UT",United States
31080,-118.15585613,33.78082458,B-Tip,70781769,2020-05-15 22:00:23,Global,city,"Long Beach, CA",United States
41980,-66.058368,18.384165499999998,,707817781,2020-03-11 06:12:03,,city,"San Juan, USA",United States
172,-66.10476899999999,18.4678805,,707817781,2020-03-12 02:20:09,,city,"San Juan Antiguo, USA",United States
41980,-66.058368,18.384165499999998,,707817781,2020-03-12 03:08:41,,city,"San Juan, USA",United States
172,-66.0116515,18.4408955,,707817781,2020-03-13 13:49:29,,city,"Isla Verde, USA",United States
49180,-80.244984,36.0871685,,707817781,2020-03-14 23:40:27,,city,"Winston-Salem, NC",United States
16740,-81.1756115,35.338374,,707817781,2020-03-17 04:18:16,,city,"Dallas, NC",United States
57,16.3731,48.2083,Vanessa,707817856587661312,2020-02-26 09:46:26,"Wien, sterreich",city,"Wien, sterreich",sterreich
21,-40.37516700000001,-20.427329500000003,Lora Dias,707817895,2020-02-26 01:02:19,"Vila Velha, Brasil",city,"Vila Velha, Brasil",Brasil
82,88.1954365,22.1970125,SOUMIT BHANDARY,707817901093421057,2020-03-26 07:24:31," , ",city,"Diamond Harbour, India",India
19100,-96.621634,32.907641999999996,s j,707817952490426368,2020-05-26 07:48:14,"Sachse, TX",city,"Garland, TX",United States
32020,-83.12786949999999,40.5837275,Marion Tech,70781797,2020-02-17 17:27:25,"Marion, OH",city,"Marion, OH",United States
85,13.750288000000001,45.645409,Tayfun Cokun,707818014,2020-03-14 16:05:00,istanbul,poi,Porto di Trieste,Italia
73,23.9919925,40.796757,Tayfun Cokun,707818014,2020-03-29 12:06:34,istanbul,city,", ",
200,29.0052225,41.0213205,Tayfun Cokun,707818014,2020-04-03 05:22:34,istanbul,city,"stanbul, Trkiye",Trkiye
85,13.804895499999999,45.7179265,Tayfun Cokun,707818014,2020-05-04 15:47:11,istanbul,city,"Monrupino, Friuli-Venezia Giulia",Italia
193,100.928864,13.1699105,,707818268069916672,2020-03-03 02:45:46,()//,city,", ",
88,139.73951449999998,35.56689400000001,,707818268069916672,2020-03-26 11:36:58,,city, ,
171,121.4765,15.794329999999999,Chstr,707818566683336704,2020-04-21 12:24:54,,city,"Maria Aurora, Central Luzon",Republic of the Philippines
71,11.5417535,48.154879,Shiva Shankar Paul,707818581099220993,2020-04-12 20:56:21,"Bogenhausen, Mnchen",city,"Mnchen, Deutschland",Deutschland
45780,-83.534982,41.646089,Lauren Comai Hornberger,707818655,2020-02-14 18:05:20,,poi,Owens Corning,United States
11460,-83.7515025,42.178922,Lauren Comai Hornberger,707818655,2020-04-11 13:26:28,,city,"Saline, MI",United States
41740,-117.038987,32.7326265,Eddie Tucks,707818699,2020-05-12 18:26:06,"San Diego, CA",city,"Lemon Grove, CA",United States
31080,-117.7823605,33.689732,Alejandra Hernandez,707818754810519554,2020-06-01 03:07:36,,city,"Irvine, CA",United States
171,123.94286100000001,10.3553425,NYLE,707819242536755200,2020-02-17 13:47:41,LCPA,city,"Mandaue City, Central Visayas",Republic of the Philippines
175,46.685077,24.7219435,   ,707819324459847680,2020-02-14 05:18:59,"Riyadh, KSA",city,"Riyadh, Kingdom of Saudi Arabia",Kingdom of Saudi Arabia
175,39.2541285,21.5857105,Exawy,707819490805997572,2020-02-26 09:26:30,"El Sharkia, Egypt",city,"Jeddah, Kingdom of Saudi Arabia",Kingdom of Saudi Arabia
38,-73.13269700000002,7.144792999999999,Mile,707819535613751297,2020-03-04 17:56:46,Colombia,city,"Bucaramanga, Colombia",Colombia
12580,-76.62048200000002,39.284713,Brandyn Lau,70781975,2020-03-16 22:42:29,"Baltimore, MD",city,"Baltimore, MD",United States
175,50.052796,26.484512,Zahra,707820646257041408,2020-02-14 14:05:40,.,city,",   ",  
41860,-122.31542150000001,37.552481,Gee Hernandez,707820702980829184,2020-03-11 22:57:21,"San Mateo, CA",city,"San Mateo, CA",United States
88,136.6245935,34.552158500000004,zootopia,707820918131843073,2020-05-01 14:14:03,", ",city,"Meiwa-cho, Mie",Japan
31080,-118.275926,33.825016999999995,farrah,707821280,2020-03-13 16:48:18,"Carson, CA",poi,SUBWAY,United States
33260,-102.10462700000001,31.994300000000006,farrah,707821280,2020-03-21 09:22:54,"Carson, CA",city,"Midland, TX",United States
31080,-118.2480625,33.839611500000004,farrah,707821280,2020-03-29 02:52:03,"Carson, CA",city,"Carson, CA",United States
200,32.841937,40.000465999999996,Affan Volkan Akbal,707821336,2020-04-25 20:43:33,,city,"Keiren, Trkiye",Turkey
222,110.747945,-6.904656500000001,Abdul Wahab,707821652135047168,2020-02-24 16:15:52,"Demak, Jawa Tengah",city,"Gajah, Indonesia",Indonesia
26420,-95.4464865,29.838495,Junius Taville,707821766928965632,2020-03-05 03:03:49,,city,"Houston, TX",United States
47900,-77.055398,38.895936999999996,Divesh Gupta,707821829579272193,2020-03-10 02:51:50,"Washington, DC",poi,The John F. Kennedy Center for the Performing Arts,United States
12580,-76.62048200000002,39.284713,Divesh Gupta,707821829579272193,2020-03-10 18:18:55,"Washington, DC",city,"Baltimore, MD",United States
47900,-77.2038845,38.9374855,Divesh Gupta,707821829579272193,2020-03-12 00:24:23,"Washington, DC",city,"McLean, VA",United States
12580,-76.148999,39.4977025,Divesh Gupta,707821829579272193,2020-04-07 18:05:04,"Washington, DC",city,"Aberdeen, MD",United States
47900,-77.2038845,38.9374855,Divesh Gupta,707821829579272193,2020-04-07 19:49:25,"Washington, DC",city,"McLean, VA",United States
30700,-96.6965625,40.803235,Sammie,707821872,2020-02-14 22:05:33,"Lincoln, NE",city,"Lincoln, NE",United States
26420,-95.6117895,29.666108500000004,TWENTY24FOUR,707821904531464192,2020-02-28 02:58:20,"flagashlaga, huestun",neighborhood,"Alief, Houston",United States
48300,-119.519816,48.4096495,Raymond McDonald,707822106038423552,2020-05-09 08:48:58,"Spokane, WA",city,"Omak, WA",United States
31080,-117.918989,33.810485,,707822365594488832,2020-02-14 04:38:53,,poi,Disneyland Park,United States
205,0.474782,51.3957625,Boomer ,707822940243554304,2020-04-16 10:01:01,,city,"Strood, South East",United Kingdom
88,130.0450725,32.86464, ,707823109118754820,2020-02-15 03:48:22, ,city, ,
88,138.481643,34.997816,Hair Salon TODA ,707823151112126464,2020-02-19 02:03:40,,poi, ,Japan
41740,-117.13887589,32.81948728,SDEA,70782320,2020-02-25 22:40:50,"San Diego, CA",city,"San Diego, CA",United States
200,36.3406495,41.31315100000001,muratpasa ok,707823247,2020-02-20 15:40:19,Trkiye,city,"Samsun, Trkiye",Trkiye
9,145.5423225,-37.7732035,Joanne Dunne,707823314174132227,2020-02-23 08:36:31,"Woori Yallock, Woori Yallock - Launching Place",city,"Woori Yallock - Launching Place, Victoria",Australia
19740,-104.9004133,39.4509624,Ross Macdonald,707823373,2020-05-16 23:51:05,,city,"Castle Pines, CO",United States
82,82.93295549999998,25.3733755,Sampurnanand Mishra,707823404234235904,2020-02-14 08:54:37,,city,"Varanasi, India",India
38220,-91.796479,33.637096,Deborah West,707823890,2020-05-17 16:36:10,,poi,Pauline Baptist Church,United States
41700,-98.5406515,29.417501,M@tth3w,707823926039220224,2020-02-16 21:37:14,,city,"San Antonio, TX",United States
33100,-80.230358,26.1648645,Fred Connolly,707824168,2020-02-14 00:56:53,"Fort Lauderdale, FL",city,"Lauderhill, FL",United States
35620,-73.254595,40.7289075,Fred Connolly,707824168,2020-04-24 14:09:47,"Fort Lauderdale, FL",city,"Bay Shore, NY",United States
88,136.9155756,35.12334343,,707824237818617856,2020-02-23 10:03:42,,city,"Nagoya-shi Atsuta, Aichi",Japan
151,3.3524415000000003,7.154428,Iam_kreamy,707824293,2020-02-16 06:28:01,"Lagos, Nigeria",city,"Abeokuta, Nigeria",Nigeria
16980,-87.8506395,42.286570000000005,Harvey the Wonder Dog,70782468,2020-02-21 00:53:40,"Lake Bluff, Il",city,"Lake Bluff, IL",United States
160,-71.98823,-13.49821,L.ODC,70782514,2020-03-17 00:25:59,mendoza argetina,city,"Cusco, Peru",Peru
8,-68.8666875,-32.8833425,L.ODC #varadosencusco,70782514,2020-04-04 01:20:38,mendoza argetina,city,"Mendoza, Argentina",Argentina
88,136.61682,36.578342,Riy38(R.N),707825801119531009,2020-02-14 00:45:00,  ,city, ,
205,-0.278464,51.390063,Faisal,707825858,2020-04-29 09:42:44,"London, England",city,"Kingston upon Thames, London",United Kingdom
171,121.033212,14.5464995,Bitchybeth,707826228611440640,2020-02-14 19:29:54,,city,"Makati City, National Capital Region",Republic of the Philippines
200,29.0052225,41.0213205,edanur,707826367417683969,2020-05-06 01:35:55,"stanbul, Trkiye",city,"stanbul, Trkiye",Turkey
85,11.8483,42.03267,robertOne,70782650,2020-02-23 14:26:32,roma,city,"Santa Marinella, Lazio",Italia
14,90.405293,24.749445,Ashiqul Islam,707826561840447488,2020-04-02 03:29:41,,city,"Mymensingh, Bangladesh",Bangladesh
45060,-76.2256855,43.001006,Tony Alvaro,70782665,2020-04-29 23:35:16,Central New York,city,"Loomis Hill, NY",United States
65,6.1734505,48.68805,Lydie Leblanc,707827071465201664,2020-03-13 06:45:56,,city,"Nancy, France",France
38,-72.5371965,7.754867,RevisinTcnicoMecan,707827207,2020-02-19 00:50:20,"Los Patios, Norte de Santander",city,"Los Patios, Colombia",Colombia
205,-2.3255035,53.694893500000006,Marie Kayley,707827399153549312,2020-05-13 17:11:58,,city,"Haslingden, England",United Kingdom
16740,-81.1821175,35.239512,V.,707827484,2020-02-14 12:56:08,Trying to make a way.,city,"Gastonia, NC",United States
25860,-81.2134265,35.714599,V.,707827484,2020-05-23 22:23:15,Trying to make a way.,city,"Conover, NC",United States
16740,-81.1821175,35.239512,V.,707827484,2020-05-29 13:08:18,Trying to make a way.,city,"Gastonia, NC",United States
88,139.622008,35.74586499999999,yoshiedesu,707827586752188416,2020-05-26 23:50:45,,city,"Nerima-ku, Tokyo",Japan
12060,-84.43310600000001,33.7671945,Mani Fucking Los ,707827645082370048,2020-03-12 03:19:09,,city,"Atlanta, GA",United States
27600,-83.817465,34.111324499999995,Mani Fucking Los ,707827645082370048,2020-03-14 14:10:39,,city,"Braselton, GA",United States
191,8.5316,47.3846,Martin Andermatt,707827649,2020-02-28 20:46:49,,city,"Zrich, Schweiz",Schweiz
119,-99.0444445,19.568279999999998,alma hdez,707827873642512385,2020-02-15 02:34:22,,city,"Ecatepec de Morelos, Mxico",Mxico
36420,-97.552161,35.4828435,Steven Buck,70782794,2020-02-15 16:31:25,"Oklahoma City, OK",city,"Oklahoma City, OK",United States
205,-0.13275325,51.51440803,matt humphrey,70782798,2020-03-18 10:56:09,Brighton,city,"London, England",United Kingdom
82,72.87424399999999,19.174139999999998,Bugger of Bandra,707828061744578561,2020-03-25 06:53:33,,city,"Mumbai, India",India
43340,-93.809434,32.461107,Javari williams,707828413701169152,2020-02-15 01:00:21,"Shreveport, LA",city,"Shreveport, LA",United States
88,139.622008,35.74586499999999, ,707828440200650752,2020-04-08 11:01:51,,city,"Nerima-ku, Tokyo",Japan
40060,-77.374808,37.5809385,ents to Dollar$,70782874,2020-04-28 16:18:59,MARS!! aka richtown VA !!,city,"East Highland Park, VA",United States
85,7.6757855,45.072872499999995,Barbara Gargini,707828853,2020-02-25 07:01:24,,city,"Torino, Piemonte",Italia
65,3.3921155,50.328887,amlie,707828862,2020-05-01 22:25:27,,city,"Denain, France",France
82,76.86555,17.3523455,Zaheer Ahmed Patel,707828884243226625,2020-02-21 17:31:52,"Gulbarga, India",neighborhood,"Ring Road, Gulbarga",India
205,-0.115406,51.4603395,Adewale O,707829230,2020-02-17 21:06:31,London,city,"Lambeth, London",United Kingdom
21500,-80.087032,42.110703,Chris Ryan ,707829602,2020-02-14 14:08:01,"Erie, PA",city,"Erie, PA",United States
38300,-80.0502625,40.376241,Chris Ryan ,707829602,2020-02-17 22:29:10,"Erie, PA",city,"Mount Lebanon, PA",United States
37980,-75.28282200000002,40.1103345,Chris Ryan ,707829602,2020-02-22 02:04:09,"Erie, PA",city,"Plymouth Meeting, PA",United States
21500,-80.087032,42.110703,Chris Ryan ,707829602,2020-03-15 21:50:24,"Erie, PA",city,"Erie, PA",United States
27780,-78.95376949999998,40.320869,Chris Ryan ,707829602,2020-05-25 14:52:32,"Erie, PA",city,"Westmont, PA",United States
151,3.505413,6.6258965,Tolu Michael,707829641428525057,2020-04-20 09:15:35,Lagos,city,"Ikorudu, Nigeria",Nigeria
24,-113.33142600000001,53.864215,Shan Gr,70782966,2020-06-02 19:39:22,,poi,Jurassic Forest,Canada
34940,-81.7123585,25.9413035,Orlando Chamber,70782976,2020-03-27 16:56:05,"Orlando, Florida, USA",city,"Marco Island, FL",United States
15980,-82.06378149999999,26.445508500000003,Orlando Chamber,70782976,2020-04-02 12:50:05,"Orlando, Florida, USA",city,"Sanibel, FL",United States
88,135.50251200000002,34.664457,hitoooomi,707829767005818880,2020-03-28 13:32:05,,poi,,
186,-4.4604405,36.68247373,Jose Ajero,70782989,2020-02-16 09:41:59,En tu Cancha,city,"Mlaga, Espaa",Espaa
31080,-118.55272802,34.04473074,Jose Ajero,70782989,2020-02-24 20:47:30,En tu Cancha,city,"Los Angeles, CA",Estados Unidos
186,2.15273291,41.36407143,Jose Ajero,70782989,2020-02-25 08:21:30,En tu Cancha,city,"Barcelona, Espaa",Espaa
235,20.2919525,44.82022395,Jose Ajero,70782989,2020-05-20 13:46:19,En tu Cancha,city,"Surin, Srbija",Repblica de Serbia
186,-3.69795108,40.59930187,Jose Ajero,70782989,2020-05-22 09:32:55,En tu Cancha,city,"Tres Cantos, Espaa",Espaa
37980,-75.117998,40.0048655,Mikey,70782990,2020-03-03 12:32:56,NJ,city,"Philadelphia, PA",United States
35620,-74.020494,40.768929,Mikey,70782990,2020-03-03 15:39:17,NJ,city,"Weehawken, NJ",United States
33100,-80.1341,25.813000000000002,Mikey,70782990,2020-03-12 10:31:06,NJ,city,"Miami Beach, FL",United States
11700,-82.5558,35.5799,Mikey,70782990,2020-06-08 00:53:17,NJ,city,"Asheville, NC",United States
193,101.07101899999999,13.684000000000001,,707829923231105025,2020-05-20 04:56:17,,city,", ",
200,28.978144,41.007932000000004,Fotoraf Bkc,707830075815804932,2020-03-28 19:18:29,"stanbul, Trkiye",city,"stanbul, Trkiye",Trkiye
88,139.5553615,35.78968000000001,KK,707830890513043456,2020-03-27 10:20:16,,city, ,
88,139.7091805,35.701657,yusususu,707830947983523840,2020-05-17 05:22:03,"Tokyo-to, Japan",city, ,
88,140.39032946,37.39018156,Yuu-San,707831479850520576,2020-02-14 09:35:18,,city, ,
35620,-73.993542,40.750752,(  ),707831596192178176,2020-03-03 04:33:32,,poi,Madison Square Garden,United States
31080,-118.4119065,34.0207895,shamelesskicks,707831672,2020-02-16 21:22:54,"Los Angeles, CA",city,"Los Angeles, CA",United States
193,100.5835805,13.752507000000001,CeoEakkapob,707831705365667842,2020-02-14 10:06:09,,city,"Bang Kapi, Thailand",Thailand
36420,-97.35762,35.47036400000001,"Oscar Womack, Jr.",707831960,2020-03-03 17:18:57,,city,"Midwest City, OK",United States
120,100.32959699999999,5.41792,.,707832158316965889,2020-02-16 04:42:09,,city,"George Town, Pinang",Malaysia
32820,-89.81487899999998,35.230487,Stephanie,707832294,2020-02-25 12:45:28,"Memphis,Tennessee ",city,"Bartlett, TN",United States
40060,-77.452485,37.548083,Mykalee Atkins ,707832399359508480,2020-03-06 02:42:39,Somewhere in Va on a Track ,poi,Shafer Court Dining Center,United States
33100,-80.32799849999999,26.0278895,Mykalee Atkins ,707832399359508480,2020-03-11 02:33:39,Somewhere in Va on a Track ,city,"Pembroke Pines, FL",United States
40060,-77.49317049999998,37.529883,Mykalee Atkins ,707832399359508480,2020-03-12 15:36:49,Somewhere in Va on a Track ,city,"Richmond, VA",United States
47260,-76.2958955,36.7632155,Mykalee Atkins ,707832399359508480,2020-03-22 01:15:00,Somewhere in Va on a Track ,city,"Chesapeake, VA",United States
41180,-90.326339,38.409754,"Lauren Henke, MD, MSCI",70783245,2020-04-26 19:45:19,"St. Louis, Missouri",poi,Bee Tree County Park,United States
91,35.595853000000005,3.11394,Anita Ngala Ekuam,707832909256855552,2020-02-15 08:23:14,"Lodwar, Kenya",city,"Lodwar, Kenya",Kenya
88,139.37603000000001,36.228035,,707832959001202688,2020-04-15 06:22:33,L'importante e` non arrendersi,poi, ,
200,36.3406495,41.31315100000001,kronikebe,707833141780717568,2020-05-21 19:25:27,,city,"Samsun, Trkiye",Trkiye
35380,-90.01100799999999,29.982601000000003,Pro,707833331,2020-02-14 03:58:15,"Marrero, LA",city,"New Orleans, LA",United States
37060,-89.53376999999999,34.35467,Pro,707833331,2020-02-24 01:40:06,"Marrero, LA",city,"Oxford, MS",United States
19100,-97.079654,32.931834,Kup,707833614,2020-02-14 03:51:49,"Santa Monica, CA",city,"Grapevine, TX",United States
31080,-118.48042,34.022688,Kup,707833614,2020-02-18 01:56:51,"Santa Monica, CA",city,"Santa Monica, CA",United States
19100,-96.7349005,33.06124250000001,Kup,707833614,2020-02-28 03:39:41,"Santa Monica, CA",city,"Plano, TX",United States
31080,-118.48042,34.022688,Kup,707833614,2020-03-03 16:17:21,"Santa Monica, CA",city,"Santa Monica, CA",United States
19100,-96.835249,33.1501395,Kup,707833614,2020-03-11 20:05:45,"Santa Monica, CA",city,"Frisco, TX",United States
47380,-97.11405516,31.54831733,Kup,707833614,2020-05-12 02:55:14,"Santa Monica, CA",city,"Waco, TX",United States
19100,-96.835249,33.1501395,Kup,707833614,2020-05-14 13:40:55,"Santa Monica, CA",city,"Frisco, TX",United States
35620,-74.06038324,39.9993181,Kup,707833614,2020-05-25 17:07:42,"Frisco, TX",city,"Dover Beaches North, NJ",United States
19100,-96.8261,33.1508,Kup,707833614,2020-06-02 15:26:10,"Frisco, TX",city,"Frisco, TX",United States
88,139.7091805,35.701657,TaKaGi MiW,707833736650305536,2020-02-20 16:39:14,,city,"Shinjuku-ku, Tokyo",Japan
21,-48.60855252,-27.57593432,May (),70783382,2020-04-22 20:51:21,"Florianpolis, Brasil",city,"So Jos, Brasil",Brasil
13820,-86.80265770000001,33.52417514,Nichalaus,70783407,2020-05-14 20:03:45,"Birmingham, Alabama",city,"Birmingham, AL",United States
47300,-119.3991815,36.5512875, 18+,707834158786027520,2020-05-21 14:02:45,,city,"Dinuba, CA",United States
88,135.515922,34.6304055,,707834270648180736,2020-02-18 13:26:45,,city,  ,
31080,-117.85108899999999,33.842863,mr. waidh | jp goldstein,707834334,2020-02-22 00:48:43,,city,"Anaheim, CA",United States
175,42.541607,16.881435999999997,Ali Alrefae'i ,707834478,2020-02-29 09:02:51,"Jazan, Kingdom of Saudi Arabia",poi,Novotel Jazan,  
12420,-97.662963,30.663223,Curtis Parker,707834527,2020-05-06 21:03:55,,poi,GISD Birkelbach Field,United States
88,132.414949,34.360603999999995,takaNinja,707834802339074048,2020-02-14 07:24:44,80,poi, ,
119,-99.182126,19.4857835,Pepe Andrs,707835109,2020-06-02 21:43:25,Mexico City,city,"Azcapotzalco, Distrito Federal",Mxico
21,-46.5955455,-23.682803,Nanda,70783564,2020-02-14 00:34:35,"So Paulo, Brasil",city,"So Paulo, Brasil",Brasil
82,77.498726,28.545556,lalcandramanjhi,707835757533081601,2020-03-25 11:09:45,,city,"Noida, India",India
88,139.11281599999998,37.6317115,,707835847194705920,2020-02-18 09:11:56, ,city, ,
186,-0.5312104999999999,38.6815795,David Gomez,707836237017645056,2020-02-18 09:57:02,,city,"Alcoy, Espaa",Espaa
205,-3.0079355,53.874422499999994,Joanne Bargelli,707836273,2020-02-22 10:56:54,coastal Lancashire,city,"Fleetwood, England",United Kingdom
37980,-75.117998,40.0048655,sloppy smores slut,707836321,2020-02-15 03:25:05,boogie wonderland,city,"Philadelphia, PA",United States
175,46.685077,24.7219435,,707836525669687296,2020-02-14 11:27:07,,city,",   ",  
82,77.095086,28.638489500000002,Sajan Jha,707836572813529088,2020-02-26 13:50:55,"Delhi, India",city,"New Delhi, India",India
44260,-88.82168850000001,33.456503999999995,Jenna Segura,707837361506242560,2020-02-24 09:21:46,"Starkville, MS",city,"Starkville, MS",United States
25980,-81.62017349999998,31.8275075,Jenna Segura,707837361506242560,2020-04-05 06:55:22,"Starkville, MS",city,"Hinesville, GA",United States
29860,-89.1491505,31.7028555,Jenna Segura,707837361506242560,2020-04-29 08:58:44,"Starkville, MS",city,"Laurel, MS",United States
222,112.75828100000001,-7.2840905,Afief Aldiaz,707837659,2020-04-25 20:24:50,Holic,city,"Gubeng, Indonesia",Indonesia
193,100.75115204,13.697026900000001,Piyamart Boontha,707837824767143936,2020-04-04 04:03:53,"Bangkok, Thailand",city,"Nong Prue, Thailand",Thailand
27980,-156.43916667,20.69,PETER KATER,70783804,2020-05-28 17:48:57,"Maui, Hawaii",city,"Wailea, HI",United States
186,-3.6894395,42.344393,,707838854,2020-03-12 16:04:55,Espaa/Francia,city,"Burgos, Espaa",Espaa
29820,-115.03833700000001,36.006256,TeezyBoiiFlexxin,707838871,2020-03-02 04:00:44,"Las Vegas, NV",city,"Henderson, NV",United States
88,131.34639049999998,31.893178499999998,,707839056013463552,2020-02-14 02:24:31, ,city, ,
51,-7.293810499999999,52.5684865,Carmel E Carroll,70783927,2020-03-10 22:21:40,New Ross,city,"Kilkenny, Ireland",Ireland
88,136.1810575,34.729754,satoko,707839532104679424,2020-02-22 16:10:30,,city,"Iga-shi, Mie",Japan
175,46.685077,24.7219435,Nevermind,707839681,2020-02-16 15:04:48,Riyadh,city,",   ",  
21,-47.554902,-4.291657,Militante sem moral,707839734,2020-04-29 21:34:09,"Imperatriz, Brasil",poi,Em Dom Eliseu,Brasil
200,29.0052225,41.0213205,Pnar,707840118023827456,2020-06-04 15:53:18,"Kadky, stanbul",city,"stanbul, Trkiye",Trkiye
119,-96.6273075,17.038124500000002,Paola Zamora,707840504,2020-02-18 02:47:53,"Oaxaca, Mexico",city,"Santa Mara del Tule, Oaxaca",Mxico
88,139.929554,35.637917,,707840906976604160,2020-02-15 06:21:38,70,poi, ,
33,-70.610759,-33.429485,Javi Astudillo,70784112,2020-03-08 15:26:57,,city,"Providencia, Chile",Chile
38,-75.3155775,4.4486729999999985,EDNA TRUJILLO,707841427,2020-03-22 22:06:44,IBAGUE ,city,"Ibagu, Colombia",Colombia
178,28.184066499999997,-25.752605499999998,Dj Taj [TheBeard],707842169843924992,2020-02-14 15:35:32,//,city,"Pretoria, South Africa",South Africa
24,-104.617,50.45,Manpreet Gill,70784223,2020-02-17 02:09:21,Regina Canada,city,"Regina, Saskatchewan",Canada
119,-109.70915,23.07691,Manpreet Gill,70784223,2020-02-21 19:51:09,Regina Canada,city,"Los Cabos, Baja California Sur",Mexico
