currentGEOID,lon,lat,name,author_Id,created_at,location,place_type,place_full_name,place_country
41860,-121.979527,37.5236445,,1346252959,2020-04-23 06:11:17,"Fremont, CA",city,"Fremont, CA",United States
41940,-121.8737305,37.331159,,1346252959,2020-04-24 23:50:16,"Fremont, CA",city,"San Jose, CA",United States
41860,-121.979527,37.5236445,,1346252959,2020-04-25 03:22:58,"Fremont, CA",city,"Fremont, CA",United States
41940,-121.8737305,37.331159,,1346252959,2020-05-03 23:34:00,"Fremont, CA",city,"San Jose, CA",United States
41860,-121.979527,37.5236445,,1346252959,2020-05-05 05:55:20,"Fremont, CA",city,"Fremont, CA",United States
41940,-121.8737305,37.331159,,1346252959,2020-05-08 01:55:18,"Spanish Fort, AL",city,"San Jose, CA",United States
41860,-121.979527,37.5236445,,1346252959,2020-05-08 17:03:46,"Spanish Fort, AL",city,"Fremont, CA",United States
41940,-121.8737305,37.331159,,1346252959,2020-05-12 18:12:28,"Spanish Fort, AL",city,"San Jose, CA",United States
41860,-121.979527,37.5236445,,1346252959,2020-05-12 21:38:09,"Spanish Fort, AL",city,"Fremont, CA",United States
41940,-122.043373,37.313083000000006,TOSO VITI,1346252959,2020-05-14 00:37:28,"Spanish Fort, AL",city,"Cupertino, CA",United States
41860,-121.979527,37.5236445,TOSO VITI,1346252959,2020-05-14 02:16:04,"Spanish Fort, AL",city,"Fremont, CA",United States
41940,-121.896165,37.431473,TOSO VITI,1346252959,2020-05-14 02:37:55,"Spanish Fort, AL",city,"Milpitas, CA",United States
41860,-122.03036499999999,37.529056,TOSO VITI,1346252959,2020-05-14 03:06:47,"Spanish Fort, AL",city,"Newark, CA",United States
41940,-122.14403,37.414371,LongLiveBrothers ,1346252959,2020-05-15 18:16:44,"Spanish Fort, AL",city,"Palo Alto, CA",United States
41860,-121.979527,37.5236445,LongLiveBrothers ,1346252959,2020-05-16 19:30:42,"Spanish Fort, AL",city,"Fremont, CA",United States
41940,-121.8737305,37.331159,LongLiveBrothers ,1346252959,2020-05-19 17:44:34,"Spanish Fort, AL",city,"San Jose, CA",United States
41860,-121.979527,37.5236445,LongLiveBrothers ,1346252959,2020-05-19 21:14:20,"Spanish Fort, AL",city,"Fremont, CA",United States
222,111.4085125,-7.748374,Yuga Dea R,1346252970,2020-04-19 10:55:06,"Magetan, Jawa timur",city,"Lembeyan, Indonesia",Indonesia
186,-7.906403999999999,42.2101805,Buen vino gallego,1346253144,2020-02-17 14:25:13,Spain/Espaa,city,"A Merca, Espaa",Espaa
8,-58.442643,-34.604315,Mili Simeoni,134625357,2020-02-21 21:54:43,Buenos Aires - Argentina,city,"Ciudad Autnoma de Buenos Aires, Argentina",Argentina
21,-51.18615037,-23.30178635,Reggys,13462542,2020-02-14 22:14:40,Londrina-Pr (Brasil),city,"Londrina, Brasil",Brasil
33100,-80.3857485,25.596807000000002,SHAUNDREA DIXON,134625486,2020-02-24 10:32:24,"Miami, Fl",city,"South Miami Heights, FL",United States
120,102.3623425,3.414675,Siti Aminah,1346256649,2020-02-14 08:48:31,Malaysia,city,"Perak, Pahang",Malaysia
161,74.3584865,31.5318195,tahir mehmood,1346258868,2020-04-06 10:16:50,,city,"Lahore, Pakistan",Pakistan
88,136.96878049999998,36.742765999999996,,134625993,2020-02-22 22:59:41, ,city, ,
21,-44.2988671,-23.00631431,Thiago Ferreira,134626048,2020-02-24 22:27:34,"T: 0.0,0.0",city,"Angra dos Reis, Brasil",Brasil
82,77.095086,28.638489500000002,Gagan Aggarwal,1346260620,2020-03-22 11:35:38,"New Delhi, India",city,"New Delhi, India",India
119,-100.366033,25.6502875,Fco Vzquez Gomez C,134626093,2020-05-23 04:08:10,,city,"San Pedro Garza Garca, Nuevo Len",Mxico
21,-46.5955455,-23.682803,WhatsRastreio,134626165,2020-03-09 15:44:12,"So Paulo, Brasil",city,"So Paulo, Brasil",Brasil
8,-64.2929775,-36.618834,Juan,134626360,2020-04-22 13:50:36,santa rosa,city,"Santa Rosa, Argentina",Argentina
71,6.96747,50.957617,Malte Niccals,1346263992,2020-05-30 15:04:39,Cologne,city,"Kln, Deutschland",Deutschland
14460,-70.8952337,42.5235097,Nick Downing,134626435,2020-04-07 14:37:23,"Salem, MA",city,"Salem, MA",United States
8,-58.446241,-34.659632,Agus Vera,134626446,2020-02-27 14:11:50,"Buenos Aires, Argentina",city,"Villa Soldati, Argentina",Argentina
119,-109.89633871,22.87668595,Hector Hernandez,134626541,2020-03-06 20:22:53,,city,"Los Cabos, Baja California Sur",Mxico
85,10.632197,44.6993915,Deada,1346266178,2020-05-17 13:37:03,Reggio Emilia,city,"Reggio Emilia, Emilia Romagna",Italy
49,-78.912186,-1.0075585,Pato Gutirrez B.,134626625,2020-02-19 18:14:18,"Jakarta Selatan, DKI Jakarta",city,"Pujili, Ecuador",Ecuador
31080,-118.37731299999999,33.854669,Mario,1346266394,2020-02-14 01:23:29,"Redondo Beach, CA",city,"Redondo Beach, CA",United States
175,39.2541285,21.5857105,ALI - stay at home,1346266506,2020-04-26 01:52:48,Jeddah,city,"Jeddah, Kingdom of Saudi Arabia",Kingdom of Saudi Arabia
171,125.4432615,7.317582499999999,Xaniah Aquino,134626793,2020-02-17 05:30:17,Republic of the Philippines,city,"Davao City, Davao Region",Republic of the Philippines
26900,-86.1429225,39.7795625,anna,134626826,2020-02-14 21:07:07,"Indianapolis, IN",city,"Indianapolis, IN",United States
35620,-74.19652450000002,40.662479,anna,134626826,2020-02-23 18:59:35,"Indianapolis, IN",city,"Elizabeth, NJ",United States
26900,-86.1429225,39.7795625,anna,134626826,2020-02-29 17:02:40,"Indianapolis, IN",city,"Indianapolis, IN",United States
38300,-80.0280425,40.5838765,anna,134626826,2020-03-08 20:28:07,"Indianapolis, IN",city,"McCandless, PA",United States
35620,-74.06378699999998,40.778489,anna,134626826,2020-03-09 21:07:21,"Indianapolis, IN",city,"Secaucus, NJ",United States
26900,-86.1429225,39.7795625,anna,134626826,2020-03-23 21:45:01,"Indianapolis, IN",city,"Indianapolis, IN",United States
120,101.715795,3.147141,Mahajaya,134626956,2020-02-16 00:06:02,    ,poi,Dorsett Regency Kuala Lumpur,Malaysia
222,106.85680900000001,-6.225842,Mahajaya,134626956,2020-02-16 14:22:09,    ,city,"Tebet, Indonesia",Indonesia
120,101.712998,3.1487990000000003,Mahajaya,134626956,2020-02-18 16:36:29,    ,poi,Pavilion Kuala Lumpur,Malaysia
222,106.788068,-6.2498520000000015,Mahajaya,134626956,2020-02-21 12:18:09,    ,city,"Kebayoran Lama, Indonesia",Indonesia
188,32.5450035,15.5244125,Moh Elhabib,1346270688,2020-02-15 20:03:08,,city,Khartoum,
24260,-98.349785,40.9310835,HennyJean,134627091,2020-02-16 15:43:56,,city,"Grand Island, NE",United States
21,-48.62257929,-28.02095809,Alex Madruga,134627302,2020-02-19 22:17:08,Brasil,city,"Garopaba, Brasil",Brazil
119,-111.498181,28.9698625,Juan R Quimbar,134627338,2020-04-10 01:34:51,,city,"Hermosillo, Sonora",Mexico
21,-50.43510874,-21.20708105,nill souza,134627456,2020-02-14 11:31:38,"Araatuba, Brasil",city,"Araatuba, Brasil",Brasil
171,121.01080300000001,14.483414000000002,joanne,1346274937,2020-03-21 18:51:46,stay,city,"Paranaque City, National Capital Region",Republic of the Philippines
175,38.021246999999995,24.095651,Thinking machine,1346275004,2020-02-17 14:06:44,,poi,  ,  
211,-67.6036,10.2399,Indira Alcina,134627516,2020-03-03 22:59:59,"Maracay, Venezuela",city,"Maracay, Venezuela",Venezuela
222,106.65811299999999,-6.145593,Manusia.,1346275530,2020-03-17 04:18:52,Uranus,city,"Batu Ceper, Indonesia",Indonesia
88,140.41899344,36.91838337,big244.com,134627559,2020-04-07 03:48:09,,city, ,
82,72.5680065,23.037173499999998,Sharvil,1346276000,2020-04-24 12:29:36,",  Ahmedabad",neighborhood,"Navrangpura, Ahmadabad City",India
21,-43.214821,-22.902928,IgorAndrade,134627662,2020-03-02 12:30:57,,poi,1 Batalho de Guardas (Batalho do Imperador),Brasil
88,139.745379,35.652789,Laura Nystrm,1346278856,2020-03-17 11:16:26,"Zurich, Switzerland",city,"Minato-ku, Tokyo",Japan
60,23.8303145,61.631931,Laura Nystrm,1346278856,2020-05-21 05:57:19,"Zurich, Switzerland",city,"Tampere, Finland",Finland
21,-43.441578,-22.911421500000003,"Gabriel Cintra, o Gabigol",134627901,2020-02-29 23:46:03,"Rio de Janeiro, Brasil",city,"Rio de Janeiro, Brasil",Brasil
200,29.0052225,41.0213205,sava AMA BARII SEVYOR,1346281494,2020-03-25 19:33:01,"stanbul, Trkiye",city,"stanbul, Trkiye",Trkiye
88,139.522095,36.151163000000004,,134628160,2020-05-22 22:09:30,,poi, ,
186,-5.923545000000002,37.38319799999999,Sampatototellachintegui,134628264,2020-03-31 20:05:25,Sevilla,city,"Sevilla, Espaa",Espaa
26420,-95.456218,29.686474,Lynette Thomas,134628301,2020-02-29 22:51:12,"Houston, TX",poi,Breakaway Speed Sports Training,United States
32580,-98.152419,26.3475255,georgee ,134628552,2020-02-15 02:54:04,"Weslaco, TX",city,"Edinburg, TX",United States
38300,-79.880773,40.146181,Jordon Popp,134628553,2020-02-14 11:36:57,Pennsylvinia,city,"Monessen, PA",United States
200,29.86953309,40.76740712,OUL MARKET,1346285971,2020-02-28 19:37:36,"Kocaeli, Trkiye",city,"Kocaeli, Trkiye",Trkiye
12060,-84.43310600000001,33.7671945,IMAN NEVILLAH SIMMONS,1346286954,2020-05-30 18:45:45,"Stone Mountain, GA",city,"Atlanta, GA",United States
88,139.7091805,35.701657,MA+SA,1346286978,2020-02-21 11:03:13,,city, ,
119,-98.8792778,19.5434697,Martha,134628780,2020-04-17 22:11:25,Mxico,city,"Texcoco, Mxico",Mxico
82,81.644808,25.434179,RakeshKumarM,1346288857,2020-03-26 00:35:19,Kolkata ,city,"Allahabad Outer, India",India
222,104.772488,-3.0209685,prily aprilia,1346289324,2020-04-26 07:19:31,"Kota Palembang, Sumatera Selat",city,"Seberang Ulu I, Indonesia",Indonesia
21,-49.19482,-16.4297835,L&A da Ana Beatriz by Vivian Cristina,134628976,2020-04-16 10:42:30,"Nerpolis, Brasil",city,"Nerpolis, Brasil",Brasil
33460,-93.2620465,44.9706105,Rachel,134628977,2020-04-22 04:32:31,"Minneapolis, MN",city,"Minneapolis, MN",United States
222,107.93044350000001,-6.8522075000000005,Banana Milk,134629010,2020-05-03 12:42:51,Indonesia,city,"Sumedang Utara, Indonesia",Indonesia
211,-66.815766,10.485083,Sabry0208,134629026,2020-03-05 14:27:41,Por ahora Caracas! ,city,"Petare, Venezuela",Venezuela
21,-51.177201000000004,-29.915337,NEYBEATZ ,134629243,2020-05-07 08:59:22,,city,"Canoas, Brasil",Brazil
21,-43.441578,-22.911421500000003,Yago Rodrigues ,134629252,2020-02-15 01:35:42,Rio De Janeiro,city,"Rio de Janeiro, Brasil",Brasil
44660,-97.0802045,36.129689,maryam,1346293794,2020-02-21 22:30:15,KW | US,city,"Stillwater, OK",United States
30,121.95137,41.244908,,134629527,2020-03-08 10:05:43,,poi,,
9,145.0531355,-37.9725665,Loi Tran,1346296694,2020-03-22 04:44:31,,city,"Melbourne, Victoria",Australia
21,-47.855252,-24.494885,Alex Manzo,134629685,2020-02-15 22:14:45,Brazil,city,"Registro, Brasil",Brasil
41740,-117.10498899999999,32.810012,Marcela,134630024,2020-02-20 20:53:34,"San Diego,CA",city,"San Diego, CA",United States
42660,-122.43801634,47.24477104,Jegan Selvaraj,1346301272,2020-02-22 09:41:46,"Seattle, Washington, USA",city,"Tacoma, WA",United States
14500,-105.259,40.0194,John Parcell,134630146,2020-06-03 20:25:40,"Denver, CO",city,"Boulder, CO",United States
21,-43.441578,-22.911421500000003,Schay Albuquerque,134630247,2020-04-10 15:30:05,,city,"Rio de Janeiro, Brasil",Brasil
119,-91.6332875,18.4528265,Erika Snchez,134630305,2020-02-25 07:07:04,"Cd. del Carmen, Campeche",city,"Carmen, Campeche",Mxico
29460,-81.6988865,28.0173055,Alan,134630360,2020-02-14 03:49:30,N 2821' 0'' / W 8140' 0'',city,"Winter Haven, FL",United States
222,98.80284549999999,3.6338684999999997,MR CHANPY,1346304751,2020-04-07 12:05:11,Malaysia,city,"Batang Kuis, Indonesia",Indonesia
82,85.1267,25.6019,       ,1346306263,2020-03-13 07:35:03,",",city,"Patna, India",India
65,2.477011,48.3965625,Philippe Berthon,1346307354,2020-02-19 16:16:35,"Soisy-sur-Ecole, Evry-Gnopole",city,"Milly-la-Fort, France",France
21,-38.327571,-8.078265,Sinzio Rodrigues,134630808,2020-03-16 02:59:51,Serra Talhada - PE,city,"Serra Talhada, Brasil",Brasil
31080,-118.2445,34.0564,Aaron Jacobi,1346308525,2020-06-04 17:54:42,"Los Angeles, CA",city,"Los Angeles, CA",United States
222,119.93179350000001,-0.8720855000000001,panpan,1346309208,2020-02-14 16:37:53,"Palu Timur, Indonesia",city,"Palu Timur, Indonesia",Indonesia
151,5.147286,7.297449,mzz,1346309282,2020-02-26 12:46:52,Nigeria,poi,Federal University of Technology Akure (FUTA),Nigeria
119,-101.5352735,19.707929, Piz ,1346310074,2020-05-23 03:15:11,"Ptzcuaro, Michoacn de Ocampo",city,"Quiroga, Michoacn de Ocampo",Mxico
211,-66.815766,10.485083,Gustavo von Bren,134631089,2020-02-14 18:43:32,,city,"Petare, Venezuela",Venezuela
225,54.434762,24.547038,D,1346310955,2020-04-06 16:21:47,,poi,Saadiyat Beach,United Arab Emirates
24,-79.27256949999999,43.629311,Arango Norrea,134631191,2020-03-29 05:08:47,"Toronto, Ontario",city,"Toronto, Ontario",Canada
21,-43.441578,-22.911421500000003,Priscila Jobim,134631231,2020-03-01 05:00:25,Rio de Janeiro,city,"Rio de Janeiro, Brazil",Brazil
35620,-74.2596685,40.650436,E.Ming,134631299,2020-03-22 02:36:01,    Jersey ,city,"Roselle, NJ",United States
21,-54.261875,-20.8753275,Rodrigo Lacerda,134631436,2020-03-01 02:13:31,Brasil,city,"Campo Grande, Brasil",Brasil
120,102.18185799999999,6.0285674999999985,  | ,134631475,2020-02-16 05:49:26,"Kuala Lumpur Federal Territory, Malaysia",city,"Salor, Kelantan",Malaysia
171,121.0627355,14.683012,JET,1346315804,2020-02-15 08:26:43,Republic of the Philippines,city,"Quezon City, National Capital Region",Republic of the Philippines
120,101.6252586,3.08750027,Amit Sandhu ,1346316062,2020-02-18 03:34:39,SAC,city,"Damansara, Selangor",Malaysia
88,139.6686105,35.9236215,yamaaya,134631675,2020-04-12 12:32:07,Saitama/Japan,city,  ,
222,110.6081175,-7.715861500000001,Memel,1346317250,2020-02-14 05:50:58,klaten | jawa tengah |,city,"Klaten Tengah, Indonesia",Indonesia
205,-3.022129,53.7998515,Caroline James Photography,1346317760,2020-02-14 09:51:03,Blackpool,city,"South Shore, England",United Kingdom
15340,-83.259479,40.831909,Carli Pinion,134631883,2020-02-22 21:26:49,,city,"Upper Sandusky, OH",United States
186,-5.923545000000002,37.38319799999999,elgusanitolector,1346320344,2020-02-25 15:42:55,"Sevilla, Espaa",city,"Sevilla, Espaa",Espaa
175,39.6540485,24.462089000000002,  ,1346320856,2020-02-14 08:12:01," ,   ",city," ,   ",  
88,136.87752,35.4016805,  ,1346322446,2020-02-29 09:03:43, ,city, ,
200,35.28488,37.002826500000005,Haydar Koak,134632522,2020-04-11 15:28:24,Adana,city,"Adana, Trkiye",Trkiye
88,136.96878049999998,36.742765999999996,,1346325589,2020-03-02 17:50:49,,city, ,
211,-66.930644,10.483539,Jennifer,134632736,2020-04-22 20:33:52,,city,"Caracas, Venezuela",Venezuela
57,11.42615,47.221990000000005,skiparadise,1346327755,2020-04-05 09:16:15,,city,"Innsbruck, Austria",Austria
21,-48.45979749999999,-1.2729295,Nayara Ampuero,134632925,2020-02-26 02:25:17,"Brasil, Belm/PA",city,"Belm, Brasil",Brasil
88,139.745379,35.652789,Ai Yamada,134632945,2020-06-02 02:05:23, ,city, ,
119,-87.0715,20.636,Tamayo,134632964,2020-03-28 01:14:49,Dark Side of the Moon,city,"Solidaridad, Quintana Roo",Mxico
222,110.4050255,-7.712573,=,134633043,2020-04-19 12:13:30,Special Region of Yogyakarta,city,"Ngaglik, Indonesia",Indonesia
175,39.610759,24.468612,Abu Zubeydah,134633159,2020-02-15 05:23:48,"London, England",poi,Al-Masjid Al-Nabawi |  ,Kingdom of Saudi Arabia
205,-0.44236099999999995,51.537061,Abu Zubeydah,134633159,2020-02-26 12:07:16,"London, England",city,"Hillingdon, London",United Kingdom
82,74.47044199999998,21.5440495,Sachin V Patil,1346332296,2020-04-05 17:14:07,"Shahada, India",city,"Shahada, India",India
158,175.264589,-37.7726845,Graeme Mintie Mead,1346333695,2020-02-21 07:08:59,Hamilton,city,"Hamilton City, New Zealand",New Zealand
200,29.0052225,41.0213205,ycel battal,134633373,2020-03-29 15:22:17,,city,"stanbul, Trkiye",Trkiye
160,-77.0291,-12.1193,Magaly fernandez,134633409,2020-04-25 22:53:03,Lima - Per,city,"Miraflores, Peru",Peru
45300,-82.504035,28.054340000000003,Mr Nigga and Niggdo,134633467,2020-02-16 23:46:05,,poi,Metro pcs,United States
8,-58.442643,-34.604315,Mariiii,134633534,2020-02-15 22:32:07,,city,"Ciudad Autnoma de Buenos Aires, Argentina",Argentina
120,116.1405425,5.9882775000000015,Riezman ,1346335597,2020-02-14 13:53:29,"Kajang, Selangor",city,"Kota Kinabalu, Sabah",Malaysia
14,90.41684729,23.71839864,Rayhan Nibir,1346336072,2020-04-10 22:57:49,"Dhaka, Bangladesh",city,"Dacca, Bangladesh",Bangladesh
37980,-75.117998,40.0048655,Rob Rabena,134633731,2020-02-17 01:16:21,"Philadelphia, PA",city,"Philadelphia, PA",United States
222,112.805935,-7.276847999999999,Tyas Sri Purwasih,1346338891,2020-03-07 09:54:07,Indonesia,poi,Solaria East Coast,Indonesia
85,11.423505,42.4534375,luciano Forlani,1346340198,2020-02-28 14:07:29,,city,"Capalbio, Toscana",Italia
171,121.0069495,14.5328815,cinnamon,1346340890,2020-02-23 14:23:34,dls-csb ,city,"Pasay City, National Capital Region",Republic of the Philippines
12,-64.839455,32.248919,That @uditor,1346341068,2020-03-01 22:07:14,Bermuda,poi,The Reefs,Bermuda
73,23.68288,37.9509295,Chiotis Vasilis,1346341158,2020-02-19 12:21:30,Athens,city,"Moschato, Greece",Hellas
71,13.4246065,52.506701,Chiotis Vasilis,1346341158,2020-03-09 13:37:53,Athens,city,"Berlin, Germany",Germany
73,23.68288,37.9509295,Chiotis Vasilis,1346341158,2020-03-10 16:12:13,Athens,city,"Moschato, Greece",Hellas
119,-103.4847745,20.790657000000003,Pepe Prez,134634116,2020-02-14 16:10:39,"Guadalajara, Jalisco",city,"Zapopan, Jalisco",Mxico
37100,-119.0391,34.2231,xo,134634220,2020-05-22 19:06:55,,city,"Camarillo, CA",United States
120,102.251,2.2,Liz Rosley,134634227,2020-04-14 00:34:16,Kuala Lumpur ,city,"Bandar Melaka, Malacca",Malaysia
21,-40.494634999999995,-9.424628,Unia Pereira,134634302,2020-03-10 23:12:47,Brasil,poi,Mercadinho Lder,Brasil
211,-66.815766,10.485083,Randy A. Vivas R.,134634346,2020-02-16 18:31:47,"T: 10.498686,-66.847266",city,"Petare, Venezuela",Venezuela
34820,-78.878866,33.703390500000005,Ian Guerin,134634350,2020-02-14 11:47:15,"Myrtle Beach, SC",city,"Myrtle Beach, SC",United States
22500,-79.78030799999998,34.182661499999995,Ian Guerin,134634350,2020-02-28 23:35:40,"Myrtle Beach, SC",city,"Florence, SC",United States
34820,-78.878866,33.703390500000005,Ian Guerin,134634350,2020-02-29 16:10:15,"Myrtle Beach, SC",city,"Myrtle Beach, SC",United States
22500,-79.78030799999998,34.182661499999995,Ian Guerin,134634350,2020-02-29 21:41:00,"Myrtle Beach, SC",city,"Florence, SC",United States
34820,-78.878866,33.703390500000005,Ian Guerin,134634350,2020-03-01 04:24:49,"Myrtle Beach, SC",city,"Myrtle Beach, SC",United States
17900,-81.03770300000001,33.995087,Ian Guerin,134634350,2020-03-08 01:27:23,"Myrtle Beach, SC",poi,Colonial Life Arena Green Street Entrance,United States
34820,-78.878866,33.703390500000005,Ian Guerin,134634350,2020-03-08 07:07:27,"Myrtle Beach, SC",city,"Myrtle Beach, SC",United States
23860,-79.14179250000002,33.442004999999995,Ian Guerin,134634350,2020-05-20 11:09:09,"Myrtle Beach, SC",city,"Pawleys Island, SC",United States
34820,-78.878866,33.703390500000005,Ian Guerin,134634350,2020-05-20 19:07:13,"Myrtle Beach, SC",city,"Myrtle Beach, SC",United States
35620,-73.40844849999998,40.7833745,Kait Garland,134634354,2020-03-09 21:35:59,"Portland, Maine",city,"Melville, NY",United States
35620,-73.8494415,40.8503475,Rich Mancuso,134634372,2020-03-20 22:49:03,New York and Arizona,city,"Bronx, NY",United States
82,76.974691,28.368525,Abdul Imran,1346344974,2020-02-14 12:20:34,New Delhi,city,"Gurgaon, India",India
33100,-80.32799849999999,26.0278895,JP De Gannes,134634541,2020-02-22 04:09:19,"Florida, USA",city,"Pembroke Pines, FL",United States
222,95.94553747,5.37638353,Ichsan Amna,134634646,2020-02-24 06:05:04,NANGGROE ACEH DARUSSALAM,city,"Kota Sigli, Indonesia",Indonesia
171,120.96262050000001,14.115378,;,1346346594,2020-02-15 02:40:22,"batangas,lipa city",city,"Tagaytay, Calabarzon",Republic of the Philippines
21,-46.5955455,-23.682803,isa,134634753,2020-02-29 19:42:24,,city,"So Paulo, Brasil",Brasil
178,18.4890615,-34.1216575,Adi ,1346347591,2020-03-24 09:23:09,"Cape Town, South Africa",city,"Cape Town, South Africa",South Africa
71,6.8538725000000005,51.5143055,KALIBAAH  STREAMER,1346349901,2020-02-17 09:41:00,"Oberhausen, Deutschland",city,"Oberhausen, Deutschland",Deutschland
120,102.63674523,2.34622266,Inadiasyikin,134634995,2020-02-14 09:08:06,Malaysia-Singapura-Indonesia,city,"Tangkak, Johor",Malaysia
9,153.074157,-26.606482500000002,Danilo Lopes,134635063,2020-03-08 00:46:09,"Sunshine Coast, Queensland",city,"Sunshine Coast, Queensland",Australia
34980,-86.74847342,36.15340005,Twin Kegs 2,134635195,2020-02-14 14:22:08,"327 hermitage ave, Nashville",city,"Nashville, TN",United States
38,-74.849933,10.958072999999999,Jay Rosary,134635252,2020-04-02 03:23:33,"Barranquilla,Colombia",city,"Barranquilla, Colombia",Colombia
38,-76.64150000000002,2.4377720000000003,Ral Andrs.,134635501,2020-05-24 15:12:03,Popayan,city,"Popayn, Colombia",Colombia
82,77.498726,28.545556,choudhary,134635581,2020-02-15 11:29:06,"Noida, India",city,"Noida, India",India
9,145.0531355,-37.9725665,John La Terra,134635651,2020-03-23 11:34:27,Melbourne Australia,city,"Melbourne, Victoria",Australia
175,43.9595905,26.345051,Ahmed Enan,1346359334,2020-04-18 19:28:53,Egypt,city,"Buraydah, Kingdom of Saudi Arabia",Kingdom of Saudi Arabia
88,136.687116,36.506127,tAkihiko,134635945,2020-04-28 11:29:29,  ,city, ,
88,137.38130034,34.76256193,,1346359646,2020-02-15 23:50:03,ukkaBiSH,city, ,
162,21.177388,51.9712005,MRCS  ,1346359704,2020-02-14 08:58:29,"Gra Kalwaria gmina, Polska",city,"Gra Kalwaria gmina, Polska",Polska
186,-3.688338,40.453062,MRCS  ,1346359704,2020-03-01 17:05:09,"Gra Kalwaria gmina, Polska",poi,Estadio Santiago Bernabu,Espaa
162,21.177388,51.9712005,MRCS  ,1346359704,2020-03-02 21:50:19,"Gra Kalwaria gmina, Polska",city,"Gra Kalwaria gmina, Polska",Polska
35380,-90.01100799999999,29.982601000000003,Stevieboy_504,134636001,2020-05-19 20:12:52,"New Orleans, LA",city,"New Orleans, LA",United States
25060,-88.92911749999998,30.4278175,Stevieboy_504,134636001,2020-05-30 20:23:56,"New Orleans, LA",city,"Biloxi, MS",United States
35380,-90.01100799999999,29.982601000000003,Stevieboy_504,134636001,2020-06-04 01:19:59,"New Orleans, LA",city,"New Orleans, LA",United States
164,-9.38333,38.8,Pedro Serdoura,1346360976,2020-04-30 18:08:12,"London, England",city,"Sintra, Portugal",Portugal
88,139.671156,35.715624,Toriumi,134636306,2020-02-16 00:02:19,,poi,Zatta Gohan,
161,70.32630950000001,29.098240000000004,Farooq Ahmad,1346363089,2020-06-04 06:48:37,"Rajanpur, Pakistan",city,"Rajanpur, Pakistan",Pakistan
82,79.0327905,20.9882585,Yash Tiwari,1346363316,2020-03-15 06:08:41,"Nagpur, Maharashtra",city,"Nagpur, India",India
91,36.741167,-1.310454,Joshua Otieno,1346365512,2020-03-23 15:35:04,"Nairobi, Kenya",poi,Ngong RaceCourse,Kenya
41700,-98.5406515,29.417501,Colton L. Barham,134636598,2020-02-18 05:57:41,"Texas, USA",city,"San Antonio, TX",United States
205,-5.928413,54.59586899999999,Paul Killeen Photo,1346369850,2020-02-17 08:46:43,,city,"Belfast, Northern Ireland",United Kingdom
153,12.9614475,67.90836,Paul Killeen Photo,1346369850,2020-02-28 10:25:12,,city,"Moskenes, Norge",Norway
205,-5.898617,54.6868755,Paul Killeen Photo,1346369850,2020-03-10 06:27:46,,city,"Monkstown, Northern Ireland",United Kingdom
120,102.24995600000001,6.143461, Anies   ,1346370332,2020-04-24 22:42:26,,city,"Tanjong Chat, Kelantan",Malaysia
24,-63.553551399999996,44.591283700000005,Halifax Yoga,134637278,2020-02-16 22:31:16,"Halifax, Nova Scotia",city,"Halifax, Nova Scotia",Canada
38,-74.24367099999999,4.2622835,Mara Camila Prieto,134637325,2020-03-06 13:26:50,,city,"Bogot, D.C., Colombia",Colombia
26420,-95.4464865,29.838495,Harm,134637334,2020-06-06 13:36:09,"Georgia, USA",city,"Houston, TX",United States
242,120.612349,22.973791000000002,,1346374482,2020-02-25 03:39:09,", ",city,", ",
24,-75.80014150000001,45.248791,Kevin Pottie,134637667,2020-03-09 10:34:42,"Ottawa, Canada",city,"Ottawa, Ontario",Canada
151,3.53114158,6.44238183,Nifty Agodo,134637688,2020-02-14 13:19:07,"Lagos, Nigeria",city,"Victoria Island, Nigeria",Nigeria
20460,-96.423117,33.9387735,Susan Moran,134637713,2020-03-01 10:41:22,"McKinney, TX",city,"Calera, OK",United States
19100,-96.69960400000001,33.1946515,Susan Moran,134637713,2020-05-12 05:21:26,"McKinney, TX",city,"McKinney, TX",United States
222,115.244529,-8.6334075,a2bedel,1346377536,2020-02-14 11:20:10,ina,city,"East Denpasar, Indonesia",Indonesia
119,-103.3490488,20.678125899999998,Angel E. Gutirrez,134637927,2020-03-13 00:42:32,"Guadalajara, Jal.",city,"Guadalajara, Jalisco",Mxico
205,-1.292058,52.7684065,Koolbox,1346379271,2020-02-17 15:51:42,,city,"Shepshed, England",United Kingdom
31140,-85.7554,38.2525,Matthew Gotth-Olsen,13463802,2020-04-12 21:09:47,Louisville Ky,city,"Louisville, KY",United States
205,-0.44236099999999995,51.537061,Patrik Niklas-Salminen,1346380440,2020-02-15 16:42:06,"Helsinki, Suomi",city,"Hillingdon, London",Yhdistynyt kuningaskunta
119,-99.655676,19.2843215,Patrik Niklas-Salminen,1346380440,2020-03-04 20:41:20,"Helsinki, Suomi",city,"Toluca, Mxico",Meksiko
211,-67.608333,10.265334,luis antonio medina,1346380806,2020-02-16 18:04:29,,city,"Maracay, Venezuela",Venezuela
119,-100.74368491,20.91397174,Sabina Gameros Muoz,134638083,2020-02-15 04:24:20,Chihuahua,city,"San Miguel de Allende, Guanajuato",Mxico
88,135.76569184,34.99294804,shotaokamoto,134638099,2020-04-25 09:20:08, /  / ,city,  ,
85,12.5451455,41.8984165,Fritz,1346381929,2020-04-17 13:41:13,roma,city,"Roma, Lazio",Italia
205,-2.653238,53.543454000000004,Gal Leslie,1346383710,2020-02-15 12:37:52,Manchester,city,"Wigan, England",United Kingdom
82,75.80995919,26.90420156,anmols,13463842,2020-02-14 04:24:32,,city,"Jaipur, India",India
205,-0.2983925,53.2878285,James Maples,1346389622,2020-03-03 15:52:11,"Lincoln, Lincolnshire",city,"Wragby, England",United Kingdom
186,-3.68333,40.4,chukri karim,134638979,2020-02-14 13:20:00,"Madrid, Comunidad de Madrid",city,"Madrid, Espaa",Espaa
31080,-118.3586779,34.06331426,Jen & Tonic,134639057,2020-03-05 20:06:43,,city,"Los Angeles, CA",United States
21,-48.806512899999994,-22.6012433,Jen & Tonic,134639057,2020-03-15 01:04:06,,city,"Lenis Paulista, Brasil",Brazil
47900,-77.02618718,38.89110798,Jen & Tonic,134639057,2020-03-15 12:13:51,,city,"Washington, DC",United States
205,-0.1776025,51.5325229,Jen & Tonic,134639057,2020-03-27 01:58:50,,city,"Paddington, London",United Kingdom
47900,-77.0176199,38.87788,Jen & Tonic,134639057,2020-04-02 21:45:06,,city,"Washington, DC",United States
21,-46.63313033,-23.55041487,Jen & Tonic,134639057,2020-04-16 13:06:52,,city,"Sao Paulo, Brazil",Brazil
47900,-77.0367,38.8951,Jen & Tonic,134639057,2020-04-25 14:42:33,,city,"Washington, DC",United States
21,-46.63313033,-23.55041487,Jen & Tonic,134639057,2020-05-02 11:48:58,,city,"Sao Paulo, Brazil",Brazil
47900,-77.01961736,38.89135354,Jen & Tonic,134639057,2020-05-05 15:52:35,"Washington, DC",city,"Washington, DC",United States
21,-46.63313033,-23.55041487,Jen & Tonic,134639057,2020-05-11 12:52:50,"Washington, DC",city,"Sao Paulo, Brazil",Brazil
35620,-73.994641,40.763744,Jen & Tonic,134639057,2020-06-05 19:09:10,"Washington, DC",city,"Manhattan, NY",United States
37980,-75.1651,39.9527,Jen & Tonic,134639057,2020-06-10 21:43:50,"Washington, DC",city,"Philadelphia, PA",United States
119,-103.335882,20.676652,renee fernando,134639185,2020-04-19 00:15:21,,city,"Guadalajara, Jalisco",Mxico
200,30.588801,37.457504,Esra Bayram,1346393006,2020-06-09 13:25:06,,poi,Bucak Orman letme Mdrl,Trkiye
33460,-93.369174,45.182621000000005,Sabrina Fiester,134639419,2020-06-02 16:55:20,"Minneapolis, MN",poi,Mercy Hospital,United States
205,-1.8906405,52.493966500000006,Corey,1346397210,2020-05-20 15:50:52,,city,"Birmingham, England",United Kingdom
88,140.06790800000002,35.62453,not michael,134639743,2020-02-20 11:17:16,,city,"Chiba-shi Mihama, Chiba",Japan
119,-102.327207,21.849459000000003,Lul Tafoya,134639819,2020-05-01 23:34:02,Aguascalientes,city,"Aguascalientes, Mxico",Mxico
-9999,122.947014,25.1233055,W.T,1346398556,2020-05-02 09:16:30,"Yilan County, Taiwan",city,", ",
82,80.204751,13.129442,Kalai Selvan,1346399460,2020-04-02 05:16:31,,city,"Saidapet, India",India
168,55.44444250000001,-20.9433855, Etienne GERMAIN ,1346401225,2020-02-14 18:28:02,La Runion,city,"Saint-Denis, La Runion",La Runion
35620,-73.9487755,40.655138,AHSH,134640393,2020-02-24 18:58:08,"BROOKLYN, NY",city,"Brooklyn, NY",United States
21,-43.441578,-22.911421500000003,III  ,134640400,2020-05-24 20:08:50,Rio de janeiro RJ,city,"Rio de Janeiro, Brasil",Brasil
205,-1.852607,50.742268, ,134640412,2020-02-18 14:03:26,Riyadh,city,"Bournemouth, England",United Kingdom
175,46.685077,24.7219435, ,134640412,2020-03-04 18:19:21,Riyadh,city,"Riyadh, Kingdom of Saudi Arabia",Kingdom of Saudi Arabia
82,74.31353351,29.61410467,PAWAN SANDELA,1346404184,2020-04-21 11:25:11,"Hanumangarh, Rajasthan, India",city,"Hanumangarh, India",India
19100,-96.8320095,32.959787500000004,Miss Lacey,134640452,2020-02-14 01:00:01,"Dallas, TX",city,"Addison, TX",United States
26420,-95.4464865,29.838495,Miss Lacey,134640452,2020-02-15 17:37:37,"Dallas, TX",city,"Houston, TX",United States
19100,-96.7617535,32.819858499999995,Miss Lacey,134640452,2020-02-23 03:37:37,"Dallas, TX",city,"Dallas, TX",United States
205,-1.183271,50.631894,Stephen Woodhams,1346406162,2020-02-23 01:13:57,shanklin,city,"Shanklin, England",United Kingdom
222,110.418504,-6.958597999999999,krissianto,1346407141,2020-02-23 02:09:48,"Semarang, Jawa Tengah",city,"Semarang Utara 1, Indonesia",Indonesia
38,-76.491691,3.484546,Paola Ruiz,134640997,2020-03-03 14:15:00,Cali-Colombia,poi,Cementerio Metropolitano Del Norte,Colombia
82,73.68014149999998,19.971298, x ,1346410855,2020-02-14 03:49:21,Nashik,city,"Nashik, India",India
88,139.633227,35.880063,,1346412270,2020-02-14 07:13:14,,city,  ,
222,125.035362,1.370738,Harly CropoZ,1346412440,2020-06-09 15:07:17,Manado,city,"Kauditan, Indonesia",Indonesia
171,121.0627355,14.683012,Cess,1346413015,2020-05-12 03:51:32,"Manila City, National Capital ",city,"Quezon City, National Capital Region",Republic of the Philippines
42660,-122.21807549999998,47.3923115,Marcia Phelps,134641358,2020-03-30 22:32:01,,city,"Kent, WA",United States
65,-0.5840515000000001,44.8389001,Centre Mriadeck,1346414509,2020-02-18 11:00:54,Bordeaux,city,"Bordeaux, France",France
205,-0.5871185,51.6714965,Linda Clarkson,1346417276,2020-04-27 17:49:29,,city,"Amersham, South East",United Kingdom
222,111.397628,-7.900986,KALIMILI WORKSHOP,1346418506,2020-04-02 02:53:17,"Ponorogo, Indonesia",city,"Kauman, Indonesia",Indonesia
171,123.846722,10.3748325,RM,1346418684,2020-02-14 04:30:32,"Rodriguez, Calabarzon",city,"Cebu City, Central Visayas",Republic of the Philippines
82,76.0893265,20.426026500000003,AbT,1346419032,2020-03-23 17:11:48,"Buldhana, Maharashtra, India",city,"Buldhana, India",India
222,106.82853300000001,-6.363924,Ardes Perdhana Wibisono,1346419730,2020-04-22 17:09:15,"Jakarta Selatan, DKI Jakarta",poi,Universitas Indonesia,Indonesia
205,-1.172266,52.969719,David Belbin,1346421,2020-03-08 14:19:17,Nottingham UK,city,"Nottingham, England",United Kingdom
35300,-72.936447,41.304278000000004,rillahontas,134642187,2020-05-12 02:18:38,,city,"New Haven, CT",United States
200,30.680889,36.89007,semra,1346422118,2020-02-28 21:09:59,"Antalya, Trkiye",city,"Antalya, Trkiye",Trkiye
51,-6.285689,53.393254000000006,Juan carlos Spagnolo,134642241,2020-03-25 21:57:59,"Dublin City, Ireland",poi,Domino's Pizza - Dublin - Finglas,Ireland
152,4.71257045,52.8953525,PatrickDJ Fotografie,134642326,2020-03-05 00:54:39,"Schagen, Nederland",city,"Den Helder, Nederland",Nederland
171,121.063896,14.589959,DA ,1346423317,2020-05-21 08:15:00,"Jeju Province, South Korea",poi,Lopez Building,Republic of the Philippines
205,-1.2334334999999998,51.75428599999999,Benjamin Thompson,1346424662,2020-02-14 17:40:20,"Somerville College, Oxford",city,"Oxford, England",United Kingdom
222,107.60433952,-6.88261721,Thurama Dhandi,1346424764,2020-03-19 05:22:31,"Pekan Baru, Riau",city,"Cidadap, Indonesia",Indonesia
16060,-89.2151246,37.7272179,Lynn Kidd,134642494,2020-02-16 02:05:36,Carbondale IL,city,"Carbondale, IL",United States
21,-48.414687,-27.398225,o frio justifica as meias,134642649,2020-02-27 16:47:45,"Francisco Beltro, Brasil",poi,Praia Brava,Brazil
42660,-122.3308,47.6046,Rae Esterlina,134642868,2020-03-12 20:21:09,Los Angeles,city,"Seattle, WA",United States
16980,-87.732013,41.8335845,ALIVE Rescue,134642926,2020-02-21 15:24:42,Chicago,city,"Chicago, IL",United States
171,120.995066,14.559802,clive,134643025,2020-02-22 08:03:17,Republic of the Philippines,poi,Arellano University School of Law,Republic of the Philippines
18880,-86.4834,30.3896,Fabulous Torture,1346431538,2020-02-14 23:29:47,"Destin,FL",city,"Destin, FL",United States
37860,-86.8636,30.4014,Fabulous Torture,1346431538,2020-04-12 07:00:53,"Destin,FL",city,"Navarre, FL",United States
18880,-86.4834,30.3896,Fabulous Torture,1346431538,2020-04-15 00:31:13,"Destin,FL",city,"Destin, FL",United States
205,-4.2417515,55.85830249999999,Gregg Watson,1346431812,2020-02-17 06:46:15,"Glasgow, Scotland",city,"Glasgow, Scotland",United Kingdom
82,74.48212,19.89422,Rajesh Mantala,1346432209,2020-04-03 15:08:03,"Kopargaon, India",city,"Kopargaon, India",India
82,88.545648,27.0773795,salom,134643434,2020-02-17 15:45:37,kalimpong.india,neighborhood,"Kalimpong, West Bengal",India
88,139.2957855,35.6581635,,1346434812,2020-05-30 13:55:39, ,city, ,
24,-79.3872,43.648,Radioafsana,134643500,2020-05-07 18:52:04,Canada,city,"Toronto, Ontario",Canada
88,139.797218,35.77808899999999,,1346435994,2020-05-10 03:57:30,,city, ,
85,12.665332000000001,42.5880445,Erika Pitzalis,1346440418,2020-02-23 16:49:52,Italia,city,"Terni, Umbria",Italia
41940,-121.8737305,37.331159,Leilanni Redd,134644117,2020-02-14 14:02:28,"Bay Area, CA",city,"San Jose, CA",United States
41740,-117.10498899999999,32.810012,Leilanni Redd,134644117,2020-02-17 16:09:45,"Bay Area, CA",city,"San Diego, CA",United States
41940,-121.581229,37.00484400000001,Leilanni Redd,134644117,2020-02-19 22:20:04,"Bay Area, CA",city,"Gilroy, CA",United States
222,106.92861599999999,-6.328857,DIsini Senang Disana Senang  ,1346444376,2020-05-20 11:50:52,Indonesia -  ,poi,Komplek Pondok Jatimurni,Indonesia
21,-34.90959,-7.260839999999999,Alexandre Mariano,134644512,2020-02-24 08:50:53,FUNETEC-PB,city,"Conde, Brasil",Brasil
119,-99.1614805,19.380613,Ernesto Durand,134644536,2020-02-20 20:59:42,Ciudad de Mxico,city,"Benito Jurez, Distrito Federal",Mxico
9,147.14113,-41.438190000000006,Phillip hart,134644671,2020-05-08 22:15:15,dat trap,city,"Launceston, Tasmania",Australia
14460,-71.19687394,42.52508308,Phillip hart,134644671,2020-05-10 02:59:47,dat trap,city,"Burlington, MA",United States
21,-43.803105,-22.879409,Elaine Ignacio Rosa,134644723,2020-03-17 20:02:32,Rio de Janeiro,city,"Itagua, Brasil",Brasil
222,100.4339915,-0.8693015,Edrianto,1346448756,2020-03-20 15:47:58,"Kota Padang, Sumatera Barat",city,"Koto Tangah, Indonesia",Indonesia
88,136.91910186,35.15587001,,134644990,2020-04-05 04:48:55,"Nagoya-shi Meito, Aichi",city,"Nagoya City Naka Ward, Aichi",Japan
205,-2.03582046,52.47214833,Opium Gym & Transformation Hub Ltd,1346450516,2020-02-21 11:49:02,"halesowen,west midlands b629ld",city,"Halesowen, England",United Kingdom
21,-43.441578,-22.911421500000003,Cesar Henrique 18 ,134645073,2020-02-18 11:11:29,"Ipanema, Rio de Janeiro",city,"Rio de Janeiro, Brasil",Brasil
16980,-87.732013,41.8335845,Lance Pickell,134645094,2020-03-04 11:15:51,United States,city,"Chicago, IL",United States
20500,-79.02601999999997,35.91944150000001,Lance Pickell,134645094,2020-03-04 19:38:50,United States,city,"Chapel Hill, NC",United States
88,139.815545,35.715131,(),1346452376,2020-04-10 09:55:00, ,city, ,
38,-73.95061650000001,4.9457135,Manuel Jimnez,134645319,2020-05-29 12:22:54,Venezuela,city,"Tocancip, Colombia",Colombia
186,-0.6901649999999999,42.27669,Locura de Vida,1346453508,2020-04-07 08:22:04,Ayerbe-Huesca,poi,Locura de Vida,Espaa
41700,-98.307347,29.552745,Ramon G,134645443,2020-04-26 16:56:45,"San Antonio, TX",poi,Sip It Daquiris To-Go,United States
65,1.9113474999999998,48.9877015,nyssia,1346454486,2020-03-05 18:09:19,Saint Malo / Le Plessis/Megve,city,"Les Mureaux, France",France
88,130.75505931,33.84157806,  ,134645749,2020-02-23 08:23:46,,city,  ,
205,-3.2030084999999997,55.943195499999995,Susan Sampson,1346460438,2020-02-27 20:12:56,"Greywell, Hampshire",city,"Edinburgh, Scotland",United Kingdom
205,-0.1565155,51.761328000000006,samantha sherwood,1346460996,2020-03-10 07:56:31,"Hatfield, England",city,"Essendon, East",United Kingdom
154,85.52006,27.69207, ,1346461386,2020-05-16 12:22:32,"27.682063,85.490637",poi,Nagarkot observation point,Nepal
173,59.051621,53.397254,N E $ T E R O V A,1346461412,2020-02-29 10:56:14,,city,", ",
120,110.333028,1.4292295,WarrenStel,1346462221,2020-02-23 11:07:55,kuching,city,"Kuching, Sarawak",Malaysia
80,19.006662,47.314577500000006,Laczfi Norbert,1346462370,2020-05-07 14:11:20,"Szigethalom, Magyarorszg",city,"Szigethalom, Magyarorszg",Magyarorszg
222,106.774506,-6.185601999999999,wtendi,134646250,2020-03-14 12:45:54,jakarta,city,"Kebon Jeruk, Indonesia",Indonesia
205,1.30279658,52.62472929999999,Carlism Official Page,1346463289,2020-04-10 14:46:17,Norfolk uk,city,"Norwich, England",United Kingdom
37980,-75.117998,40.0048655,Jisun Cha MD FAAD,134646411,2020-05-01 01:42:32,"Philadelphia, PA",city,"Philadelphia, PA",United States
205,-1.5685955,54.94154500000001,Richard Berry,13464642,2020-02-14 18:44:02,Gateshead / Sunderland,city,"Gateshead, England",United Kingdom
88,135.76006534,34.93282968,NAO ,1346466116,2020-03-19 11:40:57,,city,  ,
120,100.369484,6.202481,JokerNotFunny,1346466714,2020-03-02 15:19:51,,city,"Titi Gajah, Kedah",Malaysia
119,-98.42243,19.730960999999997,Sergio Argaez,134646704,2020-02-24 00:59:07,Habitando planetas vacos,city,"Apan, Hidalgo",Mxico
21,-46.6333,-23.55,Erika Couto ,134646730,2020-03-28 03:05:18,"So Paulo, Brasil",city,"So Paulo, Brasil",Brasil
120,101.770181,2.9490515,Issz,1346468934,2020-03-31 02:28:17,"Kajang, Selangor",city,"Kajang, Selangor",Malaysia
222,107.631,-6.91472,Issz,1346468934,2020-05-19 17:04:32,"Manhattan, NY",city,"Bandung Wetan, Indonesia",Indonesia
82,77.5584485,12.9231145,Hemant Shekhawat,134646907,2020-04-12 12:37:40,"Bengaluru, India",city,"Bengaluru South, India",India
31080,-117.86481850000001,33.926652000000004,sammy kang,1346470152,2020-03-29 06:45:13,United States,city,"Brea, CA",United States
88,137.7388585,34.6829465,ZERO-UP,1346470249,2020-03-08 22:22:12,,city,  ,
175,39.2541285,21.5857105,  ,1346470939,2020-03-03 05:33:03,,city,",   ",  
88,135.4806075,34.691375,PhyrexianFamilymart,134647134,2020-02-16 03:28:29,,city,  ,
60,28.8455465,61.181914,RAIJA KOSKIMKI,1346473638,2020-02-17 05:02:29,"Imatra, Suomi",city,"Imatra, Suomi",Suomi
21,-47.796623,-15.776254000000002,Ana Maria Costa,134647374,2020-05-29 15:59:24,Braslia Brasil,city,"Braslia, Brazil",Brazil
65,-0.69992647,49.27652768,Jeremy Dent,13464742,2020-02-27 12:04:52,"Ringwood, England",city,"Bayeux, France",France
193,100.53009,13.809788500000002,Dragon Smile,134647557,2020-02-15 11:30:58,Thailand,city,", ",
33340,-88.12451300000002,43.1482635,Cindy Krafczyk,134647666,2020-03-30 02:04:04,Milwaukee & Vegas,city,"Menomonee Falls, WI",United States
205,-0.2108945,51.611884499999995,CK,1346476795,2020-04-09 11:01:38,,city,"Barnet, London",United Kingdom
171,121.04695900000002,14.5730559,JaDine,1346477005,2020-03-25 01:24:06,JaDine Land,city,"Mandaluyong City, National Capital Region",Republic of the Philippines
205,-1.69704,53.67525,LA Plastering UK,1346477006,2020-03-02 19:47:15,"Pudsey, Leeds",city,"Mirfield, England",United Kingdom
205,-0.12731805,51.50711486,Issares Tim,134647751,2020-02-29 08:44:29,bankkok,city,"London, England",United Kingdom
193,100.65924246,13.91826493,Issares Tim,134647751,2020-04-09 05:18:29,bankkok,city,"Sai Mai, Thailand",Thailand
205,-0.1091815,51.5469265,Sanjay Bhandari,1346477708,2020-02-14 10:08:38,United Kingdom,city,"Islington, London",United Kingdom
222,108.98671533,-7.15471289,Hera Squarepants,1346478194,2020-06-10 14:36:56,,city,"Tonjong, Indonesia",Indonesia
49,-78.5566815,-0.16657049999999998,Malicia,1346478601,2020-04-25 21:02:25,kito - ecuador,city,"Quito, Ecuador",Ecuador
205,-0.5925995,51.5146945,Alex Cooke,1346478751,2020-02-21 16:32:59,Reading - UK,city,"Slough, South East",United Kingdom
119,-115.45103549,32.62449348,Nemesio Serrato,134647921,2020-02-19 17:49:54,"Len, Guanajuato",city,"Mexicali, Baja California",Mxico
222,107.048775,-6.3459889999999985,Ardian priyakusuma,1346479273,2020-02-24 11:07:36, ,city,"Setu, Indonesia",Indonesia
47900,-77.349057,38.9558015,Angie O'Grady,1346481294,2020-04-09 23:33:56,DC | MD | VA,city,"Reston, VA",United States
175,46.685077,24.7219435,  ,1346481356,2020-02-16 07:58:34,,city,",   ",  
205,0.014989500000000003,51.4715045,Dawn Smith,1346482322,2020-02-18 09:02:50,,city,"Greenwich, London",United Kingdom
82,77.5584485,12.9231145, ,1346482748,2020-04-08 00:01:27,"Bengaluru, India",city,"Bengaluru South, India",India
178,28.185979999999997,-25.750320000000002,#problematic kids,1346482891,2020-03-11 22:13:45,Bushbuckridge,city,"Pretoria, South Africa",South Africa
151,3.3180660000000004,6.590611,Lasena Mineral Water,1346483431,2020-02-16 10:48:20,"Lagos/Ogun state, Nigeria",city,"Ikeja, Nigeria",Nigeria
175,38.1911485,24.105024,muna,1346483904,2020-02-14 16:00:13,,city,",   ",  
200,29.0052225,41.0213205,ALPER NLENEN,1346484181,2020-02-16 09:37:07,STANBUL,city,"stanbul, Trkiye",Trkiye
24,-80.4764035,43.430240000000005,Emily Marvel,134648469,2020-02-23 02:53:55,Ryerson. Toronto.,city,"Kitchener, Ontario",Canada
47900,-77.06492,38.90613,St. Thomas' Parish,134648510,2020-02-18 14:07:59,1517 18th Street NW Wash DC,city,"Washington, DC",United States
193,100.572168,13.770107000000001,Ping Chp,1346485184,2020-05-22 13:53:38,,poi,The Street ( ),
82,73.777957,18.66071,Ramesh Tiwari,1346485274,2020-04-03 03:14:57,Pune,poi,Nigdi,India
82,77.00376899999999,28.959309,Kuldeep Deshwal,1346487134,2020-04-18 12:26:07,"Uttar Pradesh, India",city,"Sonipat, India",India
205,-1.0669855,50.8188645,Malik Alsiyabi,1346487229,2020-02-14 11:38:47,Oman,city,"Portsmouth, England",United Kingdom
117,58.4641695,23.549159000000003,Malik Alsiyabi,1346487229,2020-03-17 18:16:35,Oman,city,",  ", 
21,-34.939349,-8.043603,Renildo Pereira,134649006,2020-02-18 14:53:16,Recife,city,"Recife, Brasil",Brasil
178,27.829056,-33.038224,first lady,1346490301,2020-03-02 06:39:13,"East London, South Africa",poi,East London Airport (ELS),South Africa
12540,-119.025163,35.3469015,Christian Cruz,134649203,2020-03-10 20:46:12,"anaheim, ca",city,"Bakersfield, CA",United States
14860,-73.24471665,41.21973489,Leo Boisvert,1346493212,2020-02-21 16:33:03,"Fort Myers, FL",city,"Fairfield, CT",United States
15980,-81.8571,26.6318,Leo Boisvert,1346493212,2020-04-22 15:55:47,"Fort Myers, FL",city,"Fort Myers, FL",United States
21,-40.2452325,-3.883402,Ismnia Rodrigues,134649388,2020-02-29 18:17:53,Sobral-CE,city,"Sobral, Brasil",Brasil
119,-99.15234,19.328383,Marcelo Belmont,134649448,2020-02-14 07:04:14,Mexico City,city,"Coyoacn, Distrito Federal",Mxico
222,98.67484,3.609136,Dysoxylum,1346497255,2020-02-15 04:13:39,Karmakandara,poi,Fakultas Bahasa dan Seni Universitas Negeri Medan,Indonesia
41860,-122.37111111,37.82416667,olivia haize,1346498119,2020-02-16 17:18:46,"Portland, OR",city,"San Francisco, CA",United States
38060,-111.789,33.35,olivia haize,1346498119,2020-02-28 01:48:40,"Portland, OR",city,"Gilbert, AZ",United States
43760,-120.234,38.0403,olivia haize,1346498119,2020-03-28 18:36:23,"Portland, OR",city,"Twain Harte, CA",United States
82,80.16597840000001,13.0434906,olivia haize,1346498119,2020-04-15 17:21:53,"Portland, OR",city,"Saidapet, India",India
43760,-120.1875,38.060829999999996,olivia haize,1346498119,2020-04-21 17:43:10,"Portland, OR",city,"Mi-Wuk Village, CA",United States
40900,-121.4927,38.5763,olivia haize,1346498119,2020-05-04 07:59:50,"Portland, OR",city,"Sacramento, CA",United States
43760,-120.26723,37.99994,olivia haize,1346498119,2020-05-15 16:10:00,"Portland, OR",city,"Mono Vista, CA",United States
82,80.87824232,26.83630824,olivia haize,1346498119,2020-06-07 19:31:32,"Portland, OR",city,"Lucknow, India",India
119,-88.40103483,18.65907576,Vanesa Verano,134649903,2020-03-14 03:20:47,Landing  ,city,"Othn P. Blanco, Quintana Roo",Mexico
9,144.5703105,-38.161204,David,1346502548,2020-03-19 21:54:57,,city,"Drysdale - Clifton Springs, Victoria",Australia
186,2.1412275000000003,41.392657,Escola d'Enginyeria UAB,1346503532,2020-02-17 19:07:09,"Cerdanyola del Valls, Espanya",city,"Barcelona, Espaa",Espaa
95,127.04899999999999,37.525,,134650414,2020-05-07 03:11:14,Korea,city,"Gangnam-gu, Republic of Korea",Republic of Korea
222,110.359257,-7.779451,F a t m a,1346506548,2020-03-08 15:45:31,"Yogyakarta, Indonesia",city,"Tegalrejo, Indonesia",Indonesia
49,-78.505585,-0.10456199999999999,Pato,134650762,2020-04-07 01:00:47,Quito - Ecuador,poi,Urbanizacion El Condado,Ecuador
39900,-119.822,39.5271,Jen Charboneau,134650973,2020-02-20 20:34:31,,city,"Reno, NV",United States
88,139.70600000000002,35.6906,Aul,1346510570,2020-05-25 11:21:11,"Kuningan, Jawa Barat",city, ,Jepang
21,-43.42864604,-22.88268092,Hernandez Cardozo,134651115,2020-02-15 00:15:22,RIO DE JANEIRO,city,"Rio de Janeiro, Brasil",Brasil
65,2.33539467,48.86138133,Hernandez Cardozo,134651115,2020-03-05 20:45:41,RIO DE JANEIRO,city,"Paris, France",Frana
21,-43.42864604,-22.88268092,Hernandez Cardozo,134651115,2020-03-07 00:45:26,RIO DE JANEIRO,city,"Rio de Janeiro, Brasil",Brasil
21,-63.89335,-8.759269999999999,Camis,134651183,2020-02-23 03:09:08,"Rondnia, Brasil",city,"Porto Velho, Brasil",Brasil
186,-8.563243,43.24289,Suso Ramos Rodriguez,1346512226,2020-03-06 06:54:54,A Laracha,city,"A Laracha, Espaa",Espaa
35620,-73.9487755,40.655138,Ariel Carliz,134651364,2020-04-25 12:52:48,,city,"Brooklyn, NY",Estados Unidos
88,135.5012379,34.67220834,,1346513868,2020-06-08 09:34:57,,city,  ,
82,80.2751,13.0812,Hafiz Khan,134651414,2020-04-11 02:29:37,"Chennai, India",city,"Fort Tondiarpet, India",India
119,-93.12393063,16.75771744,ckamus,134651867,2020-02-14 08:38:59,CHIAPAS,city,"Tuxtla Gutirrez, Chiapas",Mxico
24,-78.8922455,43.808878,Jennifer Allen,134652025,2020-03-08 14:03:29,"Toronto, ON",city,"Whitby, Ontario",Canada
37980,-75.22486746,39.95997069,Dev Coleman,134652077,2020-04-30 00:48:24,Philadelphia,city,"Philadelphia, PA",United States
175,39.2541285,21.5857105, ,1346522930,2020-03-22 23:44:06,,city,",   ",  
21,-50.862568,-29.656108000000003,Everton Felipe Kbssa,134652337,2020-06-02 11:47:35,"Parob, RS",city,"Parob, Brasil",Brasil
96,47.63681,29.373103000000004,,1346523504,2020-02-21 16:51:19,  ,poi,Camp, 
160,-76.79600450000001,-12.2366575,Junior Stewer,134652443,2020-04-20 13:38:20,"Lurin, Peru",city,"Lurin, Peru",Peru
42660,-122.10149750000001,47.370403,purple princess,1346524795,2020-02-19 21:30:04,"Seattle, WA",city,"Covington, WA",United States
96,47.667052000000005,29.350665000000003,,1346527178,2020-02-19 18:04:56,Kuwait,poi,Pizza Hut, 
120,101.697446,3.151982,Dindang,1346527333,2020-02-14 18:49:12,taman astakona,city,"Kuala Lumpur City, Kuala Lumpur Federal Territory",Malaysia
38,-73.92732149999999,11.0734625,Adriana,134652762,2020-02-22 19:56:52,Colombia,city,"Santa Marta, Colombia",Colombia
205,-0.412022,51.375745,Cheryl Crandley,1346528942,2020-02-17 16:34:49,"London, Surrey",city,"West Molesey, South East",United Kingdom
17140,-84.482788,39.0837075,Chelsey,134652980,2020-02-18 02:53:18,Cincinnati ,city,"Newport, KY",United States
119,-99.1614805,19.380613,Miki ,134653038,2020-02-19 15:59:34,"Mxico, D.F. ",city,"Benito Jurez, Distrito Federal",Mxico
205,-3.101829,53.33554399999999,Elaine Richardson,1346531893,2020-02-24 12:24:58,"Liverpool, England",city,"Heswall, England",United Kingdom
65,6.645620500000001,45.386795,Elaine Richardson,1346531893,2020-03-14 10:13:15,"Liverpool, England",city,"Saint-Bon-Tarentaise, France",France
205,-3.101829,53.33554399999999,Elaine Richardson,1346531893,2020-03-18 13:37:56,"Liverpool, England",city,"Heswall, England",United Kingdom
33,-70.90097683,-53.16102418,Gastn Esparza,134653245,2020-02-21 23:19:59,"Santiago,  Chile",city,"Punta Arenas, Chile",Chile
65,7.00939,43.539879,Sharon Tooman,1346533280,2020-02-15 15:22:36,,city,"Cannes, France",France
85,12.381694,45.404160499999996,Sharon Tooman,1346533280,2020-02-26 12:48:19,,city,"Venice, Veneto",Italy
65,7.12811,43.55536,Sharon Tooman,1346533280,2020-03-07 14:03:17,,poi,Cap d'Antibes,France
191,6.107911,46.23087199,Mohiiwi,1346533488,2020-02-24 17:30:59,"Madrid, Comunidad de Madrid",city,"Meyrin, Suisse",Suisse
65,2.32635,48.87812,Mohiiwi,1346533488,2020-02-28 19:28:52,"Madrid, Comunidad de Madrid",city,"Paris, France",France
9,150.931975,-33.848244,Pioneer G,1346534196,2020-05-28 05:44:18,"Sydney, New South Wales",city,"Sydney, New South Wales",Australia
205,-0.0601675,51.5476445,Gav,1346534514,2020-02-26 16:41:34,London,city,"Hackney, London",United Kingdom
21,-38.51989,-3.789768,ocelio,134653598,2020-02-27 23:45:57,"Fortaleza, Brasil",city,"Fortaleza, Brasil",Brasil
186,-0.515521,38.3489055,Inmaculada Rodrguez,1346536045,2020-05-07 06:51:23,,city,"Alicante, Espaa",Espaa
200,38.60673,37.797872,Osman,1346536939,2020-05-19 11:41:33,,poi,Kahta Devlet Hastanesi,Trkiye
65,2.3093150000000002,48.7980125,Saloua,1346537220,2020-02-15 21:16:53,"Paris, France",city,"Bagneux, France",France
171,125.002232,11.237421000000001,Christine Lerasan,1346537479,2020-03-07 00:09:40,"Tacloban City, Eastern Visayas",poi,Leyte Normal University,Republic of the Philippines
38,-74.24367099999999,4.2622835,John Vargas Fotografia,134653817,2020-02-25 16:27:56,"Bogot, D.C., Colombia",city,"Bogot, D.C., Colombia",Colombia
41860,-121.99864450000001,37.973327000000005,Amber Marie ,134653974,2020-03-04 01:25:31,bay area.,city,"Concord, CA",United States
26420,-95.767395,29.532056,Jacob,134654065,2020-03-18 02:19:37,"Rosenberg, Tx",city,"Rosenberg, TX",United States
175,39.6540485,24.462089000000002, ,1346541379,2020-02-14 06:34:57, ,city," ,   ",  
171,125.96502350000002,7.410072500000001,Wen ,1346542556,2020-04-07 17:49:51,"Maco, Davao Region",city,"Maco, Davao Region",Republic of the Philippines
175,50.045,26.4794,ij ~ Alabyad  #HalaMadrid,1346543720,2020-03-27 20:01:50,Kingdom of Saudi Arabia ,city,"Sihat, Kingdom of Saudi Arabia",Kingdom of Saudi Arabia
88,139.35397,36.07036700000001,Yuhei/,134654389,2020-03-12 03:14:01,,city, ,
163,-79.48758000000001,9.023612,Ramn Elas  ,134654470,2020-02-28 20:03:00,Panam,poi,McDonald's,Panam
9,138.61115999999998,-35.000767,Diane McDonald,134654586,2020-04-25 11:20:26,South Australia,city,"Adelaide, South Australia",Australia
158,174.07712,-39.059309999999996,Andie Brown,1346546018,2020-06-06 11:44:30,,city,"New Plymouth District, New Zealand",New Zealand
193,100.62213789,13.66247763,SanphoL Pongkunpai,134654624,2020-03-15 05:38:58,Thailand,city,"Bang Na, Thailand",Thailand
119,-99.208364,19.199485,Alex,134654653,2020-03-01 19:19:28,Mexico D.F.,city,"Tlalpan, Distrito Federal",Mxico
205,-2.717077,52.060821999999995,Hereford United Supporters' Trust (HUST),1346546570,2020-02-22 16:11:48,Hereford,poi,Edgar Street,United Kingdom
171,121.39377594,13.82789146,Jeff Anat,1346547230,2020-03-01 10:25:04,Lucena City,city,"San Juan, Calabarzon",Republic of the Philippines
24,-97.1526765,49.8538055, ,1346548027,2020-02-14 04:01:29,"Winnipeg, Manitoba",city,"Winnipeg, Manitoba",Canada
27180,-88.86265949999999,35.782975,Briley Jo,1346549689,2020-03-02 00:52:20,"Tennessee, USA",city,"Three Way, TN",United States
88,139.697921,35.657854,,134654971,2020-02-19 08:31:08,,poi,Afternoon Tea TEAROOM,
95,126.6752105,37.46222,,134655001,2020-05-30 08:22:42,,city, ,
26620,-86.5963,34.7123,Ali Pepe,134655049,2020-02-17 17:04:44,Alabama,city,"Huntsville, AL",United States
88,135.5547955,34.693611000000004,a-sa,1346550612,2020-02-19 09:54:05,,city,  ,
36740,-81.3677725,28.5016785,Irvin Gardner,134655178,2020-04-08 03:14:00,Miami,city,"Orlando, FL",United States
33100,-80.19641200000002,25.911113,Irvin Gardner,134655178,2020-04-23 17:41:26,Miami,city,"Golden Glades, FL",United States
36740,-81.3677725,28.5016785,Irvin Gardner,134655178,2020-05-08 05:54:40,Miami,city,"Orlando, FL",United States
222,115.162057,-8.725477999999999,desak ketut andayani,134655277,2020-02-21 12:10:53,Bali Island,city,"Kuta, Indonesia",Indonesia
205,-0.032025,51.811639500000005,Emma,1346552982,2020-03-10 19:19:30,"Hertford,Hertfordshire",city,"Ware, East",United Kingdom
175,39.2541285,21.5857105,Rehab Alshehri,1346553709,2020-02-15 11:06:19,Jeddah,city,",   ",  
48020,-88.72156600000001,43.1836975,M. Cerys Jenks,134655387,2020-02-16 19:36:23,"Watertown, WI",city,"Watertown, WI",United States
205,-1.2334334999999998,51.75428599999999,graemehunter,13465542,2020-04-19 07:02:54,"Oxford, UK",city,"Oxford, England",United Kingdom
47260,-76.255686,36.895082,swervo.,1346555240,2020-03-24 21:27:23,nlmbdt150.,city,"Norfolk, VA",United States
119,-99.153366,19.432835999999998,Alnbrt.O,134655567,2020-03-18 03:05:42,Mxico,city,"Cuauhtmoc, Distrito Federal",Mxico
82,72.87424399999999,19.174139999999998,Zeeshan Khatri,1346556307,2020-04-10 10:14:51,mumbai (INDIA),city,"Mumbai, India",India
222,109.6684,-7.6838,rizkypurnomoo,1346557381,2020-03-02 17:17:08,,city,"Kebumen, Indonesia",Indonesia
222,106.6778875,-6.2026825,cm,1346558256,2020-04-11 00:27:01,"Jakarta Pusat, DKI Jakarta",city,"Cipondoh, Indonesia",Indonesia
95,127.02800634,37.56744434,,134655832,2020-05-03 06:15:22,SEOUL,city,"Dongdaemun-gu, Republic of Korea",Republic of Korea
36220,-102.48299999999999,31.842,Kimberly Barnwell,134655849,2020-04-05 17:55:32,"West Odessa, TX",city,"West Odessa, TX",United States
13820,-86.741158,33.4513005,James Hardy,134655914,2020-02-14 12:10:33,"Birmingham, AL",city,"Vestavia Hills, AL",United States
46220,-87.5334065,33.1966005,James Hardy,134655914,2020-02-16 00:31:59,"Birmingham, AL",city,"Tuscaloosa, AL",United States
13820,-86.741158,33.4513005,James Hardy,134655914,2020-02-20 01:01:35,"Birmingham, AL",city,"Vestavia Hills, AL",United States
46220,-87.5334065,33.1966005,James Hardy,134655914,2020-03-01 01:27:33,"Birmingham, AL",city,"Tuscaloosa, AL",United States
13820,-86.741158,33.4513005,James Hardy,134655914,2020-03-02 02:46:09,"Birmingham, AL",city,"Vestavia Hills, AL",United States
46220,-87.5334065,33.1966005,James Hardy,134655914,2020-03-28 18:25:10,"Birmingham, AL",city,"Tuscaloosa, AL",United States
13820,-86.741158,33.4513005,James Hardy,134655914,2020-03-29 22:15:21,"Birmingham, AL",city,"Vestavia Hills, AL",United States
120,100.54144287,5.50147724,Azam Abdullah,1346559200,2020-02-14 06:01:01,"Shah alam
",city,"Naga Lilit, Kedah",Malaysia
82,76.28326750000001,10.514921000000001,HAREESH HARIDATHAN NAMBOOTHIRI,134655998,2020-02-17 13:34:21,,city,"Trissur, India",India
222,104.74083418,-2.96321638,BungaAyuriAprilianti,1346561372,2020-02-15 14:06:01,,city,"Kemuning, Indonesia",Indonesia
9,121.4645705,-30.753090000000004,Goldfields Sports ,1346561396,2020-05-25 23:46:54,,city,"Kalgoorlie - Boulder, Western Australia",Australia
33,-73.814832,-46.016144,Fernando Miranda,134656243,2020-05-18 14:46:02,Entre Puerto Aysn y Coyhaique,city,"Aysen, Chile",Chile
153,10.3659625,63.409964,Hege Forsvoll,134656245,2020-03-16 14:30:22,"Lyon, France",city,"Trondheim, Norway",Norway
57,13.4131625,47.3028785,Victor,1346563381,2020-03-05 18:16:22,"Beuningen, Gelderland",city,"Flachau, sterreich",Oostenrijk
152,5.746854,51.8639045,Victor,1346563381,2020-03-21 08:46:14,"Beuningen, Gelderland",city,"Beuningen, Nederland",Nederland
71,13.4246065,52.506701,Ben Battye,1346564096,2020-02-14 10:21:04,"Manchester, England",city,"Berlin, Germany",Germany
205,-2.3267745,53.4001995,Ben Battye,1346564096,2020-02-15 09:46:35,"Manchester, England",city,"Sale, England",United Kingdom
21140,-86.00385,41.445516,Holly McCammack,134656433,2020-05-24 06:15:14,"Warsaw, IN",city,"Nappanee, IN",United States
47700,-85.85517200000002,41.247669,Holly McCammack,134656433,2020-06-01 23:29:34,"Warsaw, IN",city,"Warsaw, IN",United States
41500,-121.64126850000001,36.6891495,Rosie Montalvo,134656494,2020-02-15 15:39:36,,city,"Salinas, CA",United States
40140,-116.4226085,34.1209715,derekhelmer,13465652,2020-04-29 03:59:38,"Yucca Valley, CA",city,"Yucca Valley, CA",United States
8,-58.79613199999999,-27.487033,Fran Ingaramo,134656705,2020-02-14 23:39:50,Corrientes,city,"Corrientes, Argentina",Argentina
200,32.744717,39.9676005,Hakan OZTURK,1346567160,2020-05-22 10:31:39,,city,"Yenimahalle, Trkiye",Trkiye
120,101.770181,2.9490515,azfar...,1346567934,2020-03-25 14:16:03,"Kajang, Selangor",city,"Kajang, Selangor",Malaysia
85,10.666716999999998,45.316955,Grana Padano DOP,1346568548,2020-02-25 14:07:27,,city,"Volta Mantovana, Lombardia",Italia
8,-58.442643,-34.604315,Paula.,134657054,2020-06-08 18:27:27,,city,"Ciudad Autnoma de Buenos Aires, Argentina",Argentina
31080,-118.03528899999999,34.070871000000004,LINDV,134657109,2020-02-23 14:55:17,"Rosemead, CA",city,"El Monte, CA",United States
205,-2.1270404999999997,57.16055600000001,Grantown United FC,1346571619,2020-04-09 12:52:45,Grantown-On-Spey,city,"Aberdeen, Scotland",United Kingdom
82,77.97236600000001,11.695069,Saravanakumar,134657182,2020-04-14 09:38:19,"Salem, India",poi,Tharamangalam,India
21,-48.481291,-1.416482,Zat,134657201,2020-03-13 20:16:40,Manga City,poi,Travessa Djalma Dutra,Brasil
222,110.334276,-6.980249000000001,VickyAdetyaPP,1346572430,2020-05-16 04:34:06,Diatas bumi Dibawah Langit,city,"Ngaliyan, Indonesia",Indonesia
82,73.743089,28.488141,sidhu moose wala  ,1346572640,2020-06-03 08:17:04,PKMB,city,"Lunkaransar, India",India
85,8.880844999999999,44.449498999999996,picnic to the roots,1346572879,2020-05-23 10:15:04,Italy,city,"Genoa, Liguria",Italy
28180,-159.4625795,21.877461500000006,Nick Christenson,134657309,2020-03-04 14:12:37,"Detroit Lakes, MN",city,"Poipu, HI",United States
22260,-95.837867,46.8002505,Nick Christenson,134657309,2020-04-01 11:57:22,"Detroit Lakes, MN",city,"Detroit Lakes, MN",United States
88,130.38794950000002,33.57973,Wine Expert tomoko.O,134657359,2020-02-19 03:08:14,,city,  ,
14460,-71.0887125,42.3136695,Sebastian Felipe Muoz Vargas,134657369,2020-02-14 04:07:11,Udrogoth,city,"Boston, MA",Estados Unidos
38,-74.11496611,4.66282873,Sebastian Felipe Muoz Vargas,134657369,2020-02-28 16:09:25,Udrogoth,city,"Bogot, D.C., Colombia",Colombia
14460,-71.0887125,42.3136695,Sebastian Felipe Muoz Vargas,134657369,2020-02-29 05:02:56,Udrogoth,city,"Boston, MA",Estados Unidos
38,-75.16972222,4.22972222,Sebastian Felipe Muoz Vargas,134657369,2020-04-14 15:55:33,Udrogoth,city,"Valle de San Juan, Colombia",Colombia
14460,-71.15270437,42.35963745,Sebastian Felipe Muoz Vargas,134657369,2020-06-02 20:18:10,Udrogoth,city,"Boston, MA",Estados Unidos
21,-43.441578,-22.911421500000003,Linda Macedo,134657423,2020-02-23 22:24:03,"Rio de Janeiro, Brasil",city,"Rio de Janeiro, Brasil",Brasil
175,46.854462,24.749769,.Reem .M. AlSaud.,1346574672,2020-02-16 22:45:02,Riyadh,poi,NGH Adult Care ER,  
35840,-82.5330735,27.341121500000003,REEEESHAAAA,134657581,2020-02-22 19:28:31,"Atlanta, GA",city,"Sarasota, FL",United States
96,47.971495000000004,29.239409999999996,  ,1346577398,2020-02-23 02:33:47,"Abdullah Al Mubarak - West Jleeb, Kuwait",poi,Kuwait International Airport (KWI), 
222,110.405922,-7.786567,,1346578308,2020-02-16 10:54:56,Indonesia,poi,Gunung api purba & danau nglanggeran,Indonesia
21,-34.928155,-8.181166000000001,Jorge Eduardo Branco,1346578490,2020-03-24 11:35:52,,poi,062 - Jd. Piedade,Brasil
119,-99.655676,19.2843215,Charles_Fik,134658003,2020-03-03 00:45:39,,city,"Toluca, Mxico",Mxico
33,-73.211427,-41.7425125,Jorge Andrade Cofr,134658031,2020-03-06 16:34:23,Calbuco - Chile,city,"Calbuco, Chile",Chile
119,-99.18192327,19.4662423,Maestro Vergstenes.,134658096,2020-03-29 03:28:00,"Distrito Federal, Mxico.",city,"Azcapotzalco, Distrito Federal",Mxico
186,-3.7035075,40.4777945,R. M.,1346581298,2020-02-14 17:26:52,,city,"Madrid, Spain",Spain
21,-38.5026475,-12.8753345,R. M.,1346581298,2020-02-24 16:02:08,,city,"Salvador, Brazil",Brazil
152,4.904053500000001,52.354728,R. M.,1346581298,2020-03-04 17:13:04,,city,"Amsterdam, The Netherlands",The Netherlands
186,0.855931,42.5438325,R. M.,1346581298,2020-03-08 12:21:58,,city,"La Vall de Bo, Espaa",Spain
119,-100.30904100000001,25.664279999999998,Ginis_Mtz,134658458,2020-03-17 17:27:49,"Monterrey, Nuevo Len",poi,Monterrey,Mexico
171,120.34024699999999,14.85885,Mae Ann Palma Danao,1346584776,2020-02-14 05:57:27,Olongapo/Mnl,city,"Olongapo City, Central Luzon",Republic of the Philippines
175,46.0327485,28.350082500000003, ,1346585114,2020-03-21 10:02:49,,city," ,   ",  
88,130.55822450000002,33.296299499999996,masa,134658615,2020-02-14 00:52:44,,city, ,
205,0.36144299999999996,51.4325655,Jonathan Hassell,13465862,2020-04-30 14:20:38,London UK,city,"Gravesend, South East",United Kingdom
222,114.3614355,-8.2457905,Citra Tunggadewi,134658647,2020-04-25 21:38:55,"Banyuwangi, Indonesia",city,"Banyuwangi, Indonesia",Indonesia
21,-43.892911,-20.0758735,Felipe Pinheiro,134658691,2020-03-28 11:30:40,Belo Horizonte - MG,city,"Nova Lima, Brasil",Brasil
71,8.701054,50.0036195,Jens Taube,1346587446,2020-04-18 17:16:07,Germany,city,"Dreieich, Deutschland",Deutschland
49,-78.5566815,-0.16657049999999998,LunaAzulEc,134658769,2020-02-14 02:22:25,Ecuador,city,"Quito, Ecuador",Ecuador
120,103.06248199999999,5.367565,Jeyma,1346588120,2020-02-18 22:57:40,Dream Island,city,"Kuala Nerus, Terengganu",Malaysia
21,-48.679212,-26.776587,Mauricio Quintino,134658842,2020-02-15 15:14:24,"Brasil, Amazonas, Manaus",city,"Balnerio Piarras, Brasil",Brasil
175,41.687540000000006,27.508333500000003, ,1346592138,2020-02-14 07:34:04,",   ",city,",   ",  
205,-0.3506925,51.461742,Patience McQueen,1346594186,2020-03-25 11:24:06,london,city,"Hounslow, London",United Kingdom
35620,-73.27997149999999,40.841982,Casey Padilla,1346596016,2020-02-24 01:35:22,"Long Island, New York ",city,"Commack, NY",United States
49,-80.091193,-2.512995,Pepe,134659768,2020-02-14 16:09:12,"Guayaquil, Ecuador",city,"Guayaquil, Ecuador",Ecuador
88,139.73951449999998,35.56689400000001,,134659887,2020-03-01 02:40:14,,city, ,
33,-70.66749977,-33.42976979,Jorge L. R. Sosa ,134659928,2020-02-15 22:18:52,"Metropolitana de Santiago, Chi",city,"Santiago, Chile",Chile
8,-58.46357509,-34.60405355,Jorge L. R. Sosa ,134659928,2020-03-11 16:01:20,"Metropolitana de Santiago, Chi",city,"Ciudad Autnoma de Buenos Aires, Argentina",Argentina
33,-70.65027778,-33.43777778,Jorge L. R. Sosa ,134659928,2020-03-31 15:51:51,"Metropolitana de Santiago, Chi",city,"Santiago, Chile",Chile
222,108.635112,-6.7994175000000014,De,134660188,2020-02-14 04:31:10,,city,"Astanajapura, Indonesia",Indonesia
82,72.87424399999999,19.174139999999998,ashish,1346602572,2020-02-23 15:32:00,Mumbai,city,"Mumbai, India",India
8,-64.49347499999999,-31.424182,Cyn,134660284,2020-03-05 03:27:26,"Buenos Aires, Argentina",city,"Villa Carlos Paz, Argentina",Argentina
33,-70.63326719,-33.42597792,Adolfo Sobil Espaol Jr.,134660383,2020-02-19 14:00:10,"Metropolitana de Santiago, Chi",city,"Providencia, Chile",Chile
222,105.28968799999998,-5.1234544999999985,Hitam Kopi,1346604655,2020-04-13 04:35:29,Palembang,city,"Metro Barat, Indonesia",Indonesia
82,70.089,23.0723,Kunalsinh Parmar,1346605598,2020-03-04 19:05:11,Gandhidham,city,"Gandhidham, India",India
47900,-77.46053990000001,38.303183700000005,TMJ-VAF Gen. Science,134660669,2020-02-14 18:48:56,"Fairfax, VA",city,"Fredericksburg, VA",United States
186,-3.461792,40.4706885,RUTA ALBORN,1346606736,2020-02-18 17:01:51,,city,"Torrejn de Ardoz, Espaa",Espaa
88,139.8767675,36.596727,,1346607060,2020-02-14 00:07:03,,city, ,
88,136.984631,35.269634,MIKI,134660792,2020-03-01 10:54:28,,poi, ,
34820,-78.90647583,33.71635452,Mike gray,1346608776,2020-03-03 19:24:26,"New Jersey, USA",city,"Myrtle Beach, SC",United States
222,106.8171375,-6.2016105,Pipit A.Magdalena,134660881,2020-03-06 00:40:25,"Jakarta Pusat, DKI Jakarta",city,"Tanah Abang, Indonesia",Indonesia
211,-67.6,10.25,LUISA STRIPPOLI,134660911,2020-04-03 05:12:11,VENEZUELA,city,"Maracay, Venezuela",Venezuela
21,-36.3039875,-7.8829305,JeffersonFelipe  ,134660926,2020-04-18 19:58:08,"Santa Cruz do Capibaribe, Brasil",city,"Santa Cruz do Capibaribe, Brasil",Brasil
88,134.5407,34.987120000000004,JeffersonFelipe  ,134660926,2020-06-03 07:49:44,"Santa Cruz do Capibaribe, Brasil",city, ,Japo
21,-36.3039875,-7.8829305,JeffersonFelipe  ,134660926,2020-06-04 21:59:54,"Santa Cruz do Capibaribe, Brasil",city,"Santa Cruz do Capibaribe, Brasil",Brasil
119,-102.6943495,22.7306065,Raymundo Moreno,134660971,2020-02-15 01:42:29,"Zacatecas, Mxico",city,"Zacatecas, Mxico",Mxico
205,-4.295297,55.877042,Vinod Maurya,134661082,2020-02-24 19:35:30,"Scotland, United Kingdom",poi,Athole Gardens,United Kingdom
35620,-73.92654366,40.82936911,Anthony Medina,1346611322,2020-03-26 15:22:32,New Jersey,city,"Bronx, NY",United States
10900,-74.8294,40.8532,Anthony Medina,1346611322,2020-04-01 14:40:36,New Jersey,city,"Hackettstown, NJ",United States
35620,-74.7548,41.0527,Anthony Medina,1346611322,2020-06-07 13:44:18,New Jersey,city,"Newton, NJ",United States
21,-43.441578,-22.911421500000003,Fuego ,134661168,2020-02-16 09:18:34,Rio de Janeiro,city,"Rio de Janeiro, Brasil",Brasil
21,-47.4075,-22.5737,van van PersonalSwim,134661204,2020-06-08 22:12:58,Limeira /SP,city,"Limeira, Brasil",Brasil
8,-58.33655407,-34.69866917,Bob Marley,1346613096,2020-03-01 15:52:01,"Avellaneda, Argentina",city,"Avellaneda, Argentina",Argentina
193,100.467761,13.6890545,Pattriya N.,134661327,2020-03-25 05:25:26,"Bangkok, Thailand",city,"Chom Thong, Thailand",Thailand
88,139.745379,35.652789,MAYUKO,1346613842,2020-02-14 10:16:43,,city, ,
161,69.010811,25.5269365,Amjad Ali Babbar,1346614202,2020-03-21 14:21:47,Mirpur khas,city,"Mirpur Khas, Pakistan",Pakistan
65,3.0448125,50.698275,AIMS,1346614446,2020-03-16 20:29:46,,city,"Wambrechies, France",France
119,-103.335882,20.676652,Ftima Aguilar,134661488,2020-02-14 03:31:52,"Zapopan, Jalisco",city,"Guadalajara, Jalisco",Mxico
85,11.244817,43.7807085,maria rossi,1346614963,2020-05-15 19:43:41,,city,"Firenze, Toscana",Italia
35620,-73.2537,40.7299,SmikestheGreat,134661540,2020-02-19 23:22:55,"Long Island,NY",city,"Bay Shore, NY",United States
88,136.1810575,34.729754,,1346617190,2020-03-03 21:02:00,,city, ,
88,139.4917695,35.4669035,,1346619680,2020-02-20 20:24:47,,city,  ,
88,139.449532,35.73995,,1346620592,2020-06-01 04:02:23,,poi, ,
24,-76.473111,44.320833,Mary E. Bishop,1346621593,2020-06-05 18:47:53,,city,"Kingston, Ontario",Canada
82,72.87424399999999,19.174139999999998,Urmi Bhatt,134662267,2020-02-14 03:06:11,"Mumbai, India",city,"Mumbai, India",India
82,73.910077,18.5081615,ADITYA PRASAD PATRO,1346622932,2020-03-02 18:30:23,"NAGPUR,INDIA",city,"Haveli, India",India
119,-99.187904,23.685934,ChitoCano,134662294,2020-02-14 00:03:40,,city,"Victoria, Tamaulipas",Mxico
24,-80.4833,43.45,youyousoul,1346623514,2020-02-23 19:59:37,"Bulawayo, Zimbabwe",city,"Kitchener, Ontario",Canada
178,28.24308,-26.085862,youyousoul,1346623514,2020-03-03 23:06:23,"Bulawayo, Zimbabwe",city,"Kempton Park, South Africa",South Africa
8,-60.69740600000001,-32.9516155,Penny Lane ,134662353,2020-05-05 21:44:42,"Ramayork / Rosario, Argentina ",city,"Rosario, Argentina",Argentina
211,-66.930644,10.483539,soi tu sikaria,1346623934,2020-02-14 14:29:46,"Caracas, Venezuela",city,"Caracas, Venezuela",Venezuela
222,106.820353,-6.195062,Firman Aldy S,134662444,2020-03-01 11:02:27,"Jakarta, for now",poi,Grand Indonesia Shopping Town,Indonesia
222,112.79424399999999,-7.285761,Merah Jambu,1346627317,2020-02-17 05:54:10,"Kota Surabaya, Jawa Timur",poi,institut Teknologi Sepuluh Nopember,Indonesia
222,106.83129950000001,-6.332802,UmiAyu,1346627504,2020-02-24 11:45:33,"Jakarta Selatan, DKI Jakarta",city,"Jagakarsa, Indonesia",Indonesia
186,-3.726757,40.407013,IREO,1346627515,2020-03-05 09:15:43,Madrid,poi,Carlos Sainz Center,Espaa
35380,-90.0792395,30.4041695,Michael Phillips,1346627576,2020-06-04 22:51:58,,city,"Mandeville, LA",United States
175,39.649281,24.426838,,1346627822,2020-02-24 15:59:39," ,   ",poi,Atarani Cafe,  
222,107.6127255,-6.939103,ch,1346627876,2020-02-16 06:05:16,,city,"Regol, Indonesia",Indonesia
40140,-117.19652549999999,33.5669805,,1346630444,2020-02-14 22:52:43,"Dededo, GU",city,"Murrieta, CA",United States
31140,-85.6451115,38.12429899999999,Israel Cuenca,134663193,2020-02-29 20:01:20,"Louisville, Ky. ",city,"Highview, KY",United States
222,115.2175355,-8.355653,Ghost,134663204,2020-02-14 01:54:00,"Bali , Indonesia",city,"Petang, Indonesia",Indonesia
85,9.1593365,45.461345,mah6id,1346632064,2020-02-24 10:04:04,Sydney,city,"Milan, Lombardy",Italy
119,-100.2935915,25.6417185,Samuel Rayado Campon,134663281,2020-02-20 02:27:20,Monterrey,city,"Monterrey, Nuevo Len",Mxico
24,-68.5167555,63.751187,Roselynn Akulukjuk,134663362,2020-02-20 00:07:04,"Iqaluit, Nunavut",city,"Iqaluit, Nunavut",Canada
8,-58.442643,-34.604315,Tato,134663445,2020-03-26 15:02:49,"Ciudad Autnoma de Buenos Aires, Argentina",city,"Ciudad Autnoma de Buenos Aires, Argentina",Argentina
65,2.2429315,48.83745500000001,alyak,134663547,2020-02-14 21:40:05,Cavite,city,"Boulogne-Billancourt, France",France
82,85.84744599999999,20.286537,Shreyansh Bhattacharjee,1346635585,2020-02-29 16:52:52,Bhubaneswar ,poi,INOX Bhubaneswar,India
119,-99.2115105,19.4299345,Jonathan Puente ,134663584,2020-02-17 21:46:58,Mexico City,city,"Miguel Hidalgo, Distrito Federal",Mxico
88,139.809879,35.741999,SaaS,134663745,2020-03-21 06:46:42,,poi,,
37980,-75.7389895,39.6020915,Dr. Abraham Philip,1346637632,2020-03-24 14:51:24,,city,"Glasgow, DE",United States
120,101.6846865,3.124524,izzat,1346639106,2020-02-15 16:42:50,,city,"Kuala Lumpur, Wilayah Persekutuan Kuala Lumpur",Malaysia
171,120.34024699999999,14.85885,Kiel,1346640559,2020-03-23 19:16:35,,city,"Olongapo City, Central Luzon",Republic of the Philippines
119,-103.4847745,20.790657000000003,JEOS,134664058,2020-03-16 15:52:36,"T: 20.699153,-103.374145",city,"Zapopan, Jalisco",Mxico
41620,-111.917026,40.765805,Mike Renz,134664118,2020-02-17 04:01:27,"Minnesota, USA",city,"Salt Lake City, UT",United States
33460,-93.3596435,44.991707,Mike Renz,134664118,2020-02-22 02:54:22,"Minnesota, USA",city,"Golden Valley, MN",United States
46520,-157.799589,21.3199435,Mike Renz,134664118,2020-03-11 18:22:13,"Minnesota, USA",city,"Honolulu, HI",United States
25900,-155.9852495,19.664579500000002,Mike Renz,134664118,2020-03-13 02:21:12,"Minnesota, USA",city,"Kailua, HI",United States
28180,-159.49929350000005,22.206411,Mike Renz,134664118,2020-03-17 01:16:10,"Minnesota, USA",city,"Hanalei, HI",United States
33460,-93.3596435,44.991707,Mike Renz,134664118,2020-03-20 12:40:51,"Minnesota, USA",city,"Golden Valley, MN",United States
49420,-120.5297595,46.5942225,Shane Sieweke,134664134,2020-02-16 14:30:22,"Washington, USA",city,"Yakima, WA",United States
17660,-116.7937445,47.701787,Shane Sieweke,134664134,2020-02-26 04:46:52,"Washington, USA",city,"Coeur d'Alene, ID",United States
88,130.39567250000002,33.5673436,,134664188,2020-03-15 09:16:07,311-5F,city,  ,
153,10.721525999999999,59.97240550000001,Lisa Hgvall,1346642192,2020-02-26 12:36:08,"Oslo, Norge",city,"Oslo, Norway",Norway
24,-113.49261750000001,53.5558195,a.c. mack,134664346,2020-02-28 15:13:16,university of alberta,city,"Edmonton, Alberta",Canada
114,57.556518999999994,-20.016264000000003,Aadil,1346643710,2020-04-15 19:08:22,Republic of Mauritius,poi,Mont Choisy Beach,Republic of Mauritius
21,-38.51989,-3.789768,Charlene Freitas,1346643818,2020-02-21 17:43:39,"Conjunto Esperana, Fortaleza",city,"Fortaleza, Brasil",Brasil
33100,-80.192,25.7752,Christopher Sandoval,134664429,2020-03-07 03:46:58,"San Jos, Costa Rica",city,"Miami, FL",Estados Unidos
21,-46.0184165,-23.7668985,SHIRLEI,134664436,2020-04-02 17:05:15,BRASIL,city,"Bertioga, Brasil",Brasil
88,139.776802,36.182952,Spark joy@,1346644448,2020-02-28 10:25:53,,city, ,
88,138.1522534,35.99412527,,1346646025,2020-02-14 00:11:40,,city, ,
242,121.23444501,25.07884137,,1346646025,2020-02-25 09:44:42,,city,", ",
151,3.3386055,6.4931125000000005,T.O.O Ogunrinde,1346647453,2020-02-14 13:21:06,Planet Earth,city,"Lagos, Nigeria",Nigeria
35620,-74.0602362,40.9144177,Weaboo Hunter 69,134664755,2020-02-15 00:53:42,,city,"Maywood, NJ",United States
95,128.6174995,35.176081499999995,H.J pascal kim,134664933,2020-04-17 04:27:37,korea,city, ,
65,2.287447,48.894609499999994,Arthur Weber ,13466512,2020-05-29 17:37:12,Levallois-Perret,city,"Levallois-Perret, France",France
171,120.85998490000001,14.3518488,Pauline Kaye,1346651341,2020-02-21 12:57:45,,city,"Tanza, Calabarzon",Republic of the Philippines
88,138.25992150000002,35.297816999999995,,134665409,2020-02-18 15:38:13,,city, ,
48,-70.0366,18.4817,La nota crazzy,1346654778,2020-02-26 22:49:49,santo domingo D.N,city,"Santo Domingo Oeste, Dominican Republic",Dominican Republic
161,67.0421945,24.9050755,Maliha Khan,1346655139,2020-02-24 10:08:51,Pakistan,city,"Karachi, Pakistan",Pakistan
119,-99.050461,19.3427885,Peepelu,134665861,2020-03-09 04:36:12,tampico,city,"Iztapalapa, Distrito Federal",Mxico
120,102.53178,2.27032,   ,1346659231,2020-04-05 07:29:17,"Pengerang, Johor",city,"Tangkak, Johor",Malaysia
175,42.533355,18.303816,l Like ,1346662232,2020-04-21 06:32:47,Somewhere over the rainbow ,city,",   ",  
205,-0.08949647,51.51250971,Acorn Exhibitions,1346663546,2020-02-16 07:35:03,London SE2 ,city,"City of London, London",United Kingdom
24,-123.1308365,49.1742415,Tim Wilkinson,134666368,2020-03-19 22:49:33,,city,"Richmond, British Columbia",Canada
82,77.08744999999998,28.993340000000003,Ashish2101,1346664577,2020-04-05 07:35:54,new delhi,city,"Bahalgarh, India",India
42660,-122.3306025,47.614816999999995,Ethan O'Neill,1346664673,2020-02-29 06:14:40,,city,"Seattle, WA",United States
24,-63.1963395,46.240261,Kevin Jewell,1346665411,2020-04-05 22:01:47,Meadow Bank P E I,city,"Cornwall, Prince Edward Island",Canada
211,-67.608333,10.265334,Mairyn,134666560,2020-03-27 00:43:47,La  Venezuela del Progreso,city,"Maracay, Venezuela",Venezuela
200,29.0052225,41.0213205,serkan polat,1346665718,2020-02-19 03:20:20,,city,"stanbul, Trkiye",Trkiye
47900,-76.98993,38.887,Mz.Kim,134666594,2020-02-28 20:51:32,,city,"Washington, DC",United States
19100,-96.835249,33.1501395,Julie Anderson,1346666418,2020-02-24 18:06:34,,city,"Frisco, TX",United States
35620,-73.9487755,40.655138,ChezCeleste,1346667156,2020-02-15 12:31:25,"New York, USA",city,"Brooklyn, NY",United States
49,-80.26207600000002,-1.1945265,Luis Mieles,134666754,2020-04-06 13:37:26,"Ecuador, Manab; Santa Ana",city,"Santa Ana, Ecuador",Ecuador
31540,-89.230524,43.1967835,Conner Hirt,134666832,2020-05-20 05:50:15,,city,"Sun Prairie, WI",United States
119,-92.3094495,14.920495,JoseBeto,134666840,2020-02-14 06:42:05,"Tapachula, Chiapas, Mxico.",city,"Tapachula, Chiapas",Mxico
222,112.75703,-7.2676929999999995, aniin_mayaa ,134666934,2020-04-08 06:11:42,Indonesia,poi,Gedung Diagnostic Center RSUD Dr. Soetomo,Indonesia
88,130.29894299999998,33.249303999999995,,134666941,2020-03-22 07:00:30, ,poi,,
21,-46.5955455,-23.682803,Just me,1346670511,2020-02-14 10:05:52,"So Paulo, Brasil",city,"So Paulo, Brasil",Brasil
8,-58.442643,-34.604315,Premios Hugo,134667112,2020-06-11 02:03:24,Argentina,city,"Ciudad Autnoma de Buenos Aires, Argentina",Argentina
208,-56.016204,-34.837176,Maria Noel Coates,1346673841,2020-04-22 22:07:55,,poi,Aeropuerto Internacional de Carrasco (MVD),Uruguay
88,140.1165855,37.860811,(),1346674442,2020-02-24 07:14:39,,city, ,
171,121.033212,14.5464995,king.,1346675335,2020-02-14 07:36:11,,city,"Makati City, National Capital Region",Republic of the Philippines
138,35.209268,31.89827,Ayman ,1346675545,2020-04-26 07:38:54,Hebron,poi,Ramallah |  ,
82,72.860518,19.172654,AU,1346675754,2020-02-14 19:38:35,"Mumbai,India",poi,The Westin Mumbai Garden City,India
222,116.09125300000001,-8.581419,,134667597,2020-02-21 02:15:59,Oort Cloud,poi,PDAM Giri Menang Mataram,Indonesia
222,106.9427665,-6.8424059999999995,Naufal Athala,1346676392,2020-04-14 04:36:30,"Sukabumi, INDONESIA",city,"Sukabumi, Indonesia",Indonesia
222,115.1172425,-8.575852000000001,bgsantoro,1346677112,2020-02-15 13:16:52,"Tabanan, Bali",city,"Kediri, Indonesia",Indonesia
88,129.98043,33.434917,@,134667721,2020-05-09 11:40:12,,poi, ,
193,100.494,13.7522,Angelina Sindy,134667753,2020-02-17 09:38:20,Manado,city,"Phra Borom Maha Ratchawang, Thailand",Thailand
71,12.162277,48.2762475,Andreas Wilhelm,13466782,2020-03-24 06:23:26,"48.27103,12.158028",city,"Dorfen, Deutschland",Deutschland
119,-99.5,17.55,Blank Isabel Taboada,134667897,2020-05-31 17:41:52,"Chilpancingo de los Bravo, Gue",city,"Chilpancingo de los Bravo, Guerrero",Mxico
160,-76.93988,-12.2192665,JUSSEHP,134667913,2020-05-06 12:23:10,LIMA - PERU,city,"Villa el Salvador, Peru",Peru
119,-99.19454,19.38945, ,134668014,2020-04-04 23:34:06,Mxico D.F,city,"lvaro Obregn, Distrito Federal",Mxico
88,140.785658,37.0878855,ryo ,134668032,2020-02-22 14:34:15, ,city, ,
171,122.60287,10.7896145,Gino Gallos,134668088,2020-03-11 10:59:37,Iloilo,city,"Leganes, Western Visayas",Republic of the Philippines
200,26.55735411,41.67721646,murat kl,1346681076,2020-04-01 12:01:19,"Sultangazi, stanbul",city,"Edirne, Trkiye",Trkiye
225,55.179202000000004,25.101582,owenmab,1346683118,2020-05-18 22:13:48,"Harare, Zimbabwe",poi,Warsan Hills Tower,United Arab Emirates
91,35.009013,1.0154,John Makongo,1346684586,2020-02-15 06:23:40,Kenya,city,"Kitale, Kenya",Kenya
200,39.7140255,40.9691995,O_z_R,1346690466,2020-02-14 16:05:54,Trkiye,city,"Trabzon, Trkiye",Trkiye
11460,-84.02015688,42.32134434,Stephanie Wolff,1346691570,2020-02-24 20:30:22,"Chelsea, MI",city,"Chelsea, MI",United States
15620,-84.7477,44.302,Stephanie Wolff,1346691570,2020-02-29 23:31:18,"Chelsea, MI",city,"Houghton Lake, MI",United States
88,135.4966,34.636883000000005,,134669201,2020-05-15 13:03:46,,poi, (Tengachaya Sta.),
119,-103.335882,20.676652,Guillermo Lennevald,134669203,2020-02-20 12:47:51,"Guadalajara, Jalisco ",city,"Guadalajara, Jalisco",Mxico
33,-72.84146802,-41.48312438,Pablo Oyarzo V.,134669323,2020-04-04 13:26:11,"Puerto Montt, Chile",city,"Puerto Montt, Chile",Chile
91,37.01632943,-1.09516863,Jkuat Rugby,1346696412,2020-02-28 05:14:54," Juja,kenya",city,"Kalimoni, Kenya",Kenya
205,-0.5473899999999999,53.220721,sarah,1346696743,2020-02-24 15:01:42,,city,"Lincoln, England",United Kingdom
119,-103.4847745,20.790657000000003,Guillermo Villarreal,134669895,2020-02-14 01:40:10,Mxico,city,"Zapopan, Jalisco",Mxico
10140,-123.88600000000001,46.9803,dharmaFarm,134669900,2020-03-03 07:00:45,WA,city,"Hoquiam, WA",United States
85,11.010902999999999,44.476937,,1346699047,2020-02-18 19:24:18,,poi,Pizzeria Il Castello,Italia
171,120.97565549999999,14.712613000000001,Camille Gaerlan Dalida,1346699486,2020-05-23 14:30:55,Valenzuela City,city,"Valenzuela City, National Capital Region",Republic of the Philippines
175,46.685077,24.7219435,,1346701279,2020-03-30 16:39:53,Riyadh,city,",   ",  
205,-0.191723,50.839575,angi drew,1346702000,2020-03-12 11:49:48,Hove,city,"Hove, England",United Kingdom
28140,-94.58427076,39.10825656,Karleighana,134670204,2020-02-18 01:12:19,,city,"Kansas City, MO",United States
12420,-97.74385929,30.27166964,Karleighana,134670204,2020-02-28 02:01:36,,city,"Austin, TX",United States
171,121.1242275,14.606717499999998,,1346702977,2020-03-19 15:44:23,,city,"Cainta, Calabarzon",Republic of the Philippines
200,29.0052225,41.0213205,Belgin Kleliolu,1346703998,2020-03-23 06:15:26,,city,"stanbul, Trkiye",Trkiye
27140,-90.12173100000001,32.47122,Patti Mitchell,134670424,2020-04-30 18:30:09,,poi,Madison Subdivision,United States
21,-43.36747751,-22.88298025,Walace Santos,134670479,2020-04-30 22:51:44,Belford Roxo- RJ - Brasil,city,"Rio de Janeiro, Brasil",Brasil
171,121.0627355,14.683012,Mary ,1346705630,2020-02-23 01:00:24,,city,"Quezon City, National Capital Region",Republic of the Philippines
26,79.888052,6.813505,Chathuranga Hapuarachchi,1346705736,2020-05-26 17:00:33,Colombo ,poi,Stein Studios,Sri Lanka
41980,-66.28473699999999,18.4317395,Chrriez,1346706054,2020-03-30 16:33:49,"Dorado, Puerto Rico ",city,"Dorado, Puerto Rico",Estados Unidos
21,-48.379315999999996,-27.465553999999997,Fabricio Caldas,1346706072,2020-02-14 01:44:10,"Florianpolis, Brasil",poi,Hotel Internacional - Resort Costo do Santinho,Brazil
211,-68.0186,10.26,Viskiut,134670702,2020-04-17 15:15:55,"Naguanagua, Venezuela",city,"Naguanagua, Venezuela",Venezuela
35620,-73.92334100000001,40.709508,doug,1346708342,2020-02-16 23:31:45,he/she/them,poi,Elsewhere,United States
33100,-80.14265400000001,26.072631,doug,1346708342,2020-03-17 20:26:36,he/she/them,poi,Fort Lauderdale-Hollywood International Airport (FLL),United States
82,74.5717205,30.8326305,Lovepreet,134670877,2020-04-14 13:20:29,"Jalandhar, India",city,"Firozpur, India",India
205,-0.320442,51.75244,Richard Goss,1346708784,2020-02-15 17:01:46,St Albans,city,"Saint Albans, East",United Kingdom
82,75.6319395,31.410515999999998,ParamjeetKaurDhillon,1346712037,2020-02-14 15:09:55,India,city,"Jalandhar, India",India
88,136.9384503,35.1232606,,134671215,2020-02-15 02:08:22,,city,  ,
88,139.3171485,36.058710999999995,,1346713322,2020-03-17 15:21:35,,city, ,
200,29.9287445,40.7634714,onurhan sancak,1346713843,2020-03-30 11:51:31,,city,"Kocaeli, Trkiye",Trkiye
191,6.0940199999999995,46.208498,Sira Quiroga,1346714966,2020-06-06 07:09:26,Ginebra..Suiza,city,"Vernier, Suisse",Suiza
222,116.8354115,-1.2568735000000002,IQbal,1346715590,2020-02-18 04:51:51,Batu,city,"Balikpapan Tengah, Indonesia",Indonesia
88,134.5486689,34.06593970000001,,134671637,2020-03-12 11:58:59,,city, ,
9,153.3693615,-27.954221500000003,Debi,1346718546,2020-02-20 13:13:43,Australia,city,"Gold Coast, Queensland",Australia
119,-89.62361100000003,20.941035,El Pipiripau,134671929,2020-02-14 00:23:25,Repblica De Yucatn (Mxico),city,"Mrida, Yucatn",Mxico
26900,-86.13244850000002,39.963249499999996,Blake,1346719668,2020-02-21 12:50:03,,city,"Carmel, IN",United States
119,-99.208364,19.199485,hijo del choco,134671976,2020-02-17 04:59:34,Friend Zone,city,"Tlalpan, Distrito Federal",Mxico
44180,-93.26333100000001,37.166767,Meghan Staley,134672042,2020-02-26 00:40:12,,poi,Nakato Japanese Steakhouse & Sushi Bar,United States
88,139.98734,36.894238,,134672109,2020-02-15 13:59:06,,poi,Cafe&Bar 47,
38060,-111.8808735,33.2824505,Ghost,1346721426,2020-02-17 16:48:34,Arizona,city,"Chandler, AZ",United States
88,139.810157,35.6450615,,134672200,2020-03-31 10:40:05,,city, ,
88,136.897582,35.183523,@Lesser panda,134672213,2020-03-31 10:55:08,,poi,  (Main Gate),
33100,-80.14917249999999,26.150368,Angel R Arenas,134672291,2020-03-09 17:56:35,"Fort Lauderdale, FL",city,"Fort Lauderdale, FL",Estados Unidos
38,-74.13435817,4.69337378,XxFreeStylexX,134672340,2020-02-24 14:20:12,Venezuela (Caracas),city,"Bogot, D.C., Colombia",Colombia
184,103.833632,1.342698,Sridath,134672359,2020-02-29 11:05:59,Kadapa,poi,MacRitchie Reservoir,Singapore
71,13.44881448,52.50535292,Tobias,13467242,2020-02-21 07:55:39,Berlin,city,"Berlin, Germany",Germany
119,-99.310428,19.473794,Axel Perusqua.,134672462,2020-02-14 01:14:19,,city,"Naucalpan de Jurez, Mxico",Mxico
119,-99.15536999999999,19.356143,ITZEL P,134672479,2020-03-01 21:14:28,,poi,Las Quekas Factory De Coyoacan,Mxico
151,8.527467000000001,12.005,Nelson Apochi Owoicho,1346725080,2020-02-28 07:30:13,Nigeria,city,"Kano, Nigeria",Nigeria
88,140.40004150000001,37.800488,mado@,134672615,2020-03-13 10:34:03,,city, ,
88,127.6876045,26.2112665,,134672709,2020-02-26 05:12:43,HKT48100MVP,city, ,
21,-47.796623,-15.776254000000002,que que foi menina,134672836,2020-02-14 11:55:55,"Distrito Federal, Brasil",city,"Braslia, Brasil",Brasil
82,74.99298237,13.21596376,vinu vijayan,134672883,2020-02-24 15:44:49,"Cochin, India",city,"Karkal, India",India
40900,-121.469664,38.561721999999996,Brenna Badeker,134672900,2020-02-21 18:56:53,"Sacramento, CA",city,"Sacramento, CA",United States
33100,-80.285189,26.0781705,Brenna Badeker,134672900,2020-04-01 14:52:43,"Sacramento, CA",city,"Davie, FL",United States
40900,-121.469664,38.561721999999996,Brenna Badeker,134672900,2020-06-11 08:02:50,"Sacramento, CA",city,"Sacramento, CA",United States
88,140.40004150000001,37.800488,,1346730318,2020-02-16 00:13:04,,city, ,
119,-100.2935915,25.6417185,Gaby Loz,134673073,2020-02-18 17:24:20,"Monterrey, Nuevo Leon, Mx",city,"Monterrey, Nuevo Len",Mxico
10420,-81.56896244,41.08263032,Butchie Da Barber,134673095,2020-05-26 19:52:46,"Akron, OH",city,"Akron, OH",United States
33,-70.60265749999998,-33.454414,Dane Bersh,134673144,2020-04-07 19:39:39,"uoa Stgo, y aveces en Tongoy",city,"uoa, Chile",Chile
45300,-82.6794,27.7706,mary mccarthy,1346733253,2020-03-08 14:35:52,"St Petersburg, Florida  USA",city,"St Petersburg, FL",United States
38900,-122.678249,45.518237,mary mccarthy,1346733253,2020-03-15 01:45:11,"St Petersburg, Florida  USA",city,"Portland, OR",United States
45300,-82.62963301,27.72056381,mary mccarthy,1346733253,2020-03-16 12:58:00,"St Petersburg, Florida  USA",city,"St Petersburg, FL",United States
26420,-95.33967733,29.98650922,mary mccarthy,1346733253,2020-03-31 04:20:54,"St Petersburg, Florida  USA",city,"Houston, TX",United States
45300,-82.62973609999999,27.720701899999998,mary mccarthy,1346733253,2020-04-03 23:41:09,"St Petersburg, Florida  USA",city,"St Petersburg, FL",United States
38900,-122.67924950000001,45.51852261,mary mccarthy,1346733253,2020-05-10 12:48:01,"St Petersburg, Florida  USA",city,"Portland, OR",United States
45300,-82.62973609999999,27.720701899999998,mary mccarthy,1346733253,2020-05-20 22:28:58,"St Petersburg, Florida  USA",city,"St Petersburg, FL",United States
33,-71.3900345,-30.220386,Ni s Ni no,134673425,2020-02-17 21:54:16,Santiago,city,"Coquimbo, Chile",Chile
88,139.810157,35.6450615,Akiko Hasegawa ,134673465,2020-04-21 00:10:30,Tokyo JAPAN,city, ,
88,139.349842,36.307464,ECO,134673555,2020-03-18 11:11:09,,city, ,
222,109.059107,-7.015194999999999,Nahjul Arief,1346735864,2020-03-18 06:20:36,"Pagerbarang, Central Java",city,"Pagerbarang, Indonesia",Indonesia
200,35.28488,37.002826500000005,Gizem Uyarlar,1346736259,2020-05-16 11:12:40,,city,"Adana, Trkiye",Trkiye
21,-55.842543000000006,-15.455176500000002,maria theresa,134673660,2020-04-16 23:45:23,Cuiaba,city,"Cuiab, Brasil",Brasil
34980,-86.7837,36.1651,DeGeorge Ussery,134673804,2020-02-22 20:07:40,in the Ville ,city,"Nashville, TN",United States
120,100.29101,5.295139000000002,joule bonus,1346740165,2020-05-23 21:56:36,lives in Southeast Asia,city,"Mukim 12 (Bayan Lepas), Pulau Pinang",Malaysia
200,32.841937,40.000465999999996,Keiren Yunus Emre,1346740800,2020-02-27 18:53:10,Keciren yunus,city,"Keiren, Trkiye",Trkiye
40140,-117.39761599999999,33.935821999999995,Jocelyn,134674314,2020-02-20 20:35:02,,city,"Riverside, CA",United States
31080,-117.767354,34.1257705,Jocelyn,134674314,2020-02-25 04:42:42,,city,"La Verne, CA",United States
40140,-117.603783,34.0451585,Jocelyn,134674314,2020-02-26 09:02:34,,city,"Ontario, CA",United States
88,139.810157,35.6450615, ,1346743376,2020-03-30 01:02:16,Instagram,city, ,
119,-96.886083,19.542054,LuisSarmiento,134674469,2020-04-04 19:10:55,Mexico,city,"Xalapa, Veracruz de Ignacio de la Llave",Mxico
47700,-85.80724573,41.23560138,Agaitas,1346745042,2020-02-23 21:39:14,"Warsaw, In",city,"Warsaw, IN",United States
119,-99.087817,19.4320755,IGNACIO JARAMILLO,134674549,2020-02-28 06:22:01,"Mxico, D.F.",city,"Venustiano Carranza, Distrito Federal",Mxico
175,46.685077,24.7219435,,1346747797,2020-02-14 12:52:55,,city,",   ",  
45300,-82.44269399999997,27.9965945,The First Run,134674952,2020-02-14 16:21:34,"Tampa, FL",city,"Tampa, FL",United States
211,-66.91454887,10.5055347,Thalma Hidalgo,134675055,2020-02-24 00:46:26,maturin,city,"Caracas, Venezuela",Venezuela
85,11.09774742,45.37065057,Thalma Hidalgo,134675055,2020-04-12 16:11:45,maturin,city,"Zevio, Veneto",Italia
211,-69.30913515,10.06842373,Thalma Hidalgo,134675055,2020-04-18 21:40:56,maturin,city,"Barquisimeto, Venezuela",Venezuela
171,121.033212,14.5464995,Juan #OustDuterte,134675143,2020-03-22 04:18:20,"Makati, Metro Manila, Philippines",city,"Makati City, National Capital Region",Republic of the Philippines
119,-98.1542665,19.0322295,Monyka,134675174,2020-02-14 00:26:53,Puebla,city,"Puebla, Mxico",Mxico
159,-57.60601750000001,-25.300264000000002,Chenson Martinez,1346754211,2020-02-20 21:25:37,Fernando de la Mora Paraguay,city,"Asuncion, Paraguay",Paraguay
222,106.793852,-6.249074,Ryan Nurangga,1346755446,2020-03-15 13:28:32,Indonesia,poi,GREENWOOD COFFEE,Indonesia
151,7.424094,9.073663999999999,Heriju Gadzama,134675607,2020-02-14 06:55:32,JOS - IND - JFK - JOS,city,"Abuja, Nigeria",Nigeria
205,-1.6453615000000001,54.992055500000006,elmfield gardens,1346756347,2020-02-20 08:31:47,Newcastle upon Tyne,city,"Newcastle Upon Tyne, England",United Kingdom
33,-70.149839,-20.222622,Kari DeL 8,134675652,2020-03-09 12:47:03,"Iquique , Chile",poi,Colegio Ingles,Chile
222,108.5491315,-6.766686,,1346758032,2020-04-17 03:24:03,,city,"Harjamukti, Indonesia",Indonesia
9,150.931975,-33.848244,Vhen,134675811,2020-04-19 08:36:33,"Sydney, New South Wales",city,"Sydney, New South Wales",Australia
8,-58.442643,-34.604315,Silvia Caggiano,134675817,2020-02-14 00:45:56,Argentina,city,"Ciudad Autnoma de Buenos Aires, Argentina",Argentina
88,132.6582815,34.1840315,TUBE MASTER,134675877,2020-02-15 13:46:48,,city, ,
193,100.44473599999999,13.737016,WISHMELUCK,1346761626,2020-02-16 12:49:27,"bkk,Thailand",city,"Bang Waek, Thailand",Thailand
65,-1.30538,43.38393,Fred#13,1346763986,2020-04-08 08:03:22,"Savenay, Pays de la Loire",city,"Hasparren, France",France
51,-6.81627945,53.46531009,Fred#13,1346763986,2020-04-23 10:50:12,"Savenay, Pays de la Loire",city,"Meath, Ireland",Irlande
88,140.01733292,35.69412325, Sweet KavaKava,134676400,2020-02-25 09:06:50,2-1-1,city, ,
28020,-86.2731,42.3991,Jessica Jean,1346764554,2020-02-20 07:52:30,"Kalamazoo, MI",city,"South Haven, MI",United States
24340,-85.6557,42.9613,Jessica Jean,1346764554,2020-05-31 03:53:36,"Kalamazoo, MI",city,"Grand Rapids, MI",United States
189,17.980058999999994,59.333671,M A R I O,134676473,2020-06-09 20:39:42,"5919'24""N 1804'18""E m",city,"Estocolmo, Suecia",Suecia
222,100.08464837,-0.38153451,,1346765396,2020-03-22 13:11:41,"Lubuk Linggau Barat, Indonesia",city,"Koto Aur Malintang, Indonesia",Indonesia
21,-43.34639043,-22.83051757,Tamires Carvalho,134676648,2020-02-28 12:37:41,"Coelho Neto, Rio de Janeiro",city,"Rio de Janeiro, Brasil",Brasil
16740,-80.8467855,35.209059,GREAT NECK BLVD,1346768676,2020-05-09 00:46:47,"Charlotte, NC",city,"Charlotte, NC",United States
38,-72.40127563,5.34967581,Jota Solano,134676919,2020-02-18 10:53:59,#KajitaDeArena,city,"Yopal, Colombia",Colombia
21,-43.851412,-19.727778,malu,1346769980,2020-02-14 00:51:40,,city,"Santa Luzia, Brasil",Brasil
77,-72.726811,18.957613000000002,Rach ,134677193,2020-05-16 17:30:21,"T: 18.5266942,-72.3026483",poi,Royal Decameron,Haiti
33100,-80.13296249999998,25.8169655,Roberto Escaln,134677274,2020-04-15 21:56:56,"San Salvador, El Salvador",city,"Miami Beach, FL",Estados Unidos
55,-89.2124635,13.681588,Roberto Escaln,134677274,2020-04-17 18:56:26,"San Salvador, El Salvador",city,"Aguilares, El Salvador",El Salvador
33100,-80.14917249999999,26.150368,Howard Myones,134677397,2020-02-14 19:49:10,I am Broward Blvd. ,city,"Fort Lauderdale, FL",United States
21,-43.018208,-22.821465,E R,134677444,2020-02-15 02:24:18,"Rio de Janeiro, Brasil",city,"So Gonalo, Brasil",Brasil
35620,-72.29078150000002,40.989538,DrFedorenko,1346778746,2020-03-09 11:23:33,NYC/Hamptons,city,"Sag Harbor, NY",United States
88,135.47730256,34.67475988,,134677973,2020-03-18 12:23:44,,city,  ,
31080,-117.85108899999999,33.842863,charlotte tait,1346780683,2020-02-16 18:33:04,"phoenix, arizona",city,"Anaheim, CA",United States
38060,-112.1246765,33.5528625,charlotte tait,1346780683,2020-04-16 18:45:08,"phoenix, arizona",city,"Phoenix, AZ",United States
31080,-118.37731299999999,33.854669,JeffGinsburg,1346781072,2020-02-15 17:51:59,"Redondo Brach, CA",city,"Redondo Beach, CA",United States
151,4.6474205,7.978738000000001,Segun ajiboso,1346782267,2020-03-25 15:21:00,,city,"Inisa, Nigeria",Nigeria
200,28.99192412,41.04903988,asli sinman kutluay,134678269,2020-05-22 15:25:03,Ankara,city,"stanbul, Trkiye",Turkey
205,-3.5148765,50.72094,Natalie Deane Roberts,1346783052,2020-03-07 08:17:41,"Exeter, England",city,"Exeter, England",United Kingdom
119,-99.1614805,19.380613,Angie ,134678540,2020-04-18 15:27:27,,city,"Benito Jurez, Distrito Federal",Mxico
82,78.46509449999998,17.3886495,Syed Mohiuddin,1346785530,2020-02-27 12:31:44,Global,city,"Hyderabad, India",India
21660,-123.1224015,44.065621,Greg,134678589,2020-02-18 03:30:26,,city,"Eugene, OR",United States
35620,-74.0064,40.7142,Gioconda Official,134678637,2020-03-23 07:40:07,"New York, NY",city,"Manhattan, NY",United States
222,106.770877,-6.562181000000002,Paulus Cahyandaru,134678664,2020-02-15 01:15:58,Bogor,city,"Bogor Barat, Indonesia",Indonesia
71,13.4246065,52.506701,Michael Moran ,1346787032,2020-02-22 08:14:03,Berlin | London | Belfast,city,"Berlin, Germany",Germany
205,-5.928413,54.59586899999999,Michael Moran ,1346787032,2020-05-05 22:14:45,Berlin | Belfast,city,"Belfast, Northern Ireland",United Kingdom
88,139.77734943,35.67506034,,134678743,2020-03-18 01:08:20,,city, ,
21,-45.4521315,-3.856177,,134678775,2020-02-15 13:21:52,"Santa Ins, Maranho",city,"Santa Ins, Brasil",Brasil
82,78.3852855,17.3950375,Sweta V,134678824,2020-03-25 08:16:15,"Hyderabad, India",city,"Rajendra Nagar, India",India
41860,-121.99707045,37.92424799,Grant Freeman,134678904,2020-05-17 03:44:45,California,city,"Walnut Creek, CA",United States
46020,-120.16599721,39.34953355,Grant Freeman,134678904,2020-05-30 21:11:03,California,city,"Truckee, CA",United States
200,35.28488,37.002826500000005,Mert Gngr,1346789928,2020-02-15 10:01:19,Adana ,city,"Adana, Trkiye",Trkiye
205,-2.230289,53.788990000000005,Boost Business Lancs,1346792022,2020-02-14 12:54:06,Lancashire,poi,Turf Moor,United Kingdom
21,-50.11849123,-25.09710189,Pablo Biglia,13467922,2020-02-19 00:35:37,"Ponta Grossa, PR, Brasil",city,"Ponta Grossa, Brasil",Brasil
175,41.687540000000006,27.508333500000003,.,1346793373,2020-02-16 17:36:28,"Hail, Kingdom of Saudi Arabia",city,",   ",  
9,149.18277899999995,-21.10414,Graeme R Dean,1346793462,2020-03-06 21:54:01,,city,"Mackay, Queensland",Australia
164,-9.22266841,38.41415631,Tiago,1346794520,2020-02-16 21:13:11,,city,"Sesimbra, Portugal",Portugal
152,4.76154317,52.30931443,Tiago,1346794520,2020-03-02 22:14:16,,city,"Haarlemmermeer, Nederland",Holanda (Pases Baixos)
71,7.35794075,53.09899007,Tiago,1346794520,2020-03-08 19:35:37,,city,"Papenburg, Deutschland",Alemanha
152,4.887221,52.365531,Tiago,1346794520,2020-03-10 21:33:03,,city,"Amsterdo, Holanda (Pases Baixos)",Holanda (Pases Baixos)
41980,-66.04126709,18.25978087,Tiago,1346794520,2020-03-14 20:57:14,,city,"Caguas, Puerto Rico",Estados Unidos
128,4.35,50.85,Tiago,1346794520,2020-03-30 20:13:27,,city,"Bruxelas, Blgica",Blgica
164,-9.09588079,38.44228266,Tiago the first,1346794520,2020-04-15 19:55:32,,city,"Sesimbra, Portugal",Portugal
160,-77.0870137,-12.0141337,Christian Pino,134679470,2020-03-24 14:22:22,"Lima, Per",city,"Callao, Peru",Peru
211,-68.74704449999999,10.3392095,Miguelangel Delgado L ..,134679580,2020-03-26 20:56:41,Venezuela,city,"San Felipe, Venezuela",Venezuela
24,-73.723025,45.5578305,gustavo,1346796152,2020-04-11 01:18:00,"Montreal, QC",city,"Montral, Qubec",Canada
82,78.2637475,18.042857,srinivasbollas,1346798498,2020-04-24 12:55:00,Medak,city,"Medak, India",India
47900,-77.0367,38.8951,Sergio Luna,134679887,2020-02-27 17:27:23,"Washington, D.C",city,"Washington, DC",United States
41700,-97.973779,29.574386999999998,Pete Silvius,1346801118,2020-02-18 14:57:37,"Seguin, TX",city,"Seguin, TX",United States
151,4.543899,7.7870355,Folagbemi Olujuyigbe,134680152,2020-02-22 13:09:07,enroute...,city,"Oshogbo, Nigeria",Nigeria
71,13.4246065,52.506701,Michele Della Mea,1346802865,2020-02-15 00:27:21,Berlin,city,"Berlin, Deutschland",Deutschland
82,76.64565999999999,12.2844425,Yashwanth Kumar M.G,134680342,2020-02-27 02:25:04,"Mysore, India",city,"Mysore, India",India
24100,-74.3348115,43.0458055,George Hermance,134680354,2020-03-08 14:29:17,"Gloversville, NY",city,"Gloversville, NY",United States
119,-99.269192,19.5645875,Manfred Ledesma,134680427,2020-04-03 05:30:05,Edo. Mxico,city,"Atizapn de Zaragoza, Mxico",Mxico
175,39.809784,21.440206,,1346804809,2020-02-16 09:06:01,UQU,poi,Umm Al-Qura  ,  
35620,-73.9487755,40.655138,Geovanni,134680641,2020-02-16 04:12:22,new york,city,"Brooklyn, NY",Estados Unidos
42100,-121.852595,36.998805,Ellen Kureshi,134680657,2020-04-01 16:01:02,,city,"Day Valley, CA",United States
119,-99.22481570000001,19.6544615,Alejandro Molina,134680745,2020-02-17 20:16:17,Cdmx,city,"Cuautitln Izcalli, Mxico",Mxico
171,121.320718,14.056015499999999,vlad,134680774,2020-02-14 12:34:29,"San Pablo City, Laguna",city,"San Pablo City, Calabarzon",Republic of the Philippines
33,-71.51564599999999,-33.0263575,Julio Lillo,134680955,2020-03-12 22:51:30,"Via del Mar, Chile",city,"Via del Mar, Chile",Chile
120,101.57849499999999,3.1565125,Kry,1346810311,2020-02-19 03:26:29,Tu tu ru,city,"Sungai Buloh, Selangor",Malaysia
21,-43.441578,-22.911421500000003,carolzinha,134681165,2020-02-15 19:55:57,,city,"Rio de Janeiro, Brasil",Brasil
119,-98.775808,20.1056375,c  ,134681213,2020-02-15 02:43:40,"Pachuca, Mxico.",city,"Pachuca de Soto, Hidalgo",Mxico
120,101.398355,3.1133740000000003, Syaff ,1346812303,2020-02-17 07:17:29,Civil engineering ,city,"Kapar, Selangor",Malaysia
16300,-91.71431,41.953902,Donovan W.,134681334,2020-02-15 03:41:55,Cedar Rapids,city,"Cedar Rapids, IA",United States
32260,-92.914988,42.0373395,Donovan W.,134681334,2020-05-25 02:09:15,Cedar Rapids,city,"Marshalltown, IA",United States
16300,-91.6828545,41.976528,Donovan W.,134681334,2020-05-28 02:16:31,Cedar Rapids,city,"Cedar Rapids, IA",United States
23420,-119.7824645,36.786042,Andrea,1346813406,2020-04-06 07:46:48,"Fresno, CA",city,"Fresno, CA",United States
173,37.42764250000001,55.7547875,Bairma_Batl,1346813905,2020-04-26 09:52:35,,city,", ",
88,136.057074,35.950306,,1346814426,2020-06-10 06:51:48, ,city, ,
171,121.01080300000001,14.483414000000002,SPL ,1346817529,2020-02-16 12:50:25,South ,city,"Paranaque City, National Capital Region",Republic of the Philippines
160,-80.60516,-5.19083,Gerardo Jesus Ch.,1346817811,2020-04-17 04:01:23,Piura - Peru,city,"Castilla, Peru",Peru
119,-100.936221,20.424679,,134681994,2020-02-14 18:09:14,cortazar guanajuato,city,"Cortazar, Guanajuato",Mxico
88,139.52478468,35.66520252,DAI,134682078,2020-02-15 07:31:54, ,city, ,
119,-98.668364,19.9233535,Chicharocker,134682079,2020-02-14 01:30:13,"Pachuca de Soto, Hidalgo",city,"Zempoala, Hidalgo",Mxico
159,-57.28293000000001,-25.426791,Maria Concepcin Pereira ,1346822244,2020-04-12 01:26:41,Ypacarai-Central-Paraguay,poi,Compaa Paso Puente - Ypacara,Paraguay
88,140.2733225,39.657004,,1346822298,2020-04-04 03:11:27,,city, ,
88,137.699493,34.761817,@Z34nismo,1346822341,2020-03-15 01:25:22,Japan,poi, ,
119,-94.432482,18.135455,Luis Prado Chzaro,134682245,2020-02-15 07:06:23,"Veracruz, Mxico ",city,"Coatzacoalcos, Veracruz de Ignacio de la Llave",Mxico
88,138.1171655,36.035035,.,134682247,2020-02-24 14:08:35,"Suwa-shi, Nagano",city, ,Jepang
178,30.879156,-30.0474875,Angel in disguised,1346823445,2020-03-23 20:34:26,"Adams Mission, South Africa",city,"Amanzimtoti, South Africa",South Africa
85,9.1593365,45.461345,RicreaAcciaio,1346823985,2020-05-28 09:28:25,Milano,city,"Milano, Lombardia",Italia
