currentGEOID,lon,lat,name,author_Id,created_at,location,place_type,place_full_name,place_country
21,-43.441578,-22.911421500000003,comfortably numb,54756380,2020-03-04 18:18:21,Rio de Janeiro - Brasil,city,"Rio de Janeiro, Brasil",Brasil
91,36.738121,-1.231427,Larryberry_savage,547564224,2020-03-06 19:18:49,World,poi,New Kitusuru Heights,Kenya
19740,-104.847044,39.386794,PJ,54756464,2020-03-22 18:19:59,"T: 39.442427,-104.764743",city,"Castle Rock, CO",United States
222,116.86604650000001,-1.2438285,Ferdi setiawan,547565079,2020-04-09 06:48:34,balikpapan,city,"Balikpapan Selatan, Indonesia",Indonesia
21,-47.097531,-21.78888,A Vil da novela das 9,54756547,2020-04-12 02:07:43,"Ribeiro Preto, Brasil",city,"Casa Branca, Brasil",Brasil
14,89.21764,23.1630685,kazi Rabbi,547565602,2020-04-19 05:15:14,Bangladesh,city,"Jessore, Bangladesh",Bangladesh
41700,-98.5406515,29.417501,Mark Houltzhouser,54756600,2020-02-20 02:55:37,"Downtown Jacksonville, FL",city,"San Antonio, TX",United States
12060,-84.4703885,33.6312775,Mark Houltzhouser,54756600,2020-03-02 16:58:03,"Downtown Jacksonville, FL",city,"College Park, GA",United States
96,47.65119614,29.36336457, ,547566547,2020-06-06 12:18:56,,city," ,  ", 
69,-0.1842935,5.6231985,Your Very Own Rayna,547566616,2020-02-26 07:52:00,Tema ,city,"Accra, Ghana",Ghana
91,36.863620000000004,-1.2748635,Hana Kazi.,547566751,2020-02-29 13:38:57,"Nairobi,Kenya",city,"Nairobi, Kenya",Kenya
27740,-82.3882145,36.3447405,Natalia Seitzer,547566769,2020-02-19 22:09:43,"Johnson City, TN",city,"Johnson City, TN",United States
28700,-82.16283,36.56024,Natalia Seitzer,547566769,2020-03-23 05:00:09,"Johnson City, TN",poi,421,United States
27740,-82.3882145,36.3447405,Natalia Seitzer,547566769,2020-03-25 13:31:16,"Johnson City, TN",city,"Johnson City, TN",United States
28700,-82.501876,36.4708725,Natalia Seitzer,547566769,2020-03-25 16:48:41,"Johnson City, TN",city,"Colonial Heights, TN",United States
27740,-82.3882145,36.3447405,Natalia Seitzer,547566769,2020-03-26 03:45:34,"Johnson City, TN",city,"Johnson City, TN",United States
28700,-82.5225815,36.512493,Natalia Seitzer,547566769,2020-04-15 16:28:55,"Johnson City, TN",city,"Kingsport, TN",United States
27740,-82.3882145,36.3447405,Natalia Seitzer,547566769,2020-04-16 21:19:49,"Johnson City, TN",city,"Johnson City, TN",United States
28940,-83.9638415,35.982470500000005,Natalia Seitzer,547566769,2020-05-10 02:47:23,"Johnson City, TN",city,"Knoxville, TN",United States
42940,-83.76864549999998,35.8771845,Natalia Seitzer,547566769,2020-05-12 02:11:44,"Johnson City, TN",city,"Seymour, TN",United States
27740,-82.3882145,36.3447405,Natalia Seitzer,547566769,2020-05-13 21:22:42,"Johnson City, TN",city,"Johnson City, TN",United States
205,-2.6761775,55.639264000000004,Lisa ,547566843,2020-02-16 22:36:08,"Scotland, United Kingdom",city,"Earlston, Scotland",United Kingdom
9,150.8589055,-34.439971500000006,Kitto,54756695,2020-05-16 22:37:05,Oceania,city,"Wollongong, New South Wales",Australia
38,-75.57375,6.244316,Felipe Amezquita,54756722,2020-02-20 15:26:40,"Medellin, Co",poi,Medelln,Colombia
41540,-75.340469,38.223411,Irene,54756731,2020-03-07 13:36:12,"Baltimore, MD",poi,Worcester Tech,United States
12580,-76.62048200000002,39.284713,Irene,54756731,2020-03-07 22:36:46,"Baltimore, MD",city,"Baltimore, MD",United States
222,110.554474,-8.081853,Valentino Buriko,547567386,2020-02-25 16:01:08,"Yogyakarta, Indonesia",poi,Goa Maria Tritis,Indonesia
151,3.39583,6.45306,IJELINKS TRAVELS AND TOUR ,547567413,2020-02-14 11:41:13,"Owerri, Imo state",city,"Lagos, Nigeria",Nigeria
21,-47.796623,-15.776254000000002,TIAGO,547567446,2020-05-07 02:00:51,BRASILIA-DF,city,"Braslia, Brasil",Brasil
60,25.08736,60.33286,AriMartti Hopiavuori,547567692,2020-04-16 10:35:34,"Vantaa, Suomi",city,"Vantaa, Suomi",Finland
171,120.9839865,14.5914565,CHERRY FOREVER,547567830,2020-05-14 13:57:46,"manila,Philippines",city,"Manila City, National Capital Region",Republic of the Philippines
171,121.0627355,14.683012,` ,54756812,2020-02-16 08:31:54,Wanderlust,city,"Quezon City, National Capital Region",Republic of the Philippines
95,126.92733256,37.53184581,,54756821,2020-04-12 10:45:15,"Jakarta, Indonesia",city,"Mapo-gu, Republic of Korea",Republic of Korea
222,106.79190449999999,-6.1618445,,54756821,2020-05-30 15:32:12,"Jakarta, Indonesia",city,"Grogol Petamburan, Indonesia",Indonesia
205,-2.0521724999999997,52.3637145,Henry Hunter,547568236,2020-02-17 16:25:04,,city,"Catshill, England",United Kingdom
222,119.49616100000001,-5.1055785,Nanda Nahdhiyah,547568316,2020-03-21 14:02:38,"Makassar, Indonesia",city,"Biringkanaya, Indonesia",Indonesia
119,-99.15505999999999,19.37632,zaire castellanos,54756961,2020-03-02 04:56:55,mexico,city,"Benito Jurez, Distrito Federal",Mxico
205,-1.0853245,53.96620649999999,Fernanda Peviani ,54756992,2020-04-27 23:23:03,"London, England",city,"York, England",United Kingdom
88,138.473272,36.25695,@0607,547570429,2020-02-14 04:13:40,,poi,,
205,-1.475985,53.392357,Benny Maths,547570910,2020-02-22 13:17:40,Sheffield / Liverpool,poi,Kelham Arcade,United Kingdom
222,110.318475,-7.6599179999999985,Iksan,547571724,2020-02-16 05:33:12,+62,city,"Tempel, Indonesia",Indonesia
13740,-108.562922,45.7974455,Matthew,54757180,2020-04-05 17:56:37,"Billings, MT",city,"Billings, MT",United States
35620,-73.9675,40.7779,Linda Onye Omor,54757185,2020-05-22 12:21:38,"Bronx, NY",city,"Manhattan, NY",United States
211,-67.995457,10.1763255,Yaco,54757212,2020-02-24 20:27:47,Caracas/Valencia,city,"Valencia, Venezuela",Venezuela
51,-6.2357200000000015,53.494598,Laura Twomey,547572312,2020-02-15 16:06:09,"Portmarnock, Dublin",city,"Fingal, Ireland",Ireland
186,-3.6258845,40.545096,GuilleRubio,547572446,2020-04-13 23:36:35,Alcobendas,city,"Alcobendas, Espaa",Espaa
164,-25.488308,37.769413,Q's Nuts,54757298,2020-03-01 19:23:35,"Somerville, Massachusetts",city,"Ribeira Grande, Portugal",Portugal
14460,-71.31311403,42.64108734,Q's Nuts,54757298,2020-03-22 15:41:30,"Somerville, Massachusetts",city,"Lowell, MA",United States
71,6.873875999999999,51.403105,Elyastorah Jareux,547573242,2020-02-16 15:57:42,,poi,Der Hollnder,Deutschland
65,2.347003,48.8588335,MICHAUD Jean-Alexis,547573983,2020-03-17 07:08:44,,city,"Paris, France",France
186,2.168835,41.374573,David del Peso,547574205,2020-02-16 11:02:46,,poi,Teatre Victoria,Espaa
9,150.931975,-33.848244,Jim,547575515,2020-03-30 08:52:21,,city,"Sydney, New South Wales",Australia
205,-0.9065915000000001,51.698378999999996,Natasha.Joanne,547575972,2020-02-23 10:12:00,Saunderton,city,"Chinnor, England",United Kingdom
120,101.5203,3.0662,Ayam ,547576311,2020-05-01 13:51:38,,city,"Petaling Jaya, Selangor",Malaysia
222,106.6778875,-6.2026825,j,547576416,2020-02-14 14:07:52,,city,"Cipondoh, Indonesia",Indonesia
47940,-91.710741,42.820555999999996,David Reuter,54757659,2020-05-13 00:06:26,"Waterloo, IA",poi,Grannis Trout Stream,United States
21,-47.436633,-23.470006,Camilla Valentina,547578038,2020-02-15 02:32:32,So Paulo,city,"Sorocaba, Brasil",Brasil
40140,-117.294096,34.134925,brendiz ,54757804,2020-02-14 05:39:13,"Gilroy, California",city,"San Bernardino, CA",United States
31080,-118.4119065,34.0207895,brendiz ,54757804,2020-02-27 22:13:28,"Gilroy, California",city,"Los Angeles, CA",United States
40140,-117.294096,34.134925,brendiz ,54757804,2020-03-02 03:02:33,"Gilroy, California",city,"San Bernardino, CA",United States
29820,-115.223125,36.232915000000006,brendiz ,54757804,2020-03-14 06:55:01,"Gilroy, California",city,"Las Vegas, NV",United States
40140,-117.294096,34.134925,brendiz ,54757804,2020-03-16 21:18:17,"Gilroy, California",city,"San Bernardino, CA",United States
120,101.60456407,3.07291269,ACAPP,547578756,2020-02-26 09:02:20,alor setar,city,"Damansara, Selangor",Malaysia
69,-0.295506,5.563719,Agyabeng KK,547578867,2020-04-07 14:55:13,,poi,McCarthy Hill,Ghana
242,120.345274,23.1505485,Chi,547579060,2020-03-13 11:31:04,Beautiful Taiwan,city,", ",
34980,-86.40961,35.84742,raymanven,54757907,2020-02-15 01:46:37,merida-venezuela,city,"Murfreesboro, TN",Estados Unidos
189,13.364465,55.659324,Fjrilsvervakningen,547579568,2020-03-22 11:46:52,"Lund, Sweden",city,"Lund, Sverige",Sverige
205,-2.5208115,53.25884,Callum,547579813,2020-04-08 07:58:43,"Northwich, England",city,"Northwich, England",United Kingdom
21,-46.5955455,-23.682803,Reinaldo Haidar,54758002,2020-06-09 22:18:13,,city,"So Paulo, Brasil",Brasil
57,16.379845500000002,48.22012,Thunderbird PF,54758004,2020-03-04 14:05:48,"Chatham-Kent, Ontario",city,"Vienna, Austria",Austria
24,-81.878949,42.567477000000004,Thunderbird PF,54758004,2020-03-26 19:44:02,"Chatham-Kent, Ontario",city,"Moravian 47, Ontario",Canada
25420,-76.730254,40.202265999999995,Josh Toro,54758014,2020-04-05 00:44:25,"Harrisburg, PA",city,"Middletown, PA",United States
21,-48.48047834,-1.4529419,bruno  lopes,54758030,2020-04-09 11:03:33,ao norte na minha casa....,city,"Belm, Brazil",Brazil
189,18.2476435,59.3003715,Jonas Friberg,547580877,2020-04-12 12:13:05,Stockholm,city,"Nacka, Sverige",Sverige
40060,-77.49317049999998,37.529883,Josh Fowlkes,547580914,2020-02-16 07:41:55,"Richmond, VA",city,"Richmond, VA",United States
88,139.405773,35.348688,takeshi,547581102,2020-03-20 11:57:18,,city, ,
21,-38.51989,-3.789768,Set,54758129,2020-02-14 00:25:09,Fortal City,city,"Fortaleza, Brasil",Brasil
186,-0.366667,39.4667,Ricardo B. Carvalho,547581544,2020-02-17 19:02:43,Lisboa,city,"Valncia, Espanha",Espanha
65,4.8422,45.7597,Ricardo B. Carvalho,547581544,2020-05-13 15:44:40,Lisboa,city,"Lyon, France",Frana
37980,-75.953036,39.6097035,Eric Hurt,547581651,2020-02-21 21:11:31,"perryville, md",city,"North East, MD",United States
21,-54.45709599999999,-25.453901,Ilzacb@,547582159,2020-04-27 18:19:06,Brasil,city,"Foz do Iguau, Brasil",Brasil
91,37.077587,0.013421,SHADA RANX ,547582477,2020-04-07 07:10:34,East Africa  ,poi,Nanyuki,Kenya
189,18.20252,59.587531000000006,Bjrn Ericson,547582682,2020-03-19 16:48:38,Sverige,city,"Vallentuna, Sverige",Sverige
69,-0.1842935,5.6231985,No Matter,547582782,2020-03-22 08:10:14,"Accra, Ghana",city,"Accra, Ghana",Ghana
200,27.981934000000006,41.301428,Ramazan Gk ,547583112,2020-04-05 11:12:53,,city,"erkezky, Trkiye",Trkiye
21,-46.544744,-21.820472,Luisa Lasmar Ramalho,54758399,2020-03-07 22:44:29,Poos de Caldas - MG - Brasil,city,"Poos de Caldas, Brasil",Brazil
21,-43.230075,-22.912053,Vittor souza,54758470,2020-05-17 11:58:57,"Tijuca, Rio de Janeiro",poi,Estdio Jornalista Mrio Filho (Maracan),Brasil
15380,-78.92902749999998,42.4847145,Rob Phinsfan,547585349,2020-02-17 19:14:14,"Miami Beach, FL",city,"Collins, NY",United States
88,130.778367,32.802527000000005,,547585437,2020-02-26 09:16:41,,city, ,
186,-3.9654942,43.29891847,MiguelLaforga,547586234,2020-06-08 21:38:22,,city,"Puente Viesgo, Espaa",Espaa
35620,-74.00076130000001,40.7207559,Quarantina Lee,54758631,2020-05-21 14:30:46,"New York, USA",city,"Manhattan, NY",United States
21,-49.2884605,-25.4952495,Antonio Smolarek Jr.,54758636,2020-02-16 03:11:33,Curitiba / Paran,city,"Curitiba, Brasil",Brasil
34980,-86.66954146,36.13127318,Hassan Aljohani ,547586396,2020-03-04 02:56:15,"15 Yemen Road, Yemen",city,"Nashville, TN",United States
42940,-83.57734053,35.80904636,Hassan Aljohani ,547586396,2020-05-27 20:51:01,"15 Yemen Road, Yemen",city,"Pigeon Forge, TN",United States
60,25.0607915,61.9207765,Marko Pitkanen,547586901,2020-02-14 05:55:05,Finland,city,"Jms, Suomi",Finland
186,-4.779514,41.6693305,Aduriz,547587444,2020-02-15 21:56:06,"Valladolid, Espaa",city,"Valladolid, Espaa",Espaa
31140,-85.582746,38.107638,Go Hard Elite 7v7,547587812,2020-02-26 05:21:34,"Kentuckiana, US",city,"Heritage Creek, KY",United States
41180,-90.247824,38.653771,Go Hard Elite 7v7,547587812,2020-02-28 16:51:07,"Kentuckiana, US",city,"St Louis, MO",United States
31140,-85.582746,38.107638,Go Hard Elite 7v7,547587812,2020-03-02 15:58:45,"Kentuckiana, US",city,"Heritage Creek, KY",United States
21060,-85.8709395,37.6989725,Go Hard Elite 7v7,547587812,2020-03-02 20:29:20,"Kentuckiana, US",city,"Elizabethtown, KY",United States
31140,-85.582746,38.107638,Go Hard Elite 7v7,547587812,2020-03-03 01:41:48,"Kentuckiana, US",city,"Heritage Creek, KY",United States
85,17.11666667,40.58333333,Antonio Pisano,547588013,2020-03-16 18:41:00,,city,"Massafra, Puglia",Italia
28940,-83.9638415,35.982470500000005,Lady Dorkery,54758816,2020-04-23 23:08:43,"Knoxville,TN",city,"Knoxville, TN",United States
14460,-71.3042,42.188,NoellaRose,5475882,2020-02-14 23:25:31,CT via Boston,city,"Medfield, MA",United States
49340,-71.8,42.3,NoellaRose,5475882,2020-03-03 13:35:26,CT via Boston,city,"Worcester, MA",United States
171,120.6619125,15.0677605,Penpen Quiambao,547588359,2020-03-24 02:40:34,"Pampanga, Philippines",city,"San Fernando City, Central Luzon",Republic of the Philippines
29340,-93.253559,30.2590895,Jan Clifton,54758861,2020-02-14 21:27:46,"Louisiana, USA",city,"Westlake, LA",United States
44140,-72.54558449999998,42.1130625,Rob Lightbown | Crown Weather Services,547588707,2020-03-01 18:05:44,"Springfield, MA",city,"Springfield, MA",United States
205,0.127886,51.554019,On This Day,547589303,2020-03-15 18:16:25,United Kingdom,city,"Barking, London",United Kingdom
222,110.38682050000001,-7.813616000000001,DewiSriRentalMobil,547589361,2020-03-23 10:59:37,Djogja Istimewa,city,"Umbulharjo, Indonesia",Indonesia
152,4.771989,52.809338000000004,Boerengeitenkaas,547589452,2020-05-02 12:53:13,,poi,Utopiahoeve,Nederland
200,38.78134,37.262879,Mehmet Can Alpay,547589494,2020-06-07 17:16:43,"anlurfa, Rha",poi,anlurfa-Bozova Yolu,Trkiye
175,41.1871,27.388287,A. al_azmi,547589617,2020-05-28 22:42:47,Kingdom of Saudi Arabia,poi,Moqaq General Hosp,  
9,150.931975,-33.848244,rebecca mcgrath,547590394,2020-03-26 08:01:27,,city,"Sydney, New South Wales",Australia
205,-2.59652317,51.45228784,megg,547590780,2020-03-11 18:25:51,,city,"Bristol, England",United Kingdom
14460,-71.444316,42.196616999999996,alycia savvides,54759099,2020-03-01 02:51:21,Boston,city,"Holliston, MA",United States
24,-79.41505,43.63579,Jesse James,547591627,2020-02-16 02:14:35,"Willowdale West, Toronto",city,"Toronto, Ontario",Canada
65,2.36275,48.860915000000006,FOMO arts&style,547591794,2020-05-28 19:34:25,Paris,poi,David Zwirner,France
24,-79.03622899999998,43.7828285,Leslie Borg,54759186,2020-02-14 17:29:30,Canada,city,"Pickering, Ontario",Canada
106,14.4277,27.025547999999997,kaledcon,547592057,2020-04-24 17:11:23,Libya,poi,  ,Libya
24,-80.4764035,43.430240000000005,Craig Armstrong,547592665,2020-03-05 14:03:55,"Baden, Ontario",city,"Kitchener, Ontario",Canada
96,47.689721999999996,29.986636999999998,Abdelrhman Shawabkeh,547593098,2020-04-20 10:16:29,Jrayenet Al-Shawabkeh ,poi,  Kuwait,Kuwait
200,29.0052225,41.0213205,Mustafaa,547593237,2020-02-14 16:24:14,stanbul,city,"stanbul, Trkiye",Trkiye
26420,-95.4464865,29.838495,Branz,54759326,2020-02-18 20:14:18,"Houston, TX",city,"Houston, TX",United States
39580,-78.657837,35.8439815,Jon McCay,54759335,2020-04-24 14:04:56,"Raleigh, NC",city,"Raleigh, NC",United States
200,26.557353999999997,41.677215999999994,Seda Nida Erdoan,547593602,2020-04-01 14:06:37,,poi,Selimiye Camii,Trkiye
205,-0.44236099999999995,51.537061,ShirazKhan,547594664,2020-04-04 11:06:14,"London, UK",city,"Hillingdon, London",United Kingdom
242,121.072477,24.933507000000002,Sifa Rahmania A'la,547595974,2020-03-01 06:39:48,Taipei,poi,,Taiwan
24340,-85.924871,42.9687165,Travis McCurdy,547596107,2020-03-08 17:50:15,,city,"Allendale, MI",United States
33220,-84.237267,43.6358535,Travis McCurdy,547596107,2020-03-29 19:22:38,,city,"Midland, MI",United States
21140,-85.716099,41.667989,pam b brown,547596134,2020-03-14 03:30:01,,city,"Middlebury, IN",United States
65,2.347003,48.8588335,Florent Orsoni,547596268,2020-02-14 09:22:50,,city,"Paris, France",France
200,28.992471000000002,41.040535999999996,Kadir Berk en ,547596371,2020-02-22 13:13:41,,poi,The Ritz-Carlton Atelier Lounge,Trkiye
88,139.67789515,35.78280869,misakiyui777,547596652,2020-02-14 12:28:37,,city, ,
71,8.636605500000002,50.1212355,Dip J,547597290,2020-03-05 08:53:58,,city,"Frankfurt on the Main, Germany",Germany
171,120.7969695,14.291964499999999,. . .,547597765,2020-04-24 10:28:28,"Cavite, PH",city,"Naic, Calabarzon",Republic of the Philippines
21,-51.1593095,-30.099836,Cello,54759782,2020-04-28 21:37:33,"Porto Alegre, RS",city,"Porto Alegre, Brazil",Brazil
119,-103.4023647,20.675604,Vanessa,54759818,2020-03-22 21:19:40,,city,"Guadalajara, Jalisco",Mxico
205,-4.172646,55.820915500000005,Eddie Scott,547598300,2020-02-16 13:40:11,Glasgow,city,"Cambuslang, Scotland",United Kingdom
85,11.3514,44.5075,Guido Schittone,547598453,2020-03-29 22:09:37,,city,"Bologna, Emilia Romagna",Italy
164,-9.2704385,38.712536,Gabriela Mateus,547598885,2020-03-26 10:20:07,"Lisbon, Portugal",city,"Oeiras, Portugal",Portugal
24,-79.27256949999999,43.629311,Diane Fraleigh Ontario Captive Animal Watch,54759959,2020-02-14 00:19:54,Toronto Girl,city,"Toronto, Ontario",Canada
35620,-74.0747245,39.95461450000001,chey,547600118,2020-03-16 14:26:05,"New Jersey, USA",city,"Dover Beaches South, NJ",United States
222,109.038827,-7.6690949999999996,Tofik Hidayat,547600127,2020-03-09 15:00:59,"Cilacap, Jawa Tengah ",city,"Cilacap Utara, Indonesia",Indonesia
21,-47.444534999999995,-19.872863,Patrcia Gomide,54760015,2020-04-11 14:30:35,Sacracity/Campinas,poi,Sacramento MG,Brazil
51,-6.247621499999999,53.3549025,Nandinha,547600627,2020-03-15 11:12:43,,city,"Dublin City, Ireland",Irlanda
205,-0.159403,51.5424365,Now Hear This,547600919,2020-02-22 22:17:56,,city,"Camden Town, London",United Kingdom
33,-70.679614,-33.384291999999995,Paulo Avils. Voto SI Apruebo - #EstamosSolos,54760100,2020-02-14 00:23:38,"Santiago, Chile",city,"Conchal, Chile",Chile
82,77.1703,28.5458,Mohd Rayyan Ansari,547601103,2020-03-06 14:43:47,Bhiwandi,city,"New Delhi, India",India
24,-73.81736,45.4481,Hlne,547601270,2020-02-29 22:23:32,"Montreal, Qc, Canada",city,"Pointe-Claire, Qubec",Canada
35620,-74.27885500000001,40.26652,c,54760151,2020-03-23 22:21:27,"Freehold, NJ",city,"Freehold, NJ",United States
50,29.951957,31.03068,Meliodas ,547601844,2020-05-23 23:04:10,,poi,Cairo - Alexandria Desert Road,Egypt
82,75.2506265,19.843407,shital gangwal,547601954,2020-05-04 14:29:37,aurangabad,city,"Waluj, India",India
171,121.033212,14.5464995,kyle.,547602275,2020-03-17 07:32:55,,city,"Makati City, National Capital Region",Republic of the Philippines
171,120.98761976,14.55066895,Pokmon Trainer Borj ,54760255,2020-02-14 20:11:26,"Postwick, Galar Region",city,"Manila City, National Capital Region",Republic of the Philippines
175,50.079679999999996,26.714073,jasmin,547603529,2020-04-06 22:37:49,,poi,Saudi Aramco,  
82,80.16972392,12.835334,Chrishanth Mathew,547603892,2020-02-14 17:11:16,,city,"Chengalpattu, India",India
186,-8.771557000000001,42.1970575,T,547604289,2020-04-07 22:02:33,,city,"Vigo, Espaa",Espaa
35620,-73.8311875,40.6708795,Susan Salkin,54760444,2020-04-17 20:22:50,,city,"Queens, NY",United States
21,-43.924734,-19.9091559,marlom Lisboa,547604830,2020-03-27 21:01:17,"Belo Horizonte, Brasil",city,"Belo Horizonte, Brasil",Brasil
31080,-117.99803999999999,33.8652,Steve,547605047,2020-03-14 00:01:46,,city,"Buena Park, CA",United States
205,-1.4998639999999999,52.405477000000005,Roger Howell,547605130,2020-02-15 11:28:19,,poi,Engineering and Computing Building - Coventry University,United Kingdom
21,-43.8636,-16.7322,Rafinha,547605421,2020-02-14 17:21:25,"Montes Claros, Brasil",city,"Montes Claros, Brasil",Brasil
120,101.6536755,3.0329245,Mawwliyn,547605439,2020-03-23 18:43:24,kelana jaya+sabak bernam,city,"Petaling, Selangor",Malaysia
171,120.9839865,14.5914565,alex,547605549,2020-02-14 11:23:10,,city,"Manila City, National Capital Region",Republic of the Philippines
205,-3.8129735,51.6066975,Stormy,547606492,2020-02-25 20:54:34,United Kingdom | Wales,city,"Aberavon, Wales",United Kingdom
222,116.8354115,-1.2568735000000002,pairhunt,547606838,2020-05-01 22:58:31,Balikpapan,city,"Balikpapan Tengah, Indonesia",Indonesia
91,35.2740035,0.5085675000000001,your daily dose of random,547607094,2020-04-14 17:06:48,"eldoret,  Kenya ",city,"Eldoret, Kenya",Kenya
151,8.8833,9.9333,Johnson E. Awolola,547607931,2020-03-13 06:17:02,land of editors,city,"Jos, Nigeria",Nigeria
211,-67.949584,10.260468,Pedro Damian Clavo,547608254,2020-02-27 23:12:09,Venezuela,city,"San Diego, Venezuela",Venezuela
120,102.8651315,1.855214,,547609202,2020-02-15 14:16:03,Malaysia,city,"Bagan, Johor",Malaysia
222,96.191574,4.196173,aneukbluek,54760939,2020-04-01 07:08:38,"Banda Aceh, Indonesia",city,"Arongan Lambalek, Indonesia",Indonesia
205,0.413811,52.251049,Sarah Mason,547609933,2020-02-15 15:49:16,"Cambridge, England",poi,Bedford Lodge Gym,United Kingdom
186,-4.8729125,36.507495,Alejandro Martinez,547609942,2020-02-17 09:09:11,Marbella ,city,"Marbella, Espaa",Espaa
22220,-94.183002,36.050435,Kerri Trainor Mason,54761022,2020-02-20 21:17:36,,poi,Baum Stadium,United States
71,6.0800599,50.7802,dunnerladdich,547610437,2020-02-16 19:57:17,Sofa ,city,"Aachen, Deutschland",Deutschland
57,11.153118,47.372612,dunnerladdich,547610437,2020-03-01 08:09:19,Sofa ,city,"Leutasch, sterreich",sterreich
71,6.083132,50.79659986,dunnerladdich,547610437,2020-04-17 13:23:27,zuhause,city,"Aachen, Deutschland",Deutschland
24,-104.603932,52.85284300000001,Melfort Multi-K,547610743,2020-04-02 15:07:24,"Melfort, Saskatchewan",city,"Melfort, Saskatchewan",Canada
41180,-90.50046645,38.77974252,Bruno Mauricio,54761086,2020-06-03 00:53:35,"Saint Charles, Missouri, USA",city,"St Charles, MO",Estados Unidos
200,28.968127000000003,41.037852,nygma,547610967,2020-03-30 15:37:09,"Sydney, New South Wales",city,"Denizli, Trkiye",Trkiye
222,106.8022175,-6.18947,Deni Kurniawan,547611381,2020-02-14 00:02:14,"Jakarta Barat, DKI Jakarta",city,"Palmerah, Indonesia",Indonesia
72,144.8,13.5,Keisuke Tanabe,547611565,2020-02-18 15:30:50,,city,"Tamuning, GU",Guam
88,135.1913,34.6964,Keisuke Tanabe,547611565,2020-03-24 13:47:55,,city,  ,
9,153.02231451,-27.47746476,Keisuke Tanabe,547611565,2020-05-04 09:18:12,,city,"Brisbane, Queensland",Australia
45300,-82.467107,27.945845000000002,fish. ,547611660,2020-03-17 11:50:30,"Tampa, FL",poi,Lubes and Korbs sexual play pin,United States
222,110.38181200000001,-7.7860404999999995,boob,547612006,2020-03-09 17:30:06,,city,"Gondokusuman, Indonesia",Indonesia
175,46.685077,24.7219435,   ,547612181,2020-04-29 21:33:53,  ,city,",   ",  
65,5.56997,43.3834195,sempere richard,547612208,2020-02-15 04:20:11,"Marseille, Aix en Provence",city,"Peypin, France",France
16740,-80.8467855,35.209059,L.,547613011,2020-02-17 16:07:18,"Brooklyn, NY",city,"Charlotte, NC",United States
39580,-78.657837,35.8439815,L.,547613011,2020-03-28 14:44:27,"Brooklyn, NY",city,"Raleigh, NC",United States
16740,-80.8467855,35.209059,L.,547613011,2020-03-30 22:08:05,"Brooklyn, NY",city,"Charlotte, NC",United States
39580,-78.657837,35.8439815,L.,547613011,2020-04-02 18:57:29,"Brooklyn, NY",city,"Raleigh, NC",United States
88,130.961353,33.944663,,547613432,2020-05-03 12:03:30,,poi, (Mojik Sta.),
205,-2.1168695,53.54286550000001,Dave hill,547613640,2020-02-15 18:50:53,Shaw,city,"Oldham, England",United Kingdom
205,-1.339156,52.057842,#IFIGET #GOLD #YENGYEYENI,547614407,2020-04-25 12:14:21,"Accra, Ghana",city,"Banbury, England",United Kingdom
21,-46.5955455,-23.682803,Fbio Preto,54761461,2020-02-14 22:42:08,So Paulo - SP.,city,"So Paulo, Brasil",Brasil
31080,-117.8874385,33.739992,Cheryl,54761571,2020-02-28 20:17:34,"Whittier, Ca",city,"Santa Ana, CA",United States
171,121.03513241,14.63612639,Nelvy Sacramento,54761631,2020-02-24 01:04:02,"Manila, Philippines",city,"Quezon City, National Capital Region",Republic of the Philippines
39900,-119.82718200000001,39.512436,Rich Amore,54761662,2020-02-22 02:24:46,"Reno, NV",city,"Reno, NV",United States
40900,-121.453278,38.5105105,Rich Amore,54761662,2020-05-28 08:31:02,"Reno, NV",city,"Parkway, CA",United States
39900,-119.82718200000001,39.512436,Rich Amore,54761662,2020-06-03 00:22:57,"Reno, NV",city,"Reno, NV",United States
200,29.0052225,41.0213205,hasan erdem,547616639,2020-03-03 09:17:23,istanbul,city,"stanbul, Trkiye",Trkiye
186,2.1162,41.3684,Esther Querol EBS,547616924,2020-04-12 11:58:05,Catalunya,city,"l'Hospitalet de Llobregat, Espanya",Espanya
186,-6.2963,36.5333,A i n h o a,547616932,2020-04-26 20:46:03,San Fernando,city,"Cdiz, Espaa",Espaa
21,-48.47243854,-1.42557133,Oton O. Alencar Jr,54761705,2020-05-07 13:17:34,Belm do Gro Par,city,"Belm, Brazil",Brazil
21,-43.959822499999994,-19.918692,Augusto,54761735,2020-02-14 00:49:15,,city,"Belo Horizonte, Brazil",Brazil
186,-3.7035075,40.4777945,Angela Pulido,54761762,2020-06-05 16:57:24,Madrid,city,"Madrid, Espaa",Espaa
119,-99.1158905,19.518656,hebert velasco,547617788,2020-04-16 17:15:53,mexico,city,"Gustavo A. Madero, Distrito Federal",Mxico
38,-74.24367099999999,4.2622835,ivancho,547618094,2020-02-14 17:24:19,Colombia,city,"Bogot, D.C., Colombia",Colombia
242,121.23213999999999,24.854815,WEMETLASTSUMMER,547618294,2020-02-21 03:16:55,From my heart to your heart,city,"Taoyuan County, Taiwan",Taiwan
38,-73.92732149999999,11.0734625,Henry  Martnez A.,54761846,2020-03-20 12:21:06,,city,"Santa Marta, Colombia",Colombia
222,112.62181899999999,-7.990285000000001,Firman Wahyudi,547618607,2020-04-24 02:30:44,Sumenep - Malang,poi,Auto 2000,Indonesia
33,-70.60265749999998,-33.454414,Vernica Gonzlez,54761926,2020-02-28 03:39:07,"Santiago, Chile",city,"uoa, Chile",Chile
19660,-80.9271385,29.035797,Bill McCorey,54762007,2020-04-21 10:42:11,Orlando Florida,city,"New Smyrna Beach, FL",United States
36740,-81.3677725,28.5016785,Bill McCorey,54762007,2020-04-24 19:39:50,Orlando Florida,city,"Orlando, FL",United States
19660,-80.9271385,29.035797,Bill McCorey,54762007,2020-04-28 12:57:06,Orlando Florida,city,"New Smyrna Beach, FL",United States
36740,-81.3677725,28.5016785,Bill McCorey,54762007,2020-05-20 16:14:24,Orlando Florida,city,"Orlando, FL",United States
19660,-80.9271385,29.035797,Bill McCorey,54762007,2020-05-27 10:47:30,Orlando Florida,city,"New Smyrna Beach, FL",United States
33,-70.67615799999999,-33.493312,Geraldine Lissette,54762009,2020-02-17 14:16:08,"Santiago , Chile",city,"Pedro Aguirre Cerda, Chile",Chile
16980,-87.732013,41.8335845,trash loaf,54762039,2020-03-02 18:36:25,,city,"Chicago, IL",United States
82,72.819262,19.043677,Prashant Pujari,547621722,2020-02-28 09:48:12,,poi,Taj Lands End,India
200,29.0052225,41.0213205,engin kalu,547621952,2020-02-19 04:30:50,,city,"stanbul, Trkiye",Trkiye
88,135.31032247,34.41018823,,547622415,2020-02-14 12:06:00,OSAKA,city, ,
82,88.352242,22.6127055,dipa.bhattacherjee,547623006,2020-03-04 11:15:32,India,city,"Kolkata, India",India
19820,-83.387744,42.277414,Haydes,547623071,2020-02-14 20:16:20,"Wayne, MI",city,"Wayne, MI",United States
11460,-84.00784399999999,42.313587,Haydes,547623071,2020-03-02 15:57:02,"Wayne, MI",city,"Chelsea, MI",United States
19820,-83.387744,42.277414,Haydes,547623071,2020-03-06 05:16:13,"Wayne, MI",city,"Wayne, MI",United States
88,137.98975915,35.96316468,,547624307,2020-02-19 05:59:19,,city, ,
175,43.9776075,26.055773499999997,sultan,547624636,2020-05-19 20:57:25,,city,",   ",  
21,-50.693466,0.5866785,MarcelaViana,54762518,2020-02-14 12:45:17,"Macap,AP",city,"Macap, Brasil",Brasil
8,-58.555862,-34.679375,Flor Monzn.,547625198,2020-03-12 00:16:33,Buenos Aires,poi,Bar A,Argentina
200,28.89379551,41.06444449,ABDULLAH SANCAKLI,547625251,2020-03-18 15:33:05,stanbul ,city,"stanbul, Trkiye",Trkiye
186,-3.937074500000001,43.4025375,Carol Torre,547625269,2020-03-15 14:15:49,"Santander, Cantabria",city,"Pilagos, Espaa",Espaa
19100,-97.01116800000001,32.655677999999995,Trinh Nguyen~Panda~~,547625719,2020-02-14 05:30:55,"Grand Prairie, Tx",city,"Lakeland Heights, TX",United States
161,67.0421945,24.9050755,Saqib Naseer,547625828,2020-03-28 06:30:02,Pakistan,city,"Karachi, Pakistan",Pakistan
12060,-84.31507049999998,33.8745435, 7:20 Chas Bas,54762634,2020-03-01 00:18:14,"Atlanta, GA",city,"Brookhaven, GA",United States
222,99.060862,2.9535009999999997,Zamzamy Sormin,547626422,2020-02-14 16:02:52,"Kota Medan, Sumatera Utara",city,"Pematang Siantar, Indonesia",Indonesia
65,2.71340648,48.67916368,Gler Aras,547626861,2020-04-23 09:43:04,"Ile-de-France, France",city,"Coubert, France",France
88,137.779539,34.743942499999996,,547627256,2020-02-15 13:24:15,,city,  ,
35620,-73.9685415,40.780709,Joanie Tavel Reznik,547628212,2020-02-19 05:54:18,new york,city,"Manhattan, NY",United States
82,78.3852855,17.3950375,Sujeet Singh,547628496,2020-05-28 01:58:01,"Hyderabad, Andhra Pradesh",city,"Rajendra Nagar, India",India
200,27.006511,38.4079305,Fatih ,547629102,2020-03-11 15:33:07,ZMR / TRABZON,city,"zmir, Trkiye",Trkiye
151,3.530067,6.442663,Yetunde$$$$,547629243,2020-03-16 11:35:23,"Lagos, Nigeria",poi,Chevron,Nigeria
193,100.552755,13.8145695,BANK'T,547629744,2020-03-01 12:53:56,,city,", ",
21,-43.97127727,-19.86530906,mateus,54762992,2020-03-07 16:23:57,"Caiaras, Belo Horizonte",city,"Belo Horizonte, Brasil",Brasil
178,28.184066499999997,-25.752605499999998,  ,547629929,2020-02-14 16:50:19,"Pretoria, South Africa",city,"Pretoria, South Africa",South Africa
222,110.94025400000001,-7.800060999999999,Dewik,547630103,2020-02-28 15:47:49,,city,"Wonogiri, Indonesia",Indonesia
222,107.583244,-6.884174000000001,raze,547630458,2020-04-06 18:27:41,sundanese,poi,Airy Pasteur Dangdeur Indah 20 Bandung,Indonesia
88,139.691147,35.657211,Mii,547631336,2020-02-21 15:57:35,,poi, ,
186,-5.3301895,35.89443,Agustin Lara,547631502,2020-04-04 12:07:56,Ceuta,city,"Ceuta, Espaa",Espaa
205,-0.3290765,51.227344,Ceferino Gimnez Malla El Pel,547631537,2020-02-16 06:35:31,"London, England",city,"Dorking, South East",United Kingdom
178,18.4890615,-34.1216575,Harvey,547631537,2020-04-23 12:15:06,"London, England",city,"Cape Town, South Africa",South Africa
200,31.599666,40.736964,zagor,547631987,2020-03-28 18:29:15,,poi,MARS,Trkiye
171,121.0069495,14.5328815,Chelsea ,54763216,2020-02-15 16:01:20,Republic of the Philippines,city,"Pasay City, National Capital Region",Republic of the Philippines
8,-58.52411444,-34.51504019,Dany,54763224,2020-03-07 13:38:25,"Vicente Lpez, Argentina",city,"Vicente Lpez, Argentina",Argentina
20900,-96.093124,29.326595,Roy,54763242,2020-04-21 15:43:35,,city,"Wharton, TX",United States
211,-67.460864,10.172298,DAHIANA W  CASTILLO,547632878,2020-03-02 02:31:14,venezuela,city,"Cagua, Venezuela",Venezuela
33100,-80.2333285,25.7823535,Dee ,54763288,2020-03-19 16:12:20,,city,"Miami, FL",United States
171,120.9694,14.6504,John Albert Papa,54763300,2020-04-10 21:30:06,Philippines,city,"Caloocan City, National Capital Region",Republic of the Philippines
222,110.3168365,-7.8147389999999985,Astian Artiningsih,547633099,2020-05-09 16:03:26,Yogyakarta,city,"Kasihan, Indonesia",Indonesia
88,135.2059645,34.680986499999996,,547633125,2020-04-19 09:33:42,,city,  ,
47900,-76.91354399999999,38.6346285,G-Phly-G,547633180,2020-05-08 18:43:12,Makin' my next move....,city,"Waldorf, MD",United States
205,-1.541876,53.991231000000006,Alice_Young96,547633391,2020-04-12 10:16:32,"Leeds, England",city,"Harrogate, England",United Kingdom
31080,-118.2445,34.0564,Carlos Rodrguez,547633822,2020-06-02 11:35:33,Munich,city,"Los Angeles, CA",United States
191,9.4518095,46.819774,Amedes,547634793,2020-02-14 05:08:30,Switzerland,city,"Ems, Schweiz",Schweiz
205,0.4571355,51.570425,Antony Dwyer,547634897,2020-03-25 08:51:38,,city,"Basildon, East",United Kingdom
35620,-73.846949,40.721677,This Man has no President!,54763531,2020-06-06 20:06:33,"New York, NY",poi,US Post Office,United States
186,-5.642096400000001,36.8592414,El Barbudo Ese,547635336,2020-03-01 14:46:40,Espaa,city,"Villamartn, Espaa",Espaa
82,88.34872840000001,22.583294100000003,Sanjay Gautam,547635883,2020-03-22 05:03:39,"New Delhi, India",city,"Kolkata, India",India
38,-74.02909303,4.727746,John Sanchez,547636199,2020-04-05 15:26:43,Colombia,city,"Bogot, D.C., Colombia",Colombia
120,100.18664,6.433299,HHIZN,547636522,2020-02-15 06:43:46,,poi,Puncak Gua Sami,Malaysia
171,121.0069495,14.5328815,Revs,547636623,2020-02-17 07:00:39,"Manila,Philippines",city,"Pasay City, National Capital Region",Republic of the Philippines
95,126.85983896,37.98566097,,54763683,2020-05-05 14:54:24,"Mapo, Seoul",city,"Yeoncheon-gun, Republic of Korea",Republic of Korea
33,-70.55934149999999,-33.593537999999995,Mara Jos Chanda,54763686,2020-02-14 00:49:30,"La Florida, Stg",city,"Puente Alto, Chile",Chile
179,27.468258000000002,-29.306701,RayMash,547637118,2020-05-25 12:05:35,"Bulawayo,Zimbabwe",poi,Embassy of the United States of America,Lesotho
200,29.0052225,41.0213205,Erol KURUOT,547637193,2020-05-25 01:47:59,,city,"stanbul, Trkiye",Trkiye
82,72.87424399999999,19.174139999999998,Shivam Varma,547637337,2020-03-22 13:39:56,mumbai,city,"Mumbai, India",India
38300,-80.092364,40.388596,Aire P-R,54763742,2020-02-14 14:43:13,"Pittsburgh, PA",city,"Scott Township, PA",United States
189,13.141902000000002,55.958439,Ted Gustavsson,547637471,2020-02-15 08:37:34,Kgerd,city,"Svalv, Sverige",Sverige
21,-46.5955455,-23.682803, .,54763762,2020-02-14 03:15:28,"So Paulo, Brasil",city,"So Paulo, Brasil",Brasil
171,121.08234499999999,14.5833065,lesiyah,547637747,2020-04-09 17:13:11,anywhere ,city,"Pasig City, National Capital Region",Republic of the Philippines
21,-56.736284999999995,-2.627654,alana,54763799,2020-05-20 00:48:19,Brasil,poi,Praa da Catedral,Brazil
47900,-77.006159,39.030728,Jim Della-Giacoma,54763810,2020-03-21 15:25:48,"Maryland, USA",poi,Rachel Carson Greenway Trail,United States
173,107.6264145,51.821225,MRGO,547638100,2020-04-17 15:18:01,-,city,"-, ",
23900,-77.04391000000003,39.984053,BJ Wagner,54763811,2020-02-14 20:22:55,"Lake Meade, PA",city,"Lake Meade, PA",United States
193,100.515141,13.700744,nuii_sawitree,547638239,2020-02-21 12:13:53,"Bangkok,Thailand",poi,3 Days 2 Nights ( ),
186,-5.977208999999999,37.402809999999995,Migue Yuste,547638333,2020-03-16 10:11:07,Sevilla,poi,Restaurante Gran China,Espaa
173,30.328698,59.934148,,547638468,2020-04-28 16:20:39,,city,"-, ",
45300,-82.44269399999997,27.9965945,VerbeL,54763885,2020-03-17 16:32:55,iPhone Traveler,city,"Tampa, FL",United States
33100,-80.285189,26.0781705,VerbeL,54763885,2020-03-21 16:36:28,iPhone Traveler,city,"Davie, FL",United States
19660,-81.0379,29.2073,VerbeL,54763885,2020-04-11 04:33:49,iPhone GPS only knows,city,"Daytona Beach, FL",United States
37340,-80.73958712,28.25777181,VerbeL,54763885,2020-05-25 14:22:06,iPhone GPS only knows,city,"Viera West, FL",United States
88,139.58119299999998,35.701715,@,547639644,2020-02-16 07:21:39,,poi, SHUFFLE,
88,139.77586200000002,35.670638000000004,,547639770,2020-02-22 04:53:15,,city, ,
186,-3.7035075,40.4777945,Joaqun Moreno,547640095,2020-03-03 05:58:01,,city,"Madrid, Espaa",Espaa
88,132.3014235,34.4532085,,547640163,2020-02-29 09:29:43,,city, ,
47900,-77.0143985,38.898603,Vander Clopersnickle,5476402,2020-03-23 19:09:19,,city,"Washington, DC",United States
16980,-88.1443505,41.9782565,Double Down On Black,547640473,2020-02-14 17:35:25,"Schaumburg, IL",city,"Hanover Park, IL",United States
27500,-89.0119955,42.686398499999996,Double Down On Black,547640473,2020-03-02 15:46:18,"Schaumburg, IL",city,"Janesville, WI",United States
16980,-88.1443505,41.9782565,Double Down On Black,547640473,2020-03-03 04:41:50,"Schaumburg, IL",city,"Hanover Park, IL",United States
21,-47.03021800000001,-22.8949945,Arthur Guimares,54764052,2020-02-14 00:58:14,"Campinas, SP - Brasil",city,"Campinas, Brasil",Brasil
222,111.52198,-7.626125,Senobroto,547640971,2020-02-19 05:44:03,Madiun-Jatim,city,"Mangunharjo, Indonesia",Indonesia
36740,-81.520527,28.380843,Carly aka Kiwi,547641179,2020-03-01 14:19:11,Florida,city,"Lake Buena Vista, FL",United States
33100,-80.11711650000002,26.931496000000006,Carly aka Kiwi,547641179,2020-03-04 04:19:31,Florida,city,"Jupiter, FL",United States
71,11.34669,48.3122655,2#00101010#,547641265,2020-04-11 19:08:24,3rd Rock from the Sun,city,"Schwabhausen, Deutschland",Deutschland
21,-48.63777778,-26.24277778,Alana Schwoelk,54764182,2020-02-17 16:11:40,"Joinville, Brasil",city,"So Francisco do Sul, Brasil",Brasil
152,6.5181065,52.72765450000001,Attila,547641917,2020-05-20 15:45:09,the other plane of existence,city,"Hoogeveen, Nederland",Nederland
69,-1.612222,6.693627,kofi Blueticks,547641947,2020-05-20 22:46:40,Ghana ,city,"Kumasi, Ghana",Ghana
200,29.395201500000002,40.84593750000001,Aziz Kln,547642966,2020-03-19 20:18:59,"Gebze, Trkiye",city,"ayrova, Trkiye",Trkiye
88,141.307771,43.054378,,547643325,2020-03-01 08:26:12,,poi,,
222,116.87682450000001,-1.1540175,Arie Reza Rizaldy,54764336,2020-02-29 13:14:35,indonesia,city,"Balikpapan Utara, Indonesia",Indonesia
31180,-101.886597,33.581396000000005,Doreen Grimaldo,547643737,2020-02-21 02:30:01,"Lubbock, TX",poi,TTU - United Supermarkets Arena,United States
205,-4.828944,55.314085,Natasha McAllister,547644078,2020-02-14 19:48:49,Scotland,poi,"Trump Turnberry, A Luxury Collection Resort Scotland",United Kingdom
152,5.6974215,52.7256415,brands,547644331,2020-06-07 16:08:37,Emmeloord,city,"Noordoostpolder, Nederland",Nederland
85,12.483167,41.900875,Karl Gornell,547644500,2020-02-17 18:55:30,Liverpool,city,"Rome, Lazio",Italy
46520,-157.89756450000002,21.397737,AMacarro,547644650,2020-02-29 23:01:18,"Temecula, California",city,"Aiea, HI",United States
14460,-71.07186389,42.34385,J H Hayes,547644953,2020-02-26 02:54:32,New England,city,"Boston, MA",United States
222,106.59660349999999,-6.122132499999999,IMAM,547645087,2020-02-15 06:19:06,Tangerang ,city,"Sepatan, Indonesia",Indonesia
186,-4.76513,37.8869,Francisco Fabios,547645149,2020-02-15 13:05:46,Crdoba,city,"Crdoba, Espaa",Espaa
24660,-79.6632,36.3547,Progression,54764551,2020-06-07 00:53:20,I'm around ,city,"Reidsville, NC",United States
152,5.128083,52.099001,Wijkagent Elmar,547646349,2020-04-05 07:21:57,Utrecht,poi,Skatepark Griftpark,Nederland
8,-56.973183,-37.256524,amadeo montenegro,54764760,2020-05-01 13:33:15,Villa Gesell,city,"Villa Gesell, Argentina",Argentina
38240,-79.43639499999999,35.13938450000001,grant tyson,547647982,2020-03-18 00:19:30,,city,"Aberdeen, NC",United States
222,107.670268,-6.8134765,Tipaaa,547647993,2020-03-08 01:32:03,Indonesia,city,"Lembang, Indonesia",Indonesia
109,106.88393,47.908445,Buriad hamgan ,547648146,2020-04-06 23:07:51,Mongolia,poi,Ulaanbaatar Railway Station,Mongolia
71,13.401251,52.518391,Gleb Galkin ,5476482,2020-02-15 11:55:57,"Berlin, Germany",city,"Berlin, Germany",Germany
173,21.22,54.6136,Gleb Galkin ,5476482,2020-05-09 17:11:43,"Berlin, Germany",city,", ",Russia
71,13.3725,52.58166667,Gleb Galkin ,5476482,2020-05-09 18:30:15,"Berlin, Germany",city,"Berlin, Germany",Germany
153,10.3659625,63.409964,i adore you,547648393,2020-02-18 11:04:29,,city,"Trondheim, Norway",Norway
25060,-88.7755885,30.404947999999997,Brian Kestner,54764928,2020-04-28 04:33:05,Ocean Springs,city,"Ocean Springs, MS",United States
82,72.856394,19.0607685,Rahul Ram,547649446,2020-03-01 06:10:06,"Bandra West, Mumbai 4000 50",neighborhood,"Bandra East, Mumbai",India
193,100.5164835,13.7579405,love nichkhun fc.2PM,547649633,2020-02-20 10:31:56,", ",city,", ",
45300,-82.7553405,27.992710499999998,____ ,547649885,2020-02-19 06:39:02,,city,"Clearwater, FL",United States
82,79.91359399999999,27.041326,Ishu Gupta,547650131,2020-05-28 18:09:13,"Kannauj, India",poi,Kannauj,India
31080,-118.389375,34.081559000000006,MamaWolf77,54765016,2020-03-21 08:31:08,By the Ocean,poi,The Troubadour,United States
16300,-91.713432,42.0596565,Austin Collins,54765028,2020-02-14 13:18:02,"Cedar Rapids, Iowa",city,"Hiawatha, IA",United States
222,112.747694,-7.215561,Jen,547651632,2020-03-16 06:37:47,"Kota Surabaya, Jawa Timur",city,"Semampir, Indonesia",Indonesia
163,-80.839625,8.320333,Jos Santana,547652130,2020-02-24 01:30:48,Panam,poi,Reserva Forestal La Yeguada,Panam
120,101.4790765,3.1231455,Iskandar Mahmood,54765231,2020-05-10 13:56:18,"Sunway Alam Suria, Shah Alam",city,"Bukit Raja, Selangor",Malaysia
33,-70.6596155,-33.4521615,Jenny Romn G.,547652383,2020-03-03 14:17:43,San Bernardo,city,"Santiago, Chile",Chile
33460,-93.10100327,44.94482479,JJ,547653107,2020-02-25 18:01:44,Mpls,city,"St Paul, MN",United States
33,-72.6030615,-38.980273,Patricio Delgado,547653412,2020-03-22 17:34:11,pitrufquen chile,city,"Freire, Chile",Chile
39580,-78.657837,35.8439815,Lynne Hildreth,54765372,2020-03-09 01:35:53,"Tampa, FL",city,"Raleigh, NC",United States
222,110.285206,-7.924401,Hai,547654652,2020-03-04 00:54:23,"Yogyakarta, Indonesia.",city,"Pandak, Indonesia",Indonesia
88,139.43836249999998,35.68781749999999, ,547654660,2020-05-10 12:34:50,,city, ,
21,-50.8005695,-29.564519,Tai ,547654861,2020-03-14 15:36:35,,city,"Igrejinha, Brasil",Brasil
222,110.6519925,-7.540128,Titik Balik,547654925,2020-04-06 17:34:48,"Semarang, Jawa Tengah",city,"Teras, Indonesia",Indonesia
32820,-89.692676,35.058521500000005,Dayna Lytle,54765537,2020-04-10 17:38:32,"Collierville, TN",city,"Collierville, TN",United States
38,-74.24367099999999,4.2622835,Charlie Mayol,547655406,2020-03-29 23:32:24,,city,"Bogot, D.C., Colombia",Colombia
88,139.555057,35.660503999999996,,54765544,2020-02-14 02:58:36,,city, ,
21,-42.457306,-5.02439,Raimundo Rakel,547655727,2020-03-19 19:48:31,,city,"Altos, Brasil",Brasil
119,-98.564206,20.6559345,Romn,547656646,2020-04-15 03:50:04,Pachuca ,city,"Zacualtipn de ngeles, Hidalgo",Mxico
82,76.943795,28.362436,Sachin Mathur,547657955,2020-05-23 23:29:18,"New Delhi,India",poi,"Sector 1, IMT Manesar",India
65,2.347003,48.8588335,DusserisMarieChantal,547658164,2020-04-10 06:11:50,Paris,city,"Paris, France",France
85,9.1904,45.462540000000004,Leo Inacio,54765818,2020-03-05 10:00:18,,city,"Milo, Lombardia",Itlia
222,106.71801140000001,-6.354817,,547658323,2020-03-15 07:27:05,"Kota Serang, Banten",city,"Gunung Sindur, Indonesia",Indonesia
222,106.8382395,-6.1329865,,547658723,2020-05-18 10:41:50,,city,"Pademangan, Indonesia",Indonesia
186,-3.5254550000000004,40.36781,Claau ,547658732,2020-02-23 17:02:03,Madrid,poi,Centro de Recursos Ambientales Chico Mendes,Espaa
24,-75.90100000000001,45.326,Carrie McCallum,54765874,2020-06-03 17:17:20,ottawa,city,"Ottawa, Ontario",Canada
222,110.350594,-7.8023095,Blarak obong,547659190,2020-03-31 17:48:45,Yogyakarta,city,"Wirobrajan, Indonesia",Indonesia
175,46.64934397,24.73141602,,547659269,2020-02-28 18:03:05,"Riyadh, Kingdom of Saudi Arabia",city,"Riyadh, Kingdom of Saudi Arabia",Kingdom of Saudi Arabia
186,-5.923545000000002,37.38319799999999,Ana Prez ,547659450,2020-02-19 20:49:45,Sevilla (Espaa),city,"Sevilla, Espaa",Espaa
88,139.1338425,36.25083,,547659501,2020-02-16 17:09:39, ,city,"Kamisato-machi, Saitama",Japan
42660,-122.3306025,47.614816999999995,Hillary Kenyon,547661012,2020-02-14 14:20:24,"Seattle, WA",city,"Seattle, WA",United States
16980,-87.732013,41.8335845,Hillary Kenyon,547661012,2020-02-28 00:37:16,"Seattle, WA",city,"Chicago, IL",United States
10420,-81.43753199999999,41.242676,Hillary Kenyon,547661012,2020-02-29 14:04:55,"Seattle, WA",city,"Hudson, OH",United States
17460,-81.705467,41.49593950000001,Hillary Kenyon,547661012,2020-03-03 15:16:43,"Seattle, WA",city,"Cleveland, OH",United States
42660,-122.3306025,47.614816999999995,Hillary Kenyon,547661012,2020-03-04 19:49:42,"Seattle, WA",city,"Seattle, WA",United States
45780,-83.71224649999998,41.6930445,Denise Schwartz,54766136,2020-05-21 02:42:43,"Toledo, OH",city,"Sylvania, OH",United States
47900,-77.02181999999999,38.89699,Paul Gabbard,54766253,2020-02-15 00:20:40,"Rockville, MD",city,"Washington, DC",United States
17140,-84.6426,38.9932,Paul Gabbard,54766253,2020-02-22 22:16:09,"Rockville, MD",city,"Florence, KY",United States
47900,-77.14833333,39.08361111,Paul Gabbard,54766253,2020-02-27 00:58:05,"Rockville, MD",city,"Rockville, MD",United States
16740,-80.84333333,35.22694444,Step4life Avon Representative,547662671,2020-02-14 21:14:03,"Charlotte, NC",city,"Charlotte, NC",United States
82,79.0327905,20.9882585,Abhilash Tiwari,547662711,2020-05-05 15:32:30,"Nagpur, India",city,"Nagpur, India",India
205,-0.4323375,51.8944435,Steve Smart,547662788,2020-04-08 07:59:41,buckinghamshire ,city,"Luton, England",United Kingdom
175,42.7768635,18.350106, ,547663375,2020-03-24 21:32:56,,city," ,   ",  
21,-49.329679999999996,-24.11254,Leandro Henrique,54766356,2020-04-09 01:51:24,"Itarar, Brasil",city,"Itarar, Brasil",Brasil
40420,-89.0175665,42.2571455,alyssa,547663617,2020-02-15 00:53:31,rockford,city,"Rockford, IL",United States
27260,-81.265275,29.7948635,Gene Turnbull,54766370,2020-03-08 18:51:27,,city,"Butler Beach, FL",United States
26900,-86.13244850000002,39.963249499999996,Gene Turnbull,54766370,2020-04-03 22:47:52,,city,"Carmel, IN",United States
222,110.4050255,-7.712573,fredy putra,547664165,2020-02-16 09:31:12,,city,"Ngaglik, Indonesia",Indonesia
205,-1.4835,53.5512,David Markwell,5476642,2020-02-16 20:05:15,"Barnsley, South Yorkshire.",city,"Barnsley, England",United Kingdom
200,34.045552,37.470222,ali,547664566,2020-03-16 11:42:40,"Antalya, Trkiye",poi,Ereli  Yeni  Devlet Hastanesi,Trkiye
175,39.2541285,21.5857105,Ashjan| ,547664644,2020-02-14 08:58:32,Jeddah-Saudi Arabia,city,",   ",  
88,136.227273,35.52100400000001,,547664780,2020-03-19 21:07:04, ,city, ,
88,135.192364,34.695576,,547665336,2020-03-15 04:52:12,,poi, ,
222,107.12183700000001,-6.929786999999999,SalapanBelasTiluTilu,547665411,2020-05-20 06:21:09,Cianjur,city,"Cibeber, Indonesia",Indonesia
205,-1.5186514999999998,52.411913,Jaz C,547665421,2020-03-29 22:35:37,"Coventry, England",city,"Coventry, England",United Kingdom
33100,-80.1418,26.1358,Jessie Barocas,547665945,2020-04-11 20:19:40,"Florida, USA",city,"Fort Lauderdale, FL",United States
222,112.787425,-7.270583999999999,,547666188,2020-02-14 15:27:21,,city,"Mulyorejo, Indonesia",Indonesia
171,125.4432615,7.317582499999999,Marc Calumpit,547666605,2020-02-14 10:33:16,PH,city,"Davao City, Davao Region",Republic of the Philippines
35620,-74.26299,40.7913595,belinda McDowell,547666677,2020-02-16 17:10:42,NEW JERSEY,city,"West Orange, NJ",United States
225,55.141415,25.07206,Muange,547666715,2020-05-28 07:23:09,,poi,Saba Tower 1,United Arab Emirates
85,9.16675,45.67416,Francsca,547666729,2020-03-14 19:58:10,,city,"Cabiate, Lombardia",Italia
205,-3.1312335,53.244556,Ian Edwards,547666797,2020-03-12 22:25:38,,city,"Flint, Wales",United Kingdom
8,-58.9846755,-27.452821500000002,Laura Michel,547666876,2020-03-10 23:23:20,Chaco,city,"Resistencia, Argentina",Argentina
186,-3.93333,38.9833,Animados,547666904,2020-04-01 10:12:52,Tomelloso,city,"Ciudad Real, Espaa",Espaa
160,-77.10884501,-12.02237542,Claudio Morgan,54766716,2020-03-15 04:39:09,Lima - Peru,city,"Callao, Peru",Peru
193,100.499084,13.699117000000001, ,547667592,2020-03-14 16:07:46,"exo -bhy ks , nct -nm jd  ",poi,Tangible,
65,6.3895075000000014,45.306551,favier jean francois,547667721,2020-04-27 05:46:48,,city,"Hermillon, France",France
171,120.96262050000001,14.115378,k,547667778,2020-02-14 13:06:03,"Dumaguete City, Central Visayas",city,"Tagaytay, Calabarzon",Republic of the Philippines
189,17.980058999999994,59.333671,Leif Vinterbacke,547668025,2020-02-21 15:45:51,Stockholm,city,"Stockholm, Sverige",Sverige
58,14.465875500000001,50.05958,happy little elf,547668112,2020-02-19 13:55:17,"London, England",city,"Prague, Czech Republic",Czech Republic
45220,-84.26617399999999,30.4762155,Cassie Heim,547668190,2020-03-01 04:41:38,,city,"Tallahassee, FL",United States
82,77.5925067,12.8858838,Mithun M Jagadeesh,547668419,2020-02-17 12:24:21,Bengaluru,city,"Bengaluru South, India",India
47900,-77.09899999999999,38.9833,Skip Yeager,547668630,2020-04-03 04:25:28,"Bethesda, MD",city,"Bethesda, MD",United States
205,-0.14893599999999999,51.500091999999995,Hugo Timmerman,547668880,2020-02-27 09:54:39,"London, England",city,"London, England",United Kingdom
65,2.2010705,48.9700285,Dominique MENIGAULT,547668883,2020-02-15 11:17:59,,city,"Cormeilles-en-Parisis, France",France
222,112.505275,-7.725875500000001,koezar kazier,54766910,2020-03-04 04:24:05,"pacet city, mojokerto",city,"Pacet, Indonesia",Indonesia
205,-2.236312,53.467503,sophie,547669447,2020-03-03 19:38:41,manchester,city,"Manchester, England",United Kingdom
21,-51.1593095,-30.099836, Doug Manara ,54766959,2020-02-15 21:48:08,Porto Alegre - RS,city,"Puerto Alegre, Brasil",Brasil
21,-47.057221999999996,-22.900833,Luis Roberto de Castro Rios,54766969,2020-03-09 00:50:30,Brazil,city,"Campinas, Brasil",Brazil
120,101.7874095,3.0549095,Jazlan Zakirin,547669789,2020-03-15 10:12:51,Nusantara / Malay Archipelago,city,"Cheras, Selangor",Malaysia
119,-99.1694,19.4125,Abrajam,54766990,2020-03-04 03:00:01,MX City,city,"Cuauhtmoc, Distrito Federal",Mexico
46300,-114.42199029999999,42.5544029,Rick,547670063,2020-03-19 14:18:59,"Sadly, Idaho",city,"Twin Falls, ID",United States
193,100.704814,13.888207500000002,Pong_Sootthi2612,547670169,2020-02-15 01:25:56,", ",city,"Sam Wa Tawan Tok, Thailand",Thailand
25940,-80.704173,32.445972,B. Reid MR. BBNP,54767040,2020-06-02 23:40:27,"Lowcountry, USA ",city,"Beaufort, SC",United States
222,108.5774615,-6.732588499999999,M Ridwan Habibie H S,547670800,2020-02-23 14:32:28,Indonesia,city,"Lemahwungkuk, Indonesia",Indonesia
21,-46.5955455,-23.682803,Leonardo Alves,54767106,2020-04-17 02:52:15,"So Paulo, Brasil",city,"So Paulo, Brasil",Brasil
16980,-87.632496,41.883221999999996,Weekend Hockey,547671175,2020-02-18 19:19:58,"Oakville, ON, Canada",city,"Chicago, IL",United States
29820,-115.149,36.1675,Weekend Hockey,547671175,2020-02-20 21:48:14,"Oakville, ON, Canada",city,"Las Vegas, NV",United States
38300,-79.9975,40.4411,Weekend Hockey,547671175,2020-02-23 00:31:57,"Oakville, ON, Canada",city,"Pittsburgh, PA",United States
24,-73.5744,45.5038,Weekend Hockey,547671175,2020-02-24 19:27:17,"Oakville, ON, Canada",city,"Montral, Qubec",Canada
29820,-115.32904739,36.15392791,Weekend Hockey,547671175,2020-03-11 15:25:46,"Oakville, ON, Canada",city,"Summerlin South, NV",United States
40140,-117.603783,34.0451585,Weekend Hockey,547671175,2020-03-13 01:06:58,"Oakville, ON, Canada",city,"Ontario, CA",United States
193,100.917612,14.531716000000001,.. ,547671303,2020-02-21 12:45:33,,city,", ",
120,102.3623425,3.414675,Syaf,547671452,2020-04-08 18:55:44,,city,"Perak, Pahang",Malaysia
88,139.62155,35.9181936,,547671961,2020-03-12 17:05:43,,city,  ,
85,13.816157500000001,41.994715500000005,Gole del Sagittario,547672017,2020-03-01 18:33:27,Anversa degli Abruzzi,city,"Anversa degli Abruzzi, Abruzzo",Italia
82,74.8553056,12.8474814,Jaison lobo,547673055,2020-03-02 08:11:47,,city,"Mangalore, India",India
49,-78.43930399999998,-0.399117,Matt BDL,547673635,2020-04-07 02:56:17,,city,"Rumiahui, Ecuador",Ecuador
21,-51.2208,-30.0291,tathi,54767375,2020-04-27 18:24:54,Porto Alegre - RS,city,"Porto Alegre, Brasil",Brasil
205,-0.134375,52.550644999999996,K Bailey,547674180,2020-04-07 08:28:51,Fenland ,poi,Ramsey Road Railway Crossing,United Kingdom
21,-54.91842,-30.247090000000004,Ivan oliveira. ,547674206,2020-03-24 16:34:36,,city,"Rosrio do Sul, Brasil",Brasil
12700,-69.96027778,41.68194444,LaBellesGeneralStore,547674447,2020-02-21 15:13:43,"Dennis Port, MA",city,"Chatham, MA",United States
19740,-104.8695335,39.8533665,Marte Billete$,54767445,2020-03-18 23:31:15,colorado,city,"Commerce City, CO",United States
57,14.569301000000001,48.20406,bernhard FF,547674796,2020-06-09 06:49:39,Obersterreich,city,"Sankt Pantaleon-Erla, sterreich",sterreich
186,-7.570630499999999,42.990628, ,547674920,2020-05-07 21:25:10,Galicia,city,"Lugo, Espaa",Espaa
82,81.6,27.58,TR RAGHUKUL ,547674980,2020-04-10 02:26:26,  ,city,"Bahraich, India",India
21,-43.959822499999994,-19.918692,Jonair Ferreira da c,547675066,2020-04-02 01:26:48,,city,"Belo Horizonte, Brasil",Brasil
38,-74.24367099999999,4.2622835,Sandra Morelli,547675123,2020-05-30 15:15:09,,city,"Bogot, D.C., Colombia",Colombia
222,106.989962,-6.2489040000000005,Yola,547675316,2020-03-13 12:48:32,,poi,Ichiban Sushi,Indonesia
88,139.7091805,35.701657,kyonpy,547675463,2020-03-13 04:39:50,,city, ,
31080,-117.89,33.8362,Brianna.,54767552,2020-02-14 19:16:29,"La Mirada, CA",city,"Anaheim, CA",United States
40140,-117.561,33.9271,Brianna.,54767552,2020-02-23 20:24:11,"La Mirada, CA",city,"Norco, CA",United States
31080,-118.28462362,34.01264908,Brianna,54767552,2020-03-09 00:47:47,"La Mirada, CA",city,"Los Angeles, CA",United States
222,106.63601000000001,-6.17236,Fitri ummu Lintang,547675599,2020-04-14 00:47:04,Dki jakarta,city,"Tangerang, Indonesia",Indonesia
45900,-84.6868915,45.0139315,Rik Ponstein,547675939,2020-03-07 17:54:27,,city,"Gaylord, MI",United States
35620,-74.288077,40.216589,JC5,54767662,2020-02-15 22:38:48,United States,city,"West Freehold, NJ",United States
178,28.200209100000002,-25.75051222,Simiso Manatha,547676952,2020-03-20 05:57:36,Cape Town,city,"Pretoria, South Africa",South Africa
65,2.347003,48.8588335,Cynthia M,547677256,2020-02-23 01:20:20,+32 ,city,"Paris, France",France
205,-0.0601675,51.5476445,Daria Kwiatkowska,547678109,2020-02-22 21:54:58,"London, England",city,"Hackney, London",United Kingdom
188,32.5450035,15.5244125,Emam-B ,547678384,2020-02-14 09:09:03,Khartoum,city,Khartoum,
152,4.823673,52.426408,Mowaffaq Tahir Personal Training,547678456,2020-04-08 13:24:09,"Amsterdam, the Netherlands",poi,Brug Cornelis bruynzeelweg,The Netherlands
24,-79.62303,43.51786,Kathryn,54767857,2020-02-22 03:20:27,"Mississauga, Ontario",city,"Mississauga, Ontario",Canada
35620,-74.18995849999997,40.9623625,DPA,547678840,2020-03-23 13:13:41,,city,"North Haledon, NJ",United States
171,121.06163303,14.58622281,Rix,54767904,2020-02-24 13:01:07,"Cabuyao, Calabarzon",city,"Pasig City, National Capital Region",Republic of the Philippines
205,-0.9820305,51.452524,Jack Barker,547679617,2020-03-12 20:33:55,,city,"Reading, England",United Kingdom
8,-58.013021499999994,-34.9363185,,547680047,2020-05-20 04:31:13,"La Plata, Argentina",city,"La Plata, Argentina",Argentina
119,-99.5799145,19.251530499999998,Jerry_1801,547680401,2020-02-23 00:40:43,"Cuauhtmoc, Distrito Federal",city,"Metepec, Mxico",Mxico
8,-58.9846755,-27.452821500000002,Disappointment,547680500,2020-06-06 05:57:26,Argentina,city,"Resistencia, Argentina",Argentina
175,39.2541285,21.5857105,,547680765,2020-02-29 19:20:02,,city,",   ",  
85,13.0132,43.842690000000005,GILEZ,547680884,2020-04-16 18:42:40,,city,"Fano, Marche",Italia
205,-3.07106386,53.56579613,Steph Johnson - ,547680999,2020-05-12 21:12:37,SB Shop Moor Ln Crosby L23 2SF,city,"Formby, England",United Kingdom
88,137.734972,34.704012,,547681051,2020-05-01 10:51:02,(:3[_____],poi, (Hamamatsu Sta.),
205,-0.858209,52.2178465,Lizbet Saints John,547681332,2020-03-05 08:24:20,"Rushden, Northamptonshire, UK",city,"Brackmills, England",United Kingdom
222,98.936719,2.7204479999999998,BP2LHK Aek Nauli,547681391,2020-02-14 06:23:32,Sumatera Utara,poi,Balai Penelitian & Pengembangan Kehutanan Aek Nauli,Indonesia
222,107.6394136,-6.8972375,ki,547681440,2020-04-13 07:43:40,"Kota Bandung, Jawa Barat",city,"Cibeunying Kaler, Indonesia",Indonesia
26580,-82.286058,38.4058475,Nancy Price,547681571,2020-06-03 19:49:31,"Charleston, WV",city,"Barboursville, WV",United States
16620,-81.82866700000001,38.378871999999994,Nancy Price,547681571,2020-06-05 17:32:16,"Charleston, WV",city,"St Albans, WV",United States
41860,-122.43597849999999,37.7706565,cameron,547682420,2020-02-19 01:25:00,"San Francisco, CA",city,"San Francisco, CA",United States
200,36.9276755,37.5606085,AkPartiDulkadirolu,547682787,2020-03-31 14:56:24,KAHRAMANMARA,city,"Kahramanmara, Trkiye",Trkiye
179,27.519092999999998,-29.341151,,547682917,2020-02-15 17:30:10, ,poi,Queen Mamohato Memorial Hospital,Lesotho
28700,-81.9685235,36.709059,Coty,547682995,2020-02-16 04:24:03,"Tennessee, USA",city,"Abingdon, VA",United States
21,-47.342857,-2.981088,Mozeles Junior,547683138,2020-05-02 20:28:49,"Paragominas, Brasil",poi,Paragominas - Par,Brasil
32580,-98.152419,26.3475255,Brittnie Nicole,54768322,2020-02-16 20:53:46,,city,"Edinburg, TX",United States
39700,-97.778891,26.4761885,Brittnie Nicole,54768322,2020-02-18 20:22:25,,city,"Raymondville, TX",United States
15180,-97.630104,26.1225445,Brittnie Nicole,54768322,2020-02-24 14:12:33,,city,"San Benito, TX",United States
32580,-98.000235,26.1769615,Brittnie Nicole,54768322,2020-02-28 18:59:20,,city,"Weslaco, TX",United States
39700,-97.778891,26.4761885,Brittnie Nicole,54768322,2020-03-03 23:42:01,,city,"Raymondville, TX",United States
32580,-98.000235,26.1769615,Brittnie Nicole,54768322,2020-03-08 20:43:42,,city,"Weslaco, TX",United States
15180,-97.630104,26.1225445,Brittnie Nicole,54768322,2020-03-11 17:19:29,,city,"San Benito, TX",United States
39700,-97.778891,26.4761885,Brittnie Nicole,54768322,2020-03-13 23:32:21,,city,"Raymondville, TX",United States
15180,-97.7155825,26.196365,Brittnie Nicole,54768322,2020-03-17 14:54:43,,city,"Harlingen, TX",United States
39700,-97.778891,26.4761885,Brittnie Nicole,54768322,2020-03-19 00:10:42,,city,"Raymondville, TX",United States
15180,-97.7155825,26.196365,Brittnie Nicole,54768322,2020-04-30 15:13:35,,city,"Harlingen, TX",United States
39700,-97.778891,26.4761885,Brittnie Nicole,54768322,2020-05-01 21:45:19,,city,"Raymondville, TX",United States
15180,-97.7155825,26.196365,Brittnie Nicole,54768322,2020-05-22 19:32:19,,city,"Harlingen, TX",United States
32580,-98.152419,26.3475255,Brittnie Nicole,54768322,2020-05-24 22:41:58,,city,"Edinburg, TX",United States
39700,-97.778891,26.4761885,Brittnie Nicole,54768322,2020-05-28 17:35:01,,city,"Raymondville, TX",United States
32580,-98.000235,26.1769615,Brittnie Nicole,54768322,2020-05-31 21:11:58,,city,"Weslaco, TX",United States
39700,-97.778891,26.4761885,Brittnie Nicole,54768322,2020-06-02 22:53:36,,city,"Raymondville, TX",United States
222,106.72113799999998,-6.220018,Diah Ayu WN,547683597,2020-05-09 18:58:37,"Bekasi, Jawa Barat",city,"Ciledug, Indonesia",Indonesia
205,-3.0079355,53.874422499999994,James Faiers,547683877,2020-03-28 20:52:29,"North West, England",city,"Fleetwood, England",United Kingdom
186,-18.060184,27.729871000000006,Rayco Fdez,547683969,2020-02-28 06:45:55,"Islas Canarias, Espaa",city,"Frontera, Espaa",Espaa
65,4.2461175,45.4917085,Stefmo,547684442,2020-03-15 12:53:59,France,city,"Saint-Just-Saint-Rambert, France",France
242,121.172092,24.686929,,547684525,2020-05-05 22:30:06,,city,", ",
24,-79.616073,43.555244,Shad Gaspard,54768482,2020-02-16 06:49:57,"Los Angeles, CA",city,"Mississauga, Ontario",Canada
19100,-96.961483,32.863917,Shad Gaspard,54768482,2020-02-16 20:06:01,"Los Angeles, CA",city,"Irving, TX",United States
31080,-118.4119065,34.0207895,Shad Gaspard,54768482,2020-02-18 01:18:26,"Los Angeles, CA",city,"Los Angeles, CA",United States
9,150.931975,-33.848244,Ilana Baer,54768484,2020-02-22 23:14:03,,city,"Sydney, New South Wales",Australia
41860,-122.17466850000001,37.4619215,Ilana Baer,54768484,2020-04-26 06:01:12,,city,"Menlo Park, CA",United States
120,101.713121,3.1485849999999997,riz.,547684906,2020-02-14 09:54:45,unknown,poi,Pavilion Kuala Lumpur,Malaysia
222,112.80023100000001,-7.314341000000001,riz.,547684906,2020-02-16 14:15:38,unknown,city,"Rungkut, Indonesia",Indonesia
205,-0.0706035,51.464686,Hilary Dyer,547684951,2020-02-24 23:06:08,,city,"Camberwell, London",United Kingdom
71,11.516527,48.056687,Sara T.,547685191,2020-03-28 13:57:44,"Sant Cugat, Barcelona",city,"Pullach im Isartal, Deutschland",Germany
21,-53.3988335,-25.060762,Matheus Leonardo,547685567,2020-03-02 02:23:42,,city,"Cascavel, Brasil",Brasil
186,-2.6664,42.8504,KREAtupropioespacio,547685830,2020-04-05 08:10:27,"Pas Vasco, (ESP)",city,"Vitoria-Gasteiz, Espaa",Espaa
21,-46.5955455,-23.682803,Pietro,54768610,2020-05-17 20:26:16,Recife/PE,city,"So Paulo, Brasil",Brasil
27060,-76.490083,42.422271,CBridges,547686633,2020-02-19 13:46:59,"Loveland, CO",poi,Kelsey Partridge Bird Natatorium,United States
22660,-105.07490800000001,40.4093735,CBridges,547686633,2020-02-26 01:03:56,"Loveland, CO",city,"Loveland, CO",United States
19740,-105.068348,39.8992865,CBridges,547686633,2020-05-24 05:02:56,"Loveland, CO",city,"Westminster, CO",United States
171,121.30917429,14.60943666,JML,547686878,2020-02-14 03:40:54,Makati,city,"Tanay, Calabarzon",Republic of the Philippines
33,-70.66717650000002,-33.41537700000001,Victor Hugo,547687027,2020-06-07 23:07:06,,city,"Independencia, Chile",Chile
36740,-81.3894,28.5686,Brittany Collins,547687163,2020-03-05 00:35:21,"Orlando, FL",city,"Orlando, FL",United States
47900,-77.0143985,38.898603,Camilo Santa,54768791,2020-02-14 13:48:32,"Washington, DC",city,"Washington, DC",United States
119,-99.087817,19.4320755,Camilo Santa,54768791,2020-02-17 20:11:02,"Washington, DC",city,"Venustiano Carranza, Distrito Federal",Mexico
47900,-77.0143985,38.898603,Camilo Santa,54768791,2020-02-24 21:46:01,"Washington, DC",city,"Washington, DC",United States
38,-74.24367099999999,4.2622835,Camilo Santa,54768791,2020-03-17 17:51:30,"Washington, DC",city,"Bogot, D.C., Colombia",Colombia
175,50.148683,26.308958,Hadi AlMansour,547687952,2020-03-04 14:53:24,,poi,     | King Fahd University of Petroleum & Minerals,Kingdom of Saudi Arabia
82,74.48087100000002,15.882988500000002,Sagar Patil,547687986,2020-05-04 10:55:49,"Belgaum, India",city,"Belgaum, India",India
14010,-88.94627,40.52919,Jim Plachy,5476882,2020-02-17 00:14:52,"Naperville, IL",city,"Normal, IL",United States
82,76.86403100000001,18.511473000000002,Sushilkumar kendre,547688471,2020-04-04 12:50:37,"Chakur, India",poi,Chakur,India
222,106.82648999999999,-6.17148,Theo.ary,547688705,2020-05-30 12:43:58,"Cikarang, Indonesia",city,"Gambir, Indonesia",Indonesia
222,110.373706,-7.7683,17.48,547688721,2020-06-06 15:37:38,yogyakarta,poi,IGD RSUP Dr Sardjito,Indonesia
200,28.86180102,41.10667862,Enes Hraolu,547689768,2020-05-24 11:34:04,stanbul,city,"stanbul, Trkiye",Trkiye
41180,-90.247824,38.653771,Patricia Knight,54769004,2020-02-17 20:25:48,"St Louis, MO",city,"St Louis, MO",United States
88,139.4917695,35.4669035,,547690192,2020-02-15 10:47:22, ,city,  ,
48,-70.48835849999999,19.2011805,Christopher Rdz,547690420,2020-02-17 12:48:06,BasketballIsMyLife,city,"La Vega, Dominican Republic",Dominican Republic
161,68.204796,27.557851,Moolchand,547690641,2020-02-28 16:30:04,Larkana,poi,Larkana,Pakistan
119,-109.71746200000001,23.159266,Ren Velsquez,54769083,2020-03-12 17:36:54,"Los Cabos, Baja California Sur",poi,Aeropuerto Internacional de Los Cabos (SJD),Mexico
164,-7.914460000000001,38.569320000000005,Sar,547690870,2020-05-25 20:31:59,vora,city,"vora, Portugal",Portugal
12060,-84.05501799999998,34.093436,Steve Hardin,54769121,2020-05-24 17:56:10,,city,"Sugar Hill, GA",United States
82,77.3508815,28.3312135,S@m=Walker,547691374,2020-03-08 08:55:42,India,city,"Faridabad, India",India
19100,-96.9663,32.8471,Cavazos,547691589,2020-04-08 10:22:15,,city,"Irving, TX",United States
186,-6.2365735,43.4108395,Anton Fdez Garrido,547692222,2020-02-15 22:03:27,Salas,city,"Salas, Espaa",Espaa
65,1.064728,47.799431, Ocean ,547692550,2020-02-14 20:22:32,"Tours, France",city,"Vendme, France",France
200,28.954340999999996,40.226213,elif  rn,547693096,2020-02-25 08:30:51,"Bursa, Trkiye",city,"Nilfer, Trkiye",Trkiye
46520,-157.85584,21.29464,Adriel Villasin,54769327,2020-05-09 05:21:14,"Honolulu, HI",city,"Honolulu, HI",United States
88,138.95362891,37.2333786,,547693443,2020-03-07 02:16:24,,city, ,
82,73.910077,18.5081615,Shweta Shukla,547693778,2020-03-27 12:05:05,India,city,"Haveli, India",India
200,27.057862,40.0278775,isem ,547693934,2020-04-10 14:02:51,17 ve 59 ,city,"an, Trkiye",Trkiye
152,5.0827670000000005,52.08419,Ayfer,547694305,2020-03-13 14:05:08,"Istanbul, Turkey",city,"Utrecht, The Netherlands",The Netherlands
85,11.3514,44.5075,Marco Rubbi,547694339,2020-02-18 11:35:31,,city,"Bologna, Emilia Romagna",Italia
45300,-82.6631435,28.2182495,Mary Mekus,547695156,2020-02-14 20:13:50,Florida,city,"Seven Springs, FL",United States
26020,-103.147538,32.7417365,Ollie Thompson,547695161,2020-02-28 06:26:39,"London, England",city,"Hobbs, NM",United States
88,132.76988799999998,33.835584999999995,,547695280,2020-02-19 04:28:06,,poi,,
151,3.5996725,6.497681,C.,547695673,2020-03-03 12:14:42,Lagos nigeria,city,"Addo, Nigeria",Nigeria
21,-38.5026475,-12.8753345,Marcelo Ramos,54769610,2020-02-14 01:48:03,"Salvador, BAHA",city,"Salvador, Brasil",Brasil
39060,-76.2328465,40.7833785,la,547696405,2020-03-24 07:15:10,Frackville,city,"Frackville, PA",United States
200,29.0052225,41.0213205,Tolunay ,547697018,2020-02-19 22:12:34,,city,"stanbul, Trkiye",Trkiye
171,121.0627355,14.683012,Galoons,547697119,2020-02-14 09:41:25,MNL,city,"Quezon City, National Capital Region",Republic of the Philippines
88,137.889952,35.673911499999996,miyataro,54769738,2020-04-06 15:51:56,,city, ,
17140,-84.53981250000002,39.137038,Jacob Hammerle,547697387,2020-05-14 18:27:52,"Cincinnati, OH",city,"Cincinnati, OH",United States
50,31.172015999999996,30.981452, ,547697499,2020-04-06 21:12:51, -  - ,poi,Baladeyet El Mahalla Sporting Club,Egypt
19100,-97.01116800000001,32.655677999999995,Francisco Avila,547697604,2020-02-15 17:12:30,"Arlington, TX",city,"Lakeland Heights, TX",United States
222,106.9363825,-6.2931675,Egar Evanthy Azalia,54769761,2020-03-05 16:14:39,Indonesia,city,"Pondokgede, Indonesia",Indonesia
24,-73.723025,45.5578305,anglique,547698180,2020-02-20 23:28:41,,city,"Montral, Qubec",Canada
88,139.931051,35.715682,,547699165,2020-04-02 04:36:49,,city, ,
222,107.6158815,-6.8817675000000005,BIONG,547699177,2020-02-14 03:59:47,"Batam, Kepulauan Riau",city,"Coblong, Indonesia",Indonesia
35380,-90.0792395,30.4041695,James Hartman,547700672,2020-02-20 15:19:37,Mostly Louisiana. Hither & yon,city,"Mandeville, LA",United States
47260,-76.255686,36.895082,nimsaj,547700857,2020-02-24 18:39:05,norfolkstate,city,"Norfolk, VA",United States
47900,-77.3109195,38.6852235,nimsaj,547700857,2020-04-12 02:16:01,norfolkstate,city,"Lake Ridge, VA",United States
47260,-76.255686,36.895082,nimsaj,547700857,2020-04-30 00:39:52,norfolkstate,city,"Norfolk, VA",United States
119,-99.2480095,19.318042000000002,Mayerling Urdaneta,54770101,2020-02-24 14:40:44,"Polanco III Seccin, Miguel Hidalgo",city,"lvaro Obregn, Distrito Federal",Mxico
120,101.57849499999999,3.1565125,syzna ,547701012,2020-02-26 02:10:57,Kuala Lumpur,city,"Sungai Buloh, Selangor",Malaysia
49020,-78.16936150000002,39.167891,liz,54770172,2020-02-14 18:56:54,WV,city,"Winchester, VA",United States
222,110.52499294,-7.49226039,hamis daud cabang salatiga,547701942,2020-06-05 05:40:37,"Salatiga, Jawa Tengah",city,"Cepogo, Indonesia",Indonesia
21,-48.92989,-27.901659999999996,Lora,547702605,2020-02-17 01:21:40,Azm - SC,city,"So Bonifcio, Brasil",Brasil
21,-35.003737,-8.1485835,Saulo,54770298,2020-05-14 10:36:52,"Recife, Brasil",city,"Jaboato dos Guararapes, Brasil",Brasil
205,-0.727245,52.9318055,Melissa,547703002,2020-03-13 07:27:09,,city,"Sedgebrook, England",United Kingdom
186,-6.6277075,38.878299,lil oyoa,547703374,2020-04-07 11:32:13,(?),city,"Puebla de la Calzada, Espaa",Espaa
65,2.347003,48.8588335,Stphane RIOT,547703571,2020-02-20 22:21:03,Anywhere needed,city,"Paris, France",France
128,4.41911235,50.82642197,Stphane RIOT,547703571,2020-02-23 12:03:18,Anywhere needed,city,"Woluwe-Saint-Pierre, Belgique",Belgique
65,2.347003,48.8588335,Stphane RIOT,547703571,2020-02-23 14:14:57,Anywhere needed,city,"Paris, France",France
38,-74.07613277,4.59788874,Peter Gut,54770373,2020-03-31 22:11:04,COLOMBIA ,city,"Bogot, D.C., Colombia",Colombia
21,-48.814144,-28.604794000000002,Fabi Cercal,54770390,2020-04-18 17:55:52,"Florianopolis,SC",poi,Farol de Santa Marta,Brasil
17820,-104.8207,38.8301,Ionox,54770435,2020-02-22 16:07:58,"Colorado Springs, CO",city,"Colorado Springs, CO",United States
151,3.3297309999999998,6.642450999999999,DJBLAZE CANADIANE,547704692,2020-05-22 19:02:39,TORONTO  ONT CANADA,poi,"CHAPTERS HOTEL, Fagba-Iju, Lagos.",Nigeria
222,107.37720300000001,-6.352461,Alaydrus Imron Rosady,547704706,2020-02-14 16:04:06,Rock Bottom,city,"Klari, Indonesia",Indonesia
51,-8.3498705,53.6975265,Laura O'Dea,547705579,2020-02-14 13:28:15,Tullamore / Athlone ,city,"Roscommon, Ireland",Ireland
55,-89.3158035,13.626873499999999,Mar Blanco,547705714,2020-06-01 17:21:54,San salvador,city,"Antiguo Cuscatlan, El Salvador",El Salvador
164,-8.545195499999998,40.51472800000001,L O R D ,547705782,2020-02-14 13:11:16,where the free food is ,city,"Oliveira do Bairro, Portugal",Portugal
85,9.1593365,45.461345,Marco Cagnolati,547706175,2020-03-02 06:58:39,Milano ,city,"Milano, Lombardia",Italia
48,-70.2799385,18.887525, Beyker Marte ,547706190,2020-03-05 11:16:06,"Puerto Plata, Dominican Republ",city,"Maimn, Dominican Republic",Dominican Republic
35840,-82.553564,27.388664000000002,Melanie Padgett Powers,54770635,2020-02-28 16:23:38,"Washington, DC",poi,Sarasota-Bradenton International Airport (SRQ),United States
47900,-77.10199899999999,38.8808445,Melanie Padgett Powers,54770635,2020-02-28 19:13:15,"Washington, DC",city,"Arlington, VA",United States
17140,-85.012341,39.424632,Melanie Padgett Powers,54770635,2020-03-04 19:43:41,"Washington, DC",poi,Brookville Public Library,United States
24700,-85.230278,39.2977595,Melanie Padgett Powers,54770635,2020-03-04 20:36:49,"Washington, DC",city,"Batesville, IN",United States
17140,-85.00541199999999,39.4240875,Melanie Padgett Powers,54770635,2020-03-05 13:49:16,"Washington, DC",city,"Brookville, IN",United States
12580,-76.70463149999999,39.154153,Melanie Padgett Powers,54770635,2020-03-06 00:29:12,"Washington, DC",city,"Severn, MD",United States
47900,-77.02038999999998,39.039832,Melanie Padgett Powers,54770635,2020-03-07 02:15:19,"Washington, DC",city,"Kemp Mill, MD",United States
17140,-85.010013,39.410185999999996,"Melanie ""Flatten the Curve!"" Padgett Powers",54770635,2020-05-16 21:30:26,"Washington, DC",poi,Skyline Chili,United States
36420,-97.4451735,35.222301,Adrienne Wootten,547706953,2020-02-18 13:39:35,,city,"Norman, OK",United States
8,-60.45,-26.7833,Katiiiiii,547707246,2020-03-02 15:46:26,,city,"Comandante Fernndez, Argentina",Argentina
205,-3.3223190000000002,55.89463249999999,Sally McEwan,547708015,2020-02-14 02:31:46,,city,"Currie, Scotland",United Kingdom
222,110.3168365,-7.8147389999999985,M A R I A A R I,547708141,2020-03-30 02:39:52,jogja,city,"Kasihan, Indonesia",Indonesia
82,77.550599,28.499759,Anureet Singh,547708167,2020-05-23 17:45:10,Delhi,city,"Greater Noida, India",India
33460,-93.2620465,44.9706105,Jack Flynn,54770824,2020-02-14 00:48:58,Keep The Faith |6-19-13|,city,"Minneapolis, MN",United States
41940,-121.8737305,37.331159,Jack Flynn,54770824,2020-02-21 21:52:41,Keep The Faith |6-19-13|,city,"San Jose, CA",United States
33460,-93.2620465,44.9706105,Jack Flynn,54770824,2020-03-09 02:23:18,Keep The Faith |6-19-13|,city,"Minneapolis, MN",United States
14380,-81.657895,36.215092,Gracie,547708324,2020-02-22 05:41:28,"North Carolina, USA",city,"Boone, NC",United States
49180,-80.38644049999998,36.0042715,Gracie,547708324,2020-03-12 02:17:56,"North Carolina, USA",city,"Clemmons, NC",United States
14380,-81.657895,36.215092,Gracie,547708324,2020-04-09 22:04:34,"North Carolina, USA",city,"Boone, NC",United States
49180,-80.38644049999998,36.0042715,Gracie,547708324,2020-04-15 03:29:59,"North Carolina, USA",city,"Clemmons, NC",United States
88,139.70708214,35.67933751,NAKANO Yoshifumi,54770833,2020-02-28 08:37:59,4-22-4 2F,city, ,
74,-90.513611,14.642717999999999,Arlen Vado Coach,54770851,2020-05-02 08:05:01,Cd. Guatemala,poi,Ciudad de Guatemala,Guatemala
88,135.397441,34.663503999999996, ,547708569,2020-02-26 03:02:26,,poi,,
171,120.970078,14.594470000000001, |,547708803,2020-02-14 10:28:45,No where,poi,Fort Santiago,Republic of the Philippines
151,5.780844,5.551759499999998,Nicholas klintin,547709094,2020-05-08 07:39:39,|akir Nation,city,"Warri, Nigeria",Nigeria
28940,-83.9222,35.9269,seva,54770931,2020-02-14 16:35:28,"Knoxville, TN",city,"Knoxville, TN",United States
242,121.74406100000002,25.128954,,547709492,2020-02-22 12:36:44,,poi,,Taiwan
88,138.25992150000002,35.297816999999995,,547709492,2020-02-28 00:19:49,,city,"Aoi-ku, Shizuoka",Japan
17140,-84.517077,39.0299405,LINDSY LOZIR,54770952,2020-02-14 05:35:12,"Indiana, USA",city,"Covington, KY",United States
31140,-85.939634,38.284183500000005,LINDSY LOZIR,54770952,2020-02-15 06:27:51,"Indiana, USA",city,"Georgetown, IN",United States
21,-47.099924,-23.533925,Vander Luiz,54770970,2020-03-08 15:02:54,Brasil,city,"So Roque, Brasil",Brasil
33100,-80.143101,26.072626,el.puas(),54770984,2020-02-27 10:30:51,Costa Rica,poi,Fort Lauderdale-Hollywood International Airport (FLL),United States
152,4.8982,52.3769,Chung Wah Man,54770998,2020-05-22 18:52:50,,city,"Amsterdam, The Netherlands",The Netherlands
29820,-115.2344355,36.0188045,Jake Namisnak,547710269,2020-03-03 00:19:48,,city,"Enterprise, NV",United States
26900,-86.1429225,39.7795625,Jake Namisnak,547710269,2020-04-23 01:59:22,,city,"Indianapolis, IN",United States
120,100.398625,5.975541000000001,wanderlea,547710581,2020-03-14 06:10:50,Malaysia,poi,Kota Sarang Semut,Malaysia
222,107.28262099999999,-6.329530999999999,ade faizal,547710893,2020-05-13 15:32:20,Timur Bekasi,poi,Perumnas Bumi Teluk Jambe,Indonesia
45300,-82.56932900000001,27.981647,SmartPhone Solutions,547710942,2020-04-23 01:53:54,Carr 7 Esq Calle 16 Guanare,poi,Audubon Village Apartments,Estados Unidos
211,-69.748,9.043,SmartPhone Solutions,547710942,2020-04-23 14:20:29,Carr 7 Esq Calle 16 Guanare,city,"Guanare, Venezuela",Venezuela
45300,-82.5873885,28.004172500000006,SmartPhone Solutions,547710942,2020-05-10 20:28:08,Carrera 7 Esq Calle 16 Guanare,city,"Town 'n' Country, FL",Estados Unidos
88,135.17852950000002,33.8826065,asami,547711225,2020-04-17 11:45:04,,city, ,
35840,-82.57859350000003,27.462474,Thoughts Of Truth ,54771130,2020-03-07 17:50:23,"Bradenton, Florida",city,"South Bradenton, FL",United States
16860,-85.242564,35.0919545,Billy Thomas,54771148,2020-02-15 00:35:51,Chattanooga TN,city,"Chattanooga, TN",United States
19100,-97.2859135,32.7799665,Jamie Thomas,547712006,2020-02-20 01:26:11,"Fort Worth, TX",city,"Fort Worth, TX",United States
35620,-73.9685415,40.780709,Bruce Fancher,5477122,2020-03-25 21:47:13,"Manhattan, NY",city,"Manhattan, NY",United States
9,145.0531355,-37.9725665, ,547712825,2020-05-24 17:13:56,"Melbourne, Victoria",city,"Melbourne, Victoria",Australia
96,48.0129795,29.297036,,547713108,2020-05-03 04:24:30,Kuwait ,city,"Al Salam, Kuwait",Kuwait
186,-1.266354,38.056422999999995,Dekotale,547713781,2020-05-23 09:53:30,Lesbiania,city,"Alguazas, Espaa",Espaa
171,120.9839865,14.5914565,Veronica,547714450,2020-02-14 23:57:58,,city,"Manila City, National Capital Region",Republic of the Philippines
175,39.2541285,21.5857105,   ,547714523,2020-03-11 18:31:25,Damascus_jeddah_Beirut,city,",   ",  
175,46.66707,24.816727, ,547715994,2020-03-16 08:44:19,Riyadh,poi,STC,  
158,176.244503,-37.697833,D-R-E-Y,547716023,2020-02-17 00:06:01,"Auckland Region, New Zealand",city,"Tauranga City, New Zealand",New Zealand
222,112.731277,-7.248433,Faridsyh,547716050,2020-02-14 06:10:21,"Kota Surabaya, Jawa Timur",poi,Stasiun Surabaya Pasar Turi,Indonesia
222,120.36936199,-3.38353112,NovanitaD.Uriapadang,547716888,2020-05-18 12:29:14,Indonesia,city,"Belopa, Indonesia",Indonesia
19820,-83.157747,42.507218,Kevin Scheibert,547716948,2020-03-21 15:17:54,,city,"Royal Oak, MI",United States
33220,-84.383675,43.72312,Kevin Scheibert,547716948,2020-05-23 03:49:14,,city,"Sanford, MI",United States
19820,-83.157747,42.507218,Kevin Scheibert,547716948,2020-06-05 00:13:42,,city,"Royal Oak, MI",United States
21,-46.5955455,-23.682803,Brambilla +,54771717,2020-04-03 05:59:04,So Paulo - SP,city,"So Paulo, Brasil",Brasil
178,22.479803,-33.96568499999999,Noem_my_scholly,547717194,2020-03-26 18:20:27,"George, South Africa",city,"George, South Africa",South Africa
222,116.0976805,-8.5875655,hasan romadhon,547717304,2020-05-06 18:08:03,Indonesia,city,"Ampenan, Indonesia",Indonesia
21,-42.71532,-13.77374,Aline Azevedo,547717309,2020-02-21 16:16:15,"Matina, Bahia",city,"Igapor, Brasil",Brasil
82,77.713675,29.5363385,Anurag Arora,547717975,2020-03-27 15:03:07," Mzn,Del,Doon ",city,"Muzaffarnagar, India",India
205,-2.23348,53.4569525,Elhdrond,547719574,2020-02-14 18:47:23,"Manchester, England",city,"Manchester, England",Reino Unido
222,110.84480649999999,-7.562927500000002,FeB,547719933,2020-03-07 15:50:30,Ngayogyakarta Hadiningrat,city,"Pasar Kliwon, Indonesia",Indonesia
19100,-96.848038,33.047959999999996,olivia nahas,547720230,2020-04-17 04:45:30,Florida State University ,poi,Arbor Hills Nature Preserve,United States
31540,-90.3823855,43.3386865,Cortneyy,54772030,2020-04-17 22:53:53,Wisconsin,city,"Richland Center, WI",United States
21,-46.6995,-23.56,Mtheus atista,54772064,2020-02-16 00:10:47,"Sao Paulo, Brazil",city,"Sao Paulo, Brazil",Brazil
36740,-81.28080800000002,28.2204455,Ricky Booth,54772124,2020-05-10 14:08:59,"St. Cloud, FL",city,"St Cloud, FL",United States
37340,-80.73763249999999,28.258804,Ricky Booth,54772124,2020-05-30 12:07:58,"St. Cloud, FL",city,"Viera West, FL",United States
36740,-81.58626,28.565859999999997,Ricky Booth,54772124,2020-06-08 23:03:26,"St. Cloud, FL",city,"Winter Garden, FL",United States
39300,-71.47107199999998,41.4312355,Amy Marcello,54772179,2020-03-08 22:17:05,,city,"Narragansett, RI",United States
175,46.685077,24.7219435,  ,547722223,2020-03-15 17:04:36,"Paris, France",city,",   ",  
205,-0.1937195,51.4516565,Jacob Gowler,547722476,2020-02-14 09:45:06,Where ever the show takes me. ,city,"Wandsworth, London",United Kingdom
175,39.2541285,21.5857105, ,547722485,2020-05-09 20:20:17,,city,",   ",  
33100,-80.4353215,25.633051,Ozzie_OV,54772266,2020-06-05 21:53:09,"Florida, USA",city,"Country Walk, FL",United States
47900,-77.3063733,38.8462236,TMJ-VAF R-Est Jobs,54772274,2020-02-15 19:47:55,"Fairfax, VA",city,"Fairfax, VA",United States
205,-2.0877745,51.8963135,O Antonious,547723098,2020-02-16 09:49:26,Gloucestershire,city,"Cheltenham, England",United Kingdom
175,50.087574,26.404190000000003, ,547723121,2020-02-27 12:13:48,"
",poi,Imam Abdulrahman Bin Faisal University (IAU),  
24,-75.313478,45.26912950000001,Bertjolabo,54772362,2020-05-31 03:09:50,,city,"Russell, Ontario",Canada
175,39.57795,24.4628,Fadi Fahad |  ,547724338,2020-02-20 18:29:22, ,poi,Business Hub,  
65,1.0912024999999999,49.441207500000004,Didier DURMARQUE,547724515,2020-03-06 13:25:17,ROUEN,city,"Rouen, France",France
222,104.747909,-2.9526060000000003,aby sofyan,547724626,2020-05-04 14:21:30,"Kota Palembang, Sumatera Selat",city,"Kemuning, Indonesia",Indonesia
13820,-86.741158,33.4513005,Cahaba Riverkeeper,54772475,2020-02-14 18:11:04,"Birmingham, AL",city,"Vestavia Hills, AL",United States
88,140.75083999999998,38.276344, ,54772488,2020-02-16 01:06:22,,city, ,
205,-1.436691,51.222907,Ali Gill,547725092,2020-05-22 14:01:10,Basingstoke,poi,St Mary Bourne,United Kingdom
41860,-122.45269850000001,37.67877950000001,Kitty Van,54772521,2020-04-02 06:14:10,,city,"Daly City, CA",United States
222,111.554698,-6.8583425,Dwi agus_Hermanto,547725354,2020-03-06 14:35:28,Sale Rembang jawa tengah,city,"Sale, Indonesia",Indonesia
45,12.599278,55.692861,Lars Beck-Hald,547725368,2020-05-31 06:05:45,"Odense, Danmark",city,"Kbenhavn, Danmark",Danmark
21,-52.333895500000004,-31.561389000000002,Karen Francisco,547726069,2020-03-17 21:23:41,"Rio de Janeiro, Brasil",city,"Pelotas, Brasil",Brasil
175,46.1274725,25.128578, ,547726150,2020-02-15 20:27:18,",   ",city,",   ",  
41740,-117.10498899999999,32.810012,MJ,547726814,2020-02-15 02:09:50,,city,"San Diego, CA",United States
35620,-73.9487755,40.655138,$AV.AGE,54772693,2020-02-15 11:44:56,"Brooklyn, NY",city,"Brooklyn, NY",United States
71,6.773455599999999,51.2277411,TMJ-GER R-Est Jobs,54772797,2020-02-15 11:19:44,Germany,city,"Dsseldorf, Germany",Germany
21,-43.376828,-22.728707999999997,Diniz ,54772829,2020-02-14 01:35:03,No seu ,city,"Belford Roxo, Brasil",Brasil
186,-0.409267,39.503174,Jose luis cortes,547728624,2020-02-23 13:57:55,"valencia , spain",poi,"Campo de Futbol ""Los Silos""",
35620,-73.64572931,40.65676175,New York Raider,54772881,2020-02-23 02:55:37,"Merrick, NY",city,"Rockville Centre, NY",United States
71,13.4246065,52.506701,Sahra,547728832,2020-05-26 10:09:19,Deutschland/Germany,city,"Berlin, Deutschland",Deutschland
186,1.4236605,38.910337,Jonatan Carrillo,547729179,2020-03-01 14:29:37,"Isla Cristina, Espaa",city,"Eivissa, Espaa",Espaa
88,132.44895200000002,34.3857005,,547729454,2020-04-15 13:37:40,,city,  ,
82,72.82174471,18.94569866,Sanket Kude,547729566,2020-02-19 03:36:07,"Mumbai , India",city,"Mumbai, India",India
29820,-115.03833700000001,36.006256,Zach,54772957,2020-04-08 02:54:00,"Boston, Mass",city,"Henderson, NV",United States
186,-3.68333,40.4,Simon  ,547729835,2020-02-16 15:05:49,,city,"Madrid, Espaa",Espaa
9,138.61115999999998,-35.000767,Richard Watkins,547729998,2020-02-24 23:05:35,"London, UK",city,"Adelaide, South Australia",Australia
205,-0.2960275,51.817833,Richard Watkins,547729998,2020-03-25 11:01:11,"London, UK",city,"Wheathampstead, East",United Kingdom
33,-70.63538700000002,-33.405859,Berny,54773027,2020-03-04 21:57:56,Chile,city,"Recoleta, Chile",Chile
35620,-74.00594129999999,40.7127837,TMJ-NYC R-Est Jobs,54773115,2020-02-14 17:53:47,"New York, NY",city,"Manhattan, NY",United States
24,-79.3872,43.648,Sakina Fatehi,547731423,2020-04-04 18:34:01,"Toronto, Ontario",city,"Toronto, Ontario",Canada
200,30.680889,36.89007,murat gcel,547732505,2020-05-11 20:35:55,"Antalya, Trkiye",city,"Antalya, Trkiye",Trkiye
42220,-122.699418,38.343445,Kimberly Gray-Crouse,54773309,2020-02-17 04:04:21,"California, USA",city,"Rohnert Park, CA",United States
47380,-97.1691565,31.547449,Kimberly Gray-Crouse,54773309,2020-03-01 15:09:50,"California, USA",city,"Waco, TX",United States
42220,-122.699418,38.343445,Kimberly Gray-Crouse,54773309,2020-03-06 15:01:12,"California, USA",city,"Rohnert Park, CA",United States
17900,-80.953992,34.085260999999996,Maria Calloway,547734014,2020-06-11 12:33:53,North Carolina,city,"Dentsville, SC",United States
186,-3.681887,37.15764299999999,DeveLopez,547734015,2020-03-05 23:16:25,,city,"Cllar Vega, Espaa",Espaa
26420,-95.4464865,29.838495,mando,547734067,2020-02-25 20:49:07,"Houston, TX",city,"Houston, TX",United States
38,-72.501103,7.9199399999999995,sandra milena florez,547734331,2020-03-31 02:34:27,CUCUTA,poi,Cucuta Norte De Santander,Colombia
35620,-73.708745,40.703539500000005,Bryan K,547734721,2020-03-08 11:27:27,Greater Boston Area,city,"Elmont, NY",United States
14460,-71.5507035,42.3458205,Bryan K,547734721,2020-03-10 12:10:09,Greater Boston Area,city,"Marlborough, MA",United States
120,101.68627675,3.05871471,Tourism Malaysia - Americas,54773476,2020-05-19 17:43:58,"Los Angeles, CA",city,"Petaling, Wilayah Persekutuan Kuala Lumpur",Malaysia
88,130.97350799999998,34.142483,,547734852,2020-02-25 22:42:34,,city, ,
16740,-80.8467855,35.209059,March 19th,54773488,2020-02-15 07:07:45,"Charlotte, NC",city,"Charlotte, NC",United States
91,36.9167,-1.2166700000000001,Doris Muchiri,547735304,2020-03-26 15:36:58,"Nairobi, Kenya",city,"Nairobi, Kenya",Kenya
24,-77.11088259999998,45.826651299999995,TMJ-CAN R-Est Jobs,54773547,2020-02-14 00:49:40,Canada,city,"Pembroke, Ontario",Canada
49,-79.955564,-1.9199075,Felix Marcial Rivas Cerezo,547735747,2020-04-11 13:36:06,ecuador,city,"Daule, Ecuador",Ecuador
178,18.6667,-33.9333,The Tall Guy ZA,547735836,2020-03-30 14:30:46,"Cape Town, South Africa",city,"Kuils River, South Africa",South Africa
200,28.985922,41.037949,nevzat ylmaz,547736117,2020-04-13 21:01:58,,city,"Mula, Trkiye",Trkiye
38060,-112.08862649999999,33.834852000000005,donna hurd,547736219,2020-03-14 06:30:22,"Cave Creek, AZ",city,"Anthem, AZ",United States
21,-47.8,-21.1667,Stfani Alves,54773673,2020-05-09 15:13:05,"Ribeiro Preto, Brasil",city,"Ribeiro Preto, Brasil",Brasil
175,43.475961,25.9978485, ...,547736897,2020-02-15 16:14:44,",   ",city," ,   ",  
173,37.18703579,55.83910891,,547737511,2020-02-15 08:19:38,,city,", ",
171,121.10789,14.834314000000001,Lorenzo Von Matterhorn,547737515,2020-02-23 02:35:44,Republic of the Philippines,poi,Padre Pio Mountain Of Healing,Republic of the Philippines
31080,-118.130426,33.937673499999995,Raymond Tapia,54773803,2020-02-16 02:17:50,"Los Angeles, CA",city,"Downey, CA",United States
119,-99.153366,19.432835999999998,Raymond Tapia,54773803,2020-03-01 20:34:39,"Los Angeles, CA",city,"Cuauhtmoc, Distrito Federal",Mexico
31080,-118.130426,33.937673499999995,Raymond Tapia,54773803,2020-03-13 04:11:41,"Los Angeles, CA",city,"Downey, CA",United States
205,-0.032025,51.811639500000005,Joe Ward-Berry,547738038,2020-03-08 20:16:15,"Ware, UK",city,"Ware, East",United Kingdom
119,-96.9347,18.8942,MIKE,547738392,2020-04-12 02:08:30,"Cordoba, Ver",city,"Crdoba, Veracruz de Ignacio de la Llave",Mxico
200,29.0052225,41.0213205,ugurcakmak,547738413,2020-03-31 14:46:36,"Tuzla, stanbul",city,"stanbul, Trkiye",Trkiye
151,3.5018455000000004,6.441530500000002,Nife,547738595,2020-03-22 20:28:14,"Fort Wayne, IN | Lagos, NG",city,"Victoria Island, Nigeria",Nigeria
186,-8.2098731,43.2794514,Marcos & Tal,547738704,2020-05-31 20:46:40,"Ferrol, Espaa",city,"Betanzos, Espaa",Espaa
65,2.3508,48.8567,Freya Davison,547738946,2020-02-21 07:48:00,Cheshire - United Kingdom,city,"Paris, France",France
205,-2.2359419,53.30174470000001,Freya Davison,547738946,2020-02-22 23:50:20,Cheshire - United Kingdom,city,"Wilmslow, England",United Kingdom
33100,-80.12152900000002,26.8408065,syd,547739661,2020-05-12 02:11:44,"New York, NY",city,"Palm Beach Gardens, FL",United States
14860,-73.554097,41.0983345,syd,547739661,2020-05-25 15:11:42,"New York, NY",city,"Stamford, CT",United States
47900,-77.1527578,39.0839973,TMJ-VAV R-Est Jobs,54773971,2020-02-16 13:10:17,"Tysons, VA",city,"Rockville, MD",United States
186,2.792402,41.675807,M Teresa Arranz,547739842,2020-02-17 09:37:10,CSAP,poi,Esglsia de Santa Maria i Palau Vescomptal,Espaa
200,27.006511,38.4079305,rasim .,547739935,2020-03-31 11:01:23,"zmir, Trkiye",city,"zmir, Trkiye",Trkiye
175,40.4908105,21.38543,Yazeed +59 #_,547739958,2020-02-17 07:50:46,Riyadh.Jeddah,city,",   ",  
9,144.970403,-37.818496,Bush Heritage,54774001,2020-03-04 21:18:44,Australia,poi,Zinc,Australia
21,-38.51989,-3.789768,Ex-Power Ranger Rosa,547740143,2020-02-17 04:55:21, ,city,"Fortaleza, Brasil",Brasil
222,112.75670600000001,-7.278511999999999,Controlled By Bot,54774043,2020-02-26 16:00:38,,poi,Refill Depo Isi Ulang,Indonesia
119,-101.170172,20.651612,R R G,54774065,2020-02-15 15:15:16,"Guanajuato, Mxico",city,"Salamanca, Guanajuato",Mxico
21,-46.2900965,-23.86332,Pacheco ,547741002,2020-02-14 22:56:54,Brasil,city,"Santos, Brasil",Brasil
88,138.380281,34.972892, (),547741008,2020-03-07 00:58:44,  ,poi,,
8,-67.4807735,-45.8627064,galan void,547741039,2020-02-20 21:06:11,,city,"Comodoro Rivadavia, Argentina",Argentina
88,139.69262600000002,35.666851,nicori,547741076,2020-02-16 07:53:56,,city, ,
15460,-91.1308055,40.810943,r ns,547741441,2020-03-24 03:22:39,"Iowa City, IA",city,"Burlington, IA",United States
26980,-91.537062,41.647353499999994,r ns,547741441,2020-04-26 02:27:09,"Iowa City, IA",city,"Iowa City, IA",United States
37900,-89.3503505,40.5334055,r ns,547741441,2020-05-02 01:26:08,"Iowa City, IA",city,"Mackinaw, IL",United States
26980,-91.537062,41.647353499999994,r ns,547741441,2020-05-06 19:32:36,"Iowa City, IA",city,"Iowa City, IA",United States
225,55.724373,25.632704999999998,  ,547742292,2020-03-15 16:18:02,,poi,Al Hamra Beach Resort,United Arab Emirates
88,135.3070135,34.775017999999996,,547742396,2020-05-03 02:53:40,,city, ,
38,-72.47709300000001,8.075582,ana isabel galvis,547742714,2020-03-31 12:55:25,colombia,city,"Ccuta, Colombia",Colombia
173,45.0167,53.2,Kristina Dior,547743736,2020-03-20 15:13:43,Russia,city,", ",
200,29.0052225,41.0213205,cihan,547743873,2020-02-23 19:39:31,,city,"stanbul, Trkiye",Trkiye
47900,-77.0143985,38.898603,Matthew Wallace,5477442,2020-02-21 15:42:58,"Nashville, TN",city,"Washington, DC",United States
34980,-86.791549,36.200008000000004,Matthew Wallace,5477442,2020-02-25 19:51:07,"Nashville, TN",city,"Nashville, TN",United States
19100,-97.2859135,32.7799665,Sierra Hefner,547744871,2020-05-23 12:37:21,"Fort Worth, TX",city,"Fort Worth, TX",United States
238,-63.120403,18.040412,Nis,547744919,2020-02-29 02:00:22,st.croix ,poi,Maho Beach,Sint Maarten
69,-0.15417999999999998,5.714169999999999,Bala_601,547745491,2020-06-05 17:16:31,192.168.1.1 ,city,"Accra, Ghana",Ghana
38,-74.24367099999999,4.2622835,karen hoyos,547746937,2020-03-16 00:56:26,,city,"Bogot, D.C., Colombia",Colombia
21,-39.29605,-7.943919999999999,Washington Cruz,547746987,2020-03-08 16:24:45,Serrita - Brasil,city,"Serrita, Brasil",Brasil
46140,-95.765084,36.165146,Aquisces85,547747003,2020-02-17 16:48:58,"Moore, Oklahoma",poi,Hard Rock Hotel & Casino,United States
36420,-97.4636445,35.327468,Aquisces85,547747003,2020-02-20 16:01:55,"Moore, Oklahoma",city,"Moore, OK",United States
29820,-115.03833700000001,36.006256,alexis robinson,54774735,2020-04-21 23:45:52,"Las Vegas, NV",city,"Henderson, NV",United States
36740,-81.3815139,28.6710771,TMJ-ORL R-Est Jobs,54774736,2020-02-15 13:07:59,"Orlando, FL",city,"Altamonte Springs, FL",United States
222,107.36380700000001,-6.841844999999999,Khairul Afri,547747568,2020-06-10 15:48:51,"Secang,Magelang, Bandung, ",poi,PT. INDONESIAPOWER UBP SAGULING,Indonesia
16300,-91.586972,42.038363000000004,JimJam9000,547748295,2020-05-01 00:21:12,,city,"Marion, IA",United States
19100,-97.1356375,32.70185,JimJam9000,547748295,2020-05-03 00:34:18,,city,"Arlington, TX",United States
22,23.530423000000003,41.883733,,547748625,2020-03-06 16:13:47,,poi,Villa Victoria,
200,29.0052225,41.0213205,,547748625,2020-03-15 10:42:51,,city,"stanbul, Trkiye",Trkiye
24,-79.7595915,43.724971000000004,tisha,547749271,2020-02-15 19:17:38,"Ontario, Canada",city,"Brampton, Ontario",Canada
10420,-81.65428270000001,41.1010055,TMJ-CLE R-Est Jobs,54775011,2020-02-21 21:28:27,"Cleveland, OH",city,"Fairlawn, OH",United States
45300,-82.4471605,28.219121,Rafael Ortiz,547750125,2020-04-08 17:37:29,"Land O' Lakes, FL",city,"Land O' Lakes, FL",United States
8,-64.1980255,-31.4154565,Luka,547750474,2020-02-14 05:52:41,"Crdoba, Argentina",city,"Crdoba, Argentina",Argentina
186,2.0025235,41.3915815,AVILACE,547750512,2020-02-14 14:39:54,,city,"Sant Vicen dels Horts, Espaa",Espaa
88,135.11885969,34.64378369,,547750941,2020-02-18 03:58:17,,city,  ,
186,-4.779514,41.6693305,Oscar Vicente,547751106,2020-03-07 19:07:43,,city,"Valladolid, Espaa",Espaa
37980,-74.98664400000001,40.151436499999996,Amy Fienman,547751731,2020-02-22 00:57:07,noiseyville,city,"Feasterville, PA",United States
21,-49.6142935,-25.2664865,Gabriel Mayrn,547752624,2020-06-05 17:42:21,"Curitiba, Brasil",city,"Campo Largo, Brasil",Brazil
41860,-122.2286855,37.791994,Lex,547753188,2020-03-02 20:39:43,University of Pennsylvania,city,"Oakland, CA",United States
37980,-75.117998,40.0048655,Lex,547753188,2020-03-10 23:07:35,University of Pennsylvania,city,"Philadelphia, PA",United States
82,73.88438199999999,18.520764,Madhuraj Meshramkar,547753243,2020-02-27 17:26:48,"PUNE, INDIA",city,"Pune, India",India
41180,-90.1994042,38.6270025,TMJ-STL R-Est Jobs,54775473,2020-02-15 14:27:40,"Saint Louis, MO",city,"St Louis, MO",United States
65,6.486262,43.4533505,aur,547754784,2020-05-07 09:37:41,,city,"Les Arcs, France",France
82,84.79321250000002,24.560751999999997,Deepak Nagrala,547755132,2020-03-25 11:49:40,,city,"Sherghati, India",India
205,0.286119,50.7820255,Claire Hudson,547755187,2020-02-14 07:45:08,"Eastbourne, England",city,"Eastbourne, England",United Kingdom
17460,-81.80305150000002,41.4804175,B,54775528,2020-05-17 22:44:46,"Cleveland, OH",city,"Lakewood, OH",United States
37460,-84.98517559999999,29.7291733,Highbeams,547755680,2020-02-21 14:55:21,"Woodstock, GA",city,"Apalachicola, FL",United States
48,-69.97506738,18.44984279,Aldo Mercedes,54775596,2020-02-26 17:05:34,Tierra,city,"Santo Domingo Oeste, Dominican Republic",Dominican Republic
29820,-115.149,36.1675,Robbie,547756474,2020-03-09 19:33:42,RIP Jeffrey ,city,"Las Vegas, NV",United States
19820,-83.47006999999999,42.367378,Robbie,547756474,2020-03-14 22:59:59,RIP Jeffrey ,city,"Plymouth, MI",United States
8,-58.4215,-34.6086,,547756568,2020-06-03 20:02:42,"Buenos Aires, Argentina",city,"Ciudad Autnoma de Buenos Aires, Argentina",Argentina
38900,-122.6513,45.51912,Xocolatl de Davd,54775660,2020-02-17 22:46:13,"Portland, Ore.",city,"Portland, OR",United States
175,39.8016865,21.389833000000007,  ,547756670,2020-02-15 18:56:40,,city," ,   ",  
205,-1.56549,53.801956,Alan Wharton,547756682,2020-06-05 15:05:26,"Calverley, Leeds",city,"Leeds, England",United Kingdom
82,75.96818400000002,22.6714825,surendra,547757122,2020-04-30 08:08:32,,city,"Indore, India",India
186,3.0474384999999997,41.81891400000001,StephenMurphy,547757344,2020-02-14 06:52:58,"Costa Brava ,Spain",city,"Castell-Platja d'Aro, Spain",Spain
35620,-74.0488335,41.4287035,Adam Gerson,54775824,2020-03-06 00:31:27,,city,"Firthcliffe, NY",United States
205,-1.9992590000000001,52.596259499999995,Tracey Sheffield,547758450,2020-03-10 22:13:25,,city,"Walsall, England",United Kingdom
189,17.8238985,59.156493000000005,Jon Ekerwald,547758572,2020-05-30 22:29:50,"Tullinge, Sweden",city,"Botkyrka, Sverige",Sverige
24,-113.49261750000001,53.5558195,,54775901,2020-02-27 10:24:18,"Mohknstsis (Calgary, AB)",city,"Edmonton, Alberta",Canada
50,31.21622,30.062321,         ,547759374,2020-02-22 23:15:48,,poi,El Sawy Culturewheel |  ,Egypt
151,3.3352055,6.689702499999999,Adeleye,547759447,2020-02-17 08:45:22,"Lagos, Nigeria",city,"Alagbado, Nigeria",Nigeria
33,-72.619722,-38.742778,LisseT,547759757,2020-02-24 00:32:16,"Temuco, Chile ",city,"Temuco, Chile",Chile
200,29.0052225,41.0213205,PAA,547760549,2020-02-14 01:18:45,,city,"stanbul, Trkiye",Trkiye
26420,-95.087029,29.497157,Kenneth Baker,54776085,2020-03-13 02:57:40,"Houston, TX",city,"League City, TX",United States
119,-99.1478,19.3354, ,54776112,2020-05-10 18:06:03,Chilangolandia,city,"Coyoacn, Distrito Federal",Mxico
8,-65.7781865,-28.4660005,SADOP Catamarca,547761348,2020-02-14 12:22:00,Catamarca,city,"San Fernando del Valle de Catamarca, Argentina",Argentina
33,-70.6596155,-33.4521615,Kassandra Colmenares,54776136,2020-02-20 03:40:58,"Metropolitana de Santiago, Chile",city,"Santiago, Chile",Chile
85,9.20532975,45.48665195,Giulio (Julio) Don,54776141,2020-02-14 16:06:20,"Pordenone, Friuli-Venezia Giulia",city,"Milo, Lombardia",Itlia
164,-9.1394,38.7261,Giulio (Julio) Don,54776141,2020-03-15 07:21:39,"Pordenone, Friuli-Venezia Giulia",city,"Lisboa, Portugal",Portugal
191,6.14230853,46.21041665,Giulio (Julio) Don,54776141,2020-03-16 08:23:55,"Pordenone, Friuli-Venezia Giulia",city,"Genbra, Sua",Sua
85,8.19215554,46.20511392,Giulio (Julio) Don,54776141,2020-03-16 11:35:29,"Pordenone, Friuli-Venezia Giulia",city,"Trasquera, Piemonte",Itlia
191,8.231973,46.798562,Giulio Don,54776141,2020-03-21 14:18:22,Pordenone,city,"Sachseln, Schweiz",Sua
85,12.64453,45.964929999999995,Giulio Don,54776141,2020-03-25 10:51:01,Pordenone,city,"Pordenone, Friuli-Venezia Giulia",Itlia
186,2.1412275000000003,41.392657,JM Molins,5477622,2020-04-10 12:00:59,Barcelona,city,"Barcelona, Espaa",Espaa
88,137.377241,34.726271999999994,Oolong,547762596,2020-02-14 06:57:59,,poi,Oolong,
82,74.803972,34.127509,tALib Qureshi,547763067,2020-03-20 06:57:05,"conflicted IO,KASHMIR. . ",neighborhood,"Noushera, Jammu And Kashmir",
36460,-78.4319515,42.0884535,Ron Travis,54776384,2020-03-17 02:17:54,,city,"Olean, NY",United States
235,19.591639,46.0215475,relax-enjoy.com,547764694,2020-02-14 18:58:14,,city,"Subotica, Srbija",Srbija
186,-5.09957,37.5428,CREMADES,547765015,2020-02-22 01:28:25,,city,"cija, Espaa",Espaa
21,-43.1975,-22.908,Renata Breves,54776532,2020-02-26 11:47:44,Rio de Janeiro,city,"Rio de Janeiro, Brasil",Brasil
12060,-84.1455,34.0031,Lori Armistead,54776555,2020-05-02 18:19:24,"Duluth, GA ",city,"Duluth, GA",United States
36980,-87.1023995,37.765135,Yvonne,54776705,2020-02-15 04:18:30,"Owensboro, Kentucky",city,"Owensboro, KY",United States
41860,-122.2426,37.7644,,547767285,2020-02-14 06:22:18,gallavich love child,city,"Alameda, CA",United States
82,72.6715875,23.0028172,(s)mel(ly),547767285,2020-04-30 22:52:57,1d reunion,city,"Daskroi, India",India
41860,-122.26166,37.77604,(s)mel(ly),547767285,2020-05-04 13:05:58,1d reunion,city,"Alameda, CA",United States
34900,-122.29899999999999,38.3048,m.,547767285,2020-05-26 04:55:19,1d reunion,city,"Napa, CA",United States
46700,-122.07879644,38.23920781,m.,547767285,2020-06-05 00:07:02,black lives matter.,city,"Fairfield, CA",United States
39900,-119.822,39.5271,m. ,547767285,2020-06-08 05:20:07,black lives matter.,city,"Reno, NV",United States
120,116.095,5.9714,Sapikx,547767338,2020-05-01 16:00:37,kota kinabalu,city,"Kota Kinabalu, Sabah",Malaysia
225,55.313717000000004,25.261501000000003,Siro Serafini,547767397,2020-02-26 18:45:07,marketing & sales,poi,Sheraton Dubai Creek Hotel & Towers,Emirati Arabi Uniti
85,11.744158500000001,43.425397,Siro Serafini,547767397,2020-03-04 08:57:24,marketing & sales,city,"Civitella in Val di Chiana, Toscana",Italia
35620,-73.98824,40.74519,Mike Guerriero,54776770,2020-02-15 03:53:21,NYC,city,"Manhattan, NY",United States
28740,-73.95465016,41.71066039,Mike Guerriero,54776770,2020-06-03 23:03:10,NYC,city,"Highland, NY",United States
200,29.0052225,41.0213205,Ysra Erbay,547767786,2020-02-24 11:59:38,,city,"stanbul, Trkiye",Trkiye
16980,-87.632496,41.883221999999996,Faye Lack,547768049,2020-02-20 15:44:22,"Illinois, USA",city,"Chicago, IL",United States
211,-66.8568925,10.497579,Rubn Ruiz,54776876,2020-02-14 16:14:06,de Caracas,city,"Chacao, Venezuela",Venezuela
57,16.504776500000002,48.123996999999996,T.C.Erdoan Genolu,547769082,2020-02-16 08:26:24,Wien/Austria,city,"Schwechat, sterreich",sterreich
21,-48.547403499999994,-22.838295499999997,roberval costa,547769110,2020-03-19 00:12:04,,city,"Botucatu, Brasil",Brasil
45300,-82.44858550000002,28.131729999999997,Taryn Hatcher,547769173,2020-02-14 05:06:42,"Philadelphia, PA",city,"Lutz, FL",United States
18140,-82.985772,39.9946835,Taryn Hatcher,547769173,2020-02-19 22:55:51,"Philadelphia, PA",city,"Columbus, OH",United States
37980,-74.944125,39.975444,Taryn Hatcher,547769173,2020-02-21 15:15:52,"Philadelphia, PA",city,"Moorestown, NJ",United States
45300,-82.44269399999997,27.9965945,Taryn Hatcher,547769173,2020-03-12 02:06:09,"Philadelphia, PA",city,"Tampa, FL",United States
37980,-75.117998,40.0048655,Taryn Hatcher,547769173,2020-03-16 01:56:20,"Philadelphia, PA",city,"Philadelphia, PA",United States
173,37.358684999999994,55.901934,Nazarov Alexey,547769672,2020-03-20 21:20:24,", ",poi,  ,
186,-4.674251,37.8476005,Carlos Arrebola ,547769943,2020-02-16 21:03:43,"Crdoba, Espaa",city,"Crdoba, Espaa",Espaa
8,-58.280767000000004,-34.747911,Bargas Fernando,547770007,2020-02-17 19:35:20,buenos aires,city,"Quilmes, Argentina",Argentina
42680,-80.40176650000002,27.582328999999998,Rick HurriFett Reeves,547770029,2020-02-14 13:09:27,"Vero Beach, FL",city,"Florida Ridge, FL",United States
17460,-81.705467,41.49593950000001,@DJSEDIBODEL,547770080,2020-03-08 12:38:33,CLEVELAND ,city,"Cleveland, OH",United States
171,120.284539,14.824178,Vinnyyy ,547770150,2020-02-23 10:08:55,"Olongapo City, Central Luzon",poi,Spasify,Republic of the Philippines
151,6.7102565,6.2012195,Itse,54777053,2020-04-11 09:54:55,Nigeria,city,"Asaba, Nigeria",Nigeria
