currentGEOID,lon,lat,name,author_Id,created_at,location,place_type,place_full_name,place_country
88,140.726996,35.84835049999999,hinato hayama,779334348231221248,2020-02-22 16:45:16, ,city, ,
222,106.846645,-6.190237000000001,Muhammad Robbani,77933435,2020-02-17 08:56:01,Di luar SUGBK,city,"Menteng, Indonesia",Indonesia
21,-45.492184,-19.9997375,Lus Fernando,779334466108006400,2020-02-15 23:33:50,"Minas Gerais, Brasil",city,"Lagoa da Prata, Brasil",Brasil
88,139.5210305,35.557981,,779334607887933440,2020-03-08 14:30:03,,city,"Yokohama-shi Aoba, Kanagawa",Japan
35620,-73.8311875,40.6708795,Vas,779334846384574465,2020-03-25 16:50:03,"New York, NY",city,"Queens, NY",United States
88,137.30639546,35.32821286,,779335143345434624,2020-02-14 17:31:45, ,city, ,
88,132.5485325,34.3645015,uedahal,779335277298933760,2020-02-21 12:12:23,,city, ,
193,101.1558885,16.449085,(*)o,779335508870574080,2020-02-14 05:37:06,"., .",city,", ",
193,100.559009,13.778016, ,779335717738586112,2020-02-14 15:14:11,,city,", ",
175,36.527862,28.398584000000003,7.,779335820322938881,2020-03-08 17:19:37,"London, England",poi, ,  
120,101.743481,3.1593720000000003,Nadia Rusli,77933601,2020-05-25 11:04:24,Malaysia,poi,Starbucks,Malaysia
21,-43.959822499999994,-19.918692,Marlon Merces,779336062736924672,2020-04-28 00:11:21,"Brazil, Itabira",city,"Belo Horizonte, Brasil",Brasil
34620,-85.404673,40.197887,lexi,779336088401903617,2020-02-29 17:22:43,"Indianapolis, IN",poi,Be Here Now,United States
26900,-86.1429225,39.7795625,lexi,779336088401903617,2020-03-01 02:55:12,"Indianapolis, IN",city,"Indianapolis, IN",United States
34620,-85.474858,40.1876545,latte sipping vegan douchebag,779336088401903617,2020-03-21 21:00:55,"Indianapolis, IN",city,"Yorktown, IN",United States
26900,-86.1429225,39.7795625,latte sipping vegan douchebag,779336088401903617,2020-03-23 16:47:42,"Indianapolis, IN",city,"Indianapolis, IN",United States
24,-79.27256949999999,43.629311,CumTunnel,779336292,2020-03-19 04:44:32,"Toronto, Canada",city,"Toronto, Ontario",Canada
242,120.9558055,24.7836125,,779336494334914560,2020-05-18 19:22:57,", ",city,"Hsinchu City, Taiwan",Taiwan
49340,-71.7578435,42.525078,CR,779336563,2020-02-15 18:12:24,"Boston, MA",city,"Leominster, MA",United States
161,74.3436,31.5497,Bilal Sheikh ,779336803555938304,2020-02-15 15:07:46,"Lahore, Pakistan",city,"Lahore, Pakistan",Pakistan
164,-8.621914,41.162141999999996,o'conner,779336846505566210,2020-02-26 10:58:28,"Porto, Portugal",city,"Porto, Portugal",Portugal
171,120.86166499999999,14.872285999999999,Jesz,77933685,2020-02-17 11:18:47,rymdjzr19,city,"Guiguinto, Central Luzon",Republic of the Philippines
222,107.61209699999999,-6.906977,tisha amelia anwar,77933695,2020-05-28 03:18:27,bandung,poi,Toserba Yogya,Indonesia
65,2.347003,48.8588335,Kevin MORENO,779337103356358657,2020-02-26 18:02:42,"Paris, France",city,"Paris, France",France
8,-58.79613199999999,-27.487033,. lua .,779337152,2020-02-14 02:23:04," corrientes,arg",city,"Corrientes, Argentina",Argentina
19100,-97.34779192,32.79097686,Addie Sisneroz,779337312,2020-03-02 05:16:15,"Fort Worth, TX",city,"Fort Worth, TX",United States
26980,-91.6184715,41.754822999999995,Andy Eiffert,779337391450443777,2020-03-21 21:38:14,"Iowa City, IA",city,"North Liberty, IA",United States
82,72.87424399999999,19.174139999999998,Dina Tatak,779337466390024192,2020-06-01 17:05:34,"New Delhi, India",city,"Mumbai, India",India
12580,-76.62048200000002,39.284713,Dej ,779337547,2020-02-15 22:47:29,"Toledo, OH",city,"Baltimore, MD",United States
45780,-83.574671,41.65659049999999,Dej ,779337547,2020-03-19 18:55:20,"Toledo, OH",city,"Toledo, OH",United States
186,3.068006,39.8897655,Ivan Cunill-Literato,779337809719099396,2020-02-15 11:29:12,"Islas Baleares, Espaa",city,"Pollena, Espaa",Espaa
152,4.904053500000001,52.354728,Sep,779338066658033666,2020-04-26 10:58:01,"Amsterdam west, Nederland",city,"Amsterdam, Nederland",Nederland
21,-43.0596095,-22.904549000000006,SargiTrouxa,779338921251659776,2020-02-17 00:10:04,"Niteri, Brasil",city,"Niteri, Brasil",Brasil
175,41.687540000000006,27.508333500000003,,779338952746606593,2020-02-16 21:45:27,",   ",city,",   ",  
205,-5.02692,51.71692,Sue Leatherdale,779339482319421440,2020-04-29 16:16:49,"Pembrokeshire, West Wales",city,"Milford Haven, Wales",United Kingdom
47900,-77.04722222,38.80472222,Clariza Jane,779339587,2020-02-18 03:20:53,Old Town Alexandria / D.C.,city,"Alexandria, VA",United States
51,-10.15205563,51.77578505,Clariza Jane,779339587,2020-03-31 15:31:42,Old Town Alexandria / D.C.,city,"Kerry, Ireland",Ireland
47900,-77.04722222,38.80472222,Clariza Jane,779339587,2020-04-12 19:35:53,Old Town Alexandria / D.C.,city,"Alexandria, VA",United States
51,-10.223808,51.948285999999996,Clariza Jane,779339587,2020-04-13 14:59:26,Old Town Alexandria / D.C.,city,"Kerry, Ireland",Ireland
85,12.69236687,41.477563599999996,Riccardo Lomazzo,779339731,2020-04-29 23:31:18,,city,"Nettuno, Lazio",Italia
37980,-75.699457,39.736777,Gwynn,779339833336406017,2020-02-15 12:23:56,,city,"Pike Creek, DE",United States
21,-47.7835412,-21.1990955,Letcia.,779339930958983168,2020-05-25 02:36:03,"Ribeiro Preto, Brasil",city,"Ribeiro Preto, Brasil",Brasil
8,-58.013021499999994,-34.9363185,SaludBAP,779340061263425537,2020-04-28 00:29:26,"51 N 1120, La Plata",city,"La Plata, Argentina",Argentina
88,138.88368450000002,37.443303,,779340619185426432,2020-02-14 06:22:43,,city, ,
47260,-76.535528,36.810016499999996,Dustin Ely,779341035306618884,2020-05-11 11:29:15,,city,"Suffolk, VA",United States
82,79.060271,21.140583,Pankaj Bavishi,779341115610701824,2020-04-16 08:35:02,,poi,Gokulpeth Market,India
31080,-118.4119065,34.0207895,ry.,779341206828396544,2020-03-15 20:24:15,"Los Angeles, CA",city,"Los Angeles, CA",United States
41700,-98.5406515,29.417501,Takumi,779341231,2020-02-16 16:31:43,,city,"San Antonio, TX",United States
85,11.244817,43.7807085,Firenzelive.com,779341502292131840,2020-05-19 17:05:18,"Firenze, Toscana",city,"Firenze, Toscana",Italia
21,-43.441578,-22.911421500000003,Domnico,77934166,2020-02-14 11:40:18,"Rio de Janeiro, Brasil",city,"Rio de Janeiro, Brasil",Brasil
21,-49.961631,-29.48727,Luana,779341660782268416,2020-02-17 20:18:31,"Trs Cachoeiras, Brasil",city,"Trs Cachoeiras, Brasil",Brasil
26420,-95.4464865,29.838495,Schindewolf Band,779341796228804608,2020-03-16 01:06:16,Klein ISD,city,"Houston, TX",United States
24,-73.723025,45.5578305,SarahyJimenez,779342029,2020-03-02 15:31:38,,city,"Montral, Qubec",Canada
82,75.65129999999998,29.275157500000002, ,779342031730663424,2020-02-14 03:49:08,"Hisar, India",city,"Hisar, India",India
36420,-97.47087359999999,35.67288320000001,PC Exec Services,779342109295783945,2020-06-11 13:20:26,"Oklahoma City, OK",city,"Edmond, OK",United States
82,72.81388744,18.9543451,Shah Alam,779342312761614336,2020-02-18 20:24:09,India,city,"Mumbai, India",India
171,125.4432615,7.317582499999999,sweet ,779342427542859776,2020-02-15 05:56:39,Republic of the Philippines,city,"Davao City, Davao Region",Republic of the Philippines
42660,-122.19592,47.4137,Abby G Roark,779342496748797952,2020-02-14 18:49:21,"Cheyenne, WY",city,"East Hill-Meridian, WA",United States
16940,-104.802,41.1455,Abby G Roark,779342496748797952,2020-02-14 23:20:31,"Cheyenne, WY",city,"Cheyenne, WY",United States
42660,-122.18299999999999,47.41,Abby G Roark,779342496748797952,2020-02-15 05:41:35,"Cheyenne, WY",city,"East Hill-Meridian, WA",United States
82,74.89235649999999,12.9407935,Tuluva,779342812667969536,2020-05-09 09:14:10,"Mangalore, India",city,"Mangalore, India",India
88,139.34033262,35.5849985,,779343065056096256,2020-03-23 04:16:19,,city, ,
24,-66.106915,43.729818,Maura ,779343149709848576,2020-04-18 06:59:29,Nova Scotia Canada,city,"Argyle, Nova Scotia",Canada
21,-43.19690382,-22.91128582,Leonardo Machado,779343368,2020-02-22 19:36:28,Rio de Janeiro,city,"Rio de Janeiro, Brasil",Brasil
175,39.2541285,21.5857105,Bamm,779343495991549952,2020-02-17 17:17:15,JeDDah,city,",   ",  
82,72.57023199999999,23.013959,Vipul Studio,779343727810650112,2020-04-26 09:26:39,"Vejalpur, Ahmadabad City",city,"Ahmadabad City, India",India
222,107.2847229,-6.3313337999999995,bastian,779343808521605121,2020-04-01 10:56:27,"Karawang, Jawa Barat",city,"Telukjambe, Indonesia",Indonesia
119,-106.16289850000001,28.941866,Felipe Muoz,77934381,2020-02-18 05:15:05,,city,"Chihuahua, Mxico",Mxico
11460,-83.71599022,42.29158466,Shannon Burkoth,779343846647951361,2020-02-28 21:43:15,"Kenosha, WI",city,"Ann Arbor, MI",United States
33340,-88.03597274,42.92520441,Shannon Burkoth,779343846647951361,2020-02-29 23:12:56,"Kenosha, WI",city,"Franklin, WI",United States
16980,-87.88981052,42.58359946,Shannon Burkoth,779343846647951361,2020-03-12 17:58:51,"Kenosha, WI",city,"Kenosha, WI",United States
205,-4.7903525,56.040477,Andy,779343934598316032,2020-02-20 07:29:54,"Scotland, United Kingdom",city,"Shandon, Scotland",United Kingdom
23460,-86.00682950000002,34.003125,the MF pimpcess ,779344312488177664,2020-02-14 01:30:15,"Gadsden, AL 256",city,"Gadsden, AL",United States
12060,-84.43310600000001,33.7671945,the MF pimpcess ,779344312488177664,2020-02-14 16:10:42,"Gadsden, AL 256",city,"Atlanta, GA",United States
13820,-86.9275365,33.476009499999996,the MF pimpcess ,779344312488177664,2020-02-20 05:05:46,"Gadsden, AL 256",city,"Fairfield, AL",United States
33860,-86.295721,32.365184,the MF pimpcess ,779344312488177664,2020-02-22 03:02:19,"Gadsden, AL 256",poi,Alabama State University,United States
23460,-86.00682950000002,34.003125,the MF pimpcess ,779344312488177664,2020-03-02 14:06:14,"Gadsden, AL 256",city,"Gadsden, AL",United States
33860,-86.24472850000002,32.364145,the MF pimpcess ,779344312488177664,2020-03-10 08:33:09,"Gadsden, AL 256",city,"Montgomery, AL",United States
23460,-86.00682950000002,34.003125,the MF pimpcess ,779344312488177664,2020-03-16 04:40:44,"Gadsden, AL 256",city,"Gadsden, AL",United States
13820,-86.79391700000001,33.5422375,the MF pimpcess ,779344312488177664,2020-04-19 01:01:50,"Gadsden, AL 256",city,"Birmingham, AL",United States
23460,-86.00682950000002,34.003125,the MF pimpcess ,779344312488177664,2020-04-19 04:10:45,"Gadsden, AL 256",city,"Gadsden, AL",United States
13820,-86.79391700000001,33.5422375,the MF pimpcess ,779344312488177664,2020-05-31 11:47:45,"Gadsden, AL 256",city,"Birmingham, AL",United States
23460,-86.00682950000002,34.003125,the MF pimpcess ,779344312488177664,2020-06-01 17:54:13,"Gadsden, AL 256",city,"Gadsden, AL",United States
13820,-86.79391700000001,33.5422375,the MF pimpcess ,779344312488177664,2020-06-03 21:47:35,"Gadsden, AL 256",city,"Birmingham, AL",United States
23460,-86.00682950000002,34.003125,the MF pimpcess ,779344312488177664,2020-06-05 13:45:56,"Gadsden, AL 256",city,"Gadsden, AL",United States
35620,-74.31065849999997,40.541073,Amanda Jung,779344426481180672,2020-03-18 17:01:31,"Woodbridge, New Jersey",city,"Fords, NJ",United States
242,121.645086,24.9863425,SheFen,779344501487702016,2020-02-14 14:45:53,,city,", ",
200,29.0052225,41.0213205,M.N.K.C.R.N.,779344900680720384,2020-03-08 08:39:45,stanbul Trkiye,city,"stanbul, Trkiye",Trkiye
88,140.136236,40.210865500000004,Sat,779345064845725696,2020-03-05 23:05:26, ,city, ,
222,110.36346,-7.789425,DETIE,77934509,2020-03-01 06:49:38,"Cilacap, Jawa Tengah",poi,Stasiun Yogyakarta Tugu,Indonesia
162,20.990366,52.21638,Rose Smith,779345544321859585,2020-02-21 16:02:32,"Prague, Czech Republic",poi,Krajowa Szkoa Administracji Publicznej,Poland
58,14.465875500000001,50.05958,Rose Smith,779345544321859585,2020-02-25 10:41:25,"Prague, Czech Republic",city,"Prague, Czech Republic",Czech Republic
29460,-81.6988865,28.0173055,Marius Sderlind ,779345548969148416,2020-02-14 03:37:19,"Oslo, Norway/Winter Haven, FL",city,"Winter Haven, FL",United States
175,41.687540000000006,27.508333500000003, ,779345734357422080,2020-02-15 22:58:57,,city,",   ",  
200,35.28488,37.002826500000005,Ela Efe,779346411796201472,2020-06-09 12:59:22,"Adana, Trkiye",city,"Adana, Trkiye",Trkiye
9,115.9283185,-32.1501005,feeen1,77934701,2020-02-15 15:17:48,"Perth, Western Australia",city,"Perth, Western Australia",Australia
19100,-97.1356375,32.70185,Adrick Mckinney,77934744,2020-02-19 14:24:45,DFW ,city,"Arlington, TX",United States
171,120.64710900000001,13.995845000000001,Veronica,779347530010144768,2020-03-30 11:20:01,batangas,city,"Lian, Calabarzon",Republic of the Philippines
82,79.4942495,17.882444500000002,Mohammad Yakub,779347544383950852,2020-04-13 14:05:15,"Khargone, India",city,"Warangal-Hamamkonda, India",India
14460,-71.0543155,42.4574135,Caroline Butts,779347962,2020-04-22 15:21:54,,city,"Melrose, MA",United States
205,-0.2631405,51.5651955,Mahsan khetriyan,779348051731382272,2020-06-09 10:50:49,,city,"Brent, London",United Kingdom
82,75.0684065,32.657848,Shamoon tak,779348076720828416,2020-04-19 12:37:16,Jammu And Kashmir,city,"Jammu, Jammu And Kashmir",Pakistan
200,28.97423168,41.016799299999995,Buket Kakaya,779348146723889152,2020-02-22 09:07:15,,city,"stanbul, Trkiye",Trkiye
211,-70.2349,8.6285,Tibisay Rojas,77934818,2020-03-12 14:43:23,Venezuela,city,"Barinas, Venezuela",Venezuela
171,120.9839865,14.5914565,ra,779348186745888768,2020-02-14 21:40:09,HLK,city,"Manila City, National Capital Region",Republic of the Philippines
58,14.465875500000001,50.05958,Michal Bernth,779348309483937794,2020-02-19 08:35:55,"Prague, Czech Republic",city,"Praha, esk republika",esk republika
37980,-75.0355,39.8549,Brian Bell,779348404640055296,2020-02-24 22:01:03,"Gibbsboro, NJ",city,"Magnolia, NJ",United States
205,0.2105895,51.560587,Your London Wedding,779348591286575104,2020-04-19 14:33:14,,city,"Romford, London",United Kingdom
8,-60.25222283,-33.36397259,Analia,779348889619103744,2020-02-17 18:53:28,"Rosario, Argentina",city,"San Nicols de los Arroyos, Argentina",Argentina
193,99.009827,18.8883535,itssss_noon_,779348967964282880,2020-03-30 16:50:54,",",city,", ",
25220,-90.5004265,30.551922,Joseph,779349390284558336,2020-04-22 03:20:09,,city,"Natalbany, LA",United States
88,138.69179007,37.545544899999996,kazumin,779349684,2020-02-16 02:44:56,,city, ,
171,121.553951,16.636260999999998,Abdulmoin Harim Panglima Jr.,779350188041248768,2020-02-14 10:37:54,"Santiago City, Cagayan Valley",poi,Dariuk Hills,Republic of the Philippines
40140,-117.31987099999999,34.057348000000005,Edmundo Diaz Jr.,779350361257549828,2020-02-14 19:46:11,"Tustin, CA",city,"Colton, CA",United States
31080,-117.824049,33.810159000000006,Edmundo Diaz Jr.,779350361257549828,2020-06-03 18:35:41,"Tustin, CA",city,"Orange, CA",United States
40140,-117.31987099999999,34.057348000000005,Edmundo Diaz Jr.,779350361257549828,2020-06-09 17:08:25,"Tustin, CA",city,"Colton, CA",United States
82,85.047739,26.415159499999998,Vivek Kumar,779350431424057344,2020-06-04 19:31:32,BARA CHAKIYA ,city,"Chakia, India",India
12060,-85.09805899999999,33.574946999999995,LURe Journal,779350770441420801,2020-03-09 17:28:32,University of West Georgia,poi,TLC UWG,United States
82,82.93295549999998,25.3733755,ChandraShekhar Singh,779350857573949445,2020-04-06 17:54:35,"Varanasi, India",city,"Varanasi, India",India
222,112.7020325,-7.271865999999998,Nisa lestina,779351528,2020-02-16 14:12:04,"ponorogo, Jawa Timur",city,"Suko Manunggal, Indonesia",Indonesia
38060,-112.1246765,33.5528625,Sabrina,779351637139726337,2020-02-29 18:29:00,"Phoenix, AZ",city,"Phoenix, AZ",United States
41740,-117.10498899999999,32.810012,Sabrina,779351637139726337,2020-03-22 08:36:59,"Phoenix, AZ",city,"San Diego, CA",United States
21,-50.0650525,-5.5690209999999984,anna,779351891193032704,2020-03-18 17:20:36,marab,city,"Marab, Brasil",Brasil
12740,-72.5981195,44.15253213,Marcus Thomas,77935289,2020-03-25 18:01:22,tampa fl,city,"Montpelier, VT",United States
171,121.104887,14.646970999999999,Eros,779352901302923265,2020-02-16 02:38:58,"National Capital Region, Repub",city,"Marikina City, National Capital Region",Republic of the Philippines
222,110.404601,-7.848205,Icha Astari,77935300,2020-02-14 23:56:15,"T: -7.781565,110.417755",city,"Banguntapan, Indonesia",Indonesia
120,101.680805,2.904732,Faes,779353134611128320,2020-03-28 09:57:43,"Sepang, Selangor",city,"Dengkil, Selangor",Malaysia
26420,-95.4464865,29.838495,Johanna Benavidez,779353240060112896,2020-02-19 02:17:52,"Houston, TX",city,"Houston, TX",United States
222,106.7617815,-6.3928945000000015,Tempe Nyender Warkop,77935368,2020-03-16 11:03:04,,city,"Sawangan, Indonesia",Indonesia
26420,-95.135937,29.511181,Melanie,779354022146772992,2020-03-29 18:54:28,,poi,Challenger 7 Memorial Park,United States
2,3.20155,36.749030499999996,  ,779354143026806784,2020-02-15 16:06:45,,city,"Dar El Beda                                                                                       , Algeria",
205,-2.1168695,53.54286550000001,Moviescape Stockport,779354154288447488,2020-03-05 23:05:04,"Stockport, England",city,"Oldham, England",United Kingdom
119,-99.131861,19.436898,Marcos Bucio,779354422564442113,2020-02-26 22:48:24,,poi,Secretara de Educacin Pblica,Mxico
82,85.783926,25.862894,Chinmay Choudhary,779354635941314560,2020-05-18 18:45:41,samastipur,poi,Samastipur,India
26580,-82.5812565,38.4061955,Tyler Wells,779354825033076736,2020-03-17 04:19:35,"South Point, OH",city,"Kenova, WV",United States
38,-73.1258,7.12972,karentgomez,779354835133104128,2020-05-29 01:28:44,"Bucaramanga, Colombia",city,"Bucaramanga, Colombia",Colombia
37980,-75.334627,39.890977,The Locker,779355043019579392,2020-02-27 16:33:32,"Folsom, PA",poi,Ridley High School,United States
-9999,-61.8117305,44.321234,Allison Rand,779355068839624704,2020-02-21 16:19:58,"Halifax, Nova Scotia",city,"Halifax, Nova Scotia",Canada
24,-64.53679500000001,45.9479065,Allison Rand,779355068839624704,2020-03-16 17:17:18,"Halifax, Nova Scotia",city,"Dorchester, New Brunswick",Canada
-9999,-61.8117305,44.321234,Allison Rand,779355068839624704,2020-03-23 12:19:32,"Halifax, Nova Scotia",city,"Halifax, Nova Scotia",Canada
82,74.698426,21.659035999999997,Dheeraj Shukla,779355539620835328,2020-06-06 13:28:40,Pansemal,city,"Pansemal, India",India
120,101.640564,2.980709,KiddoShi,779355603701424129,2020-03-01 02:00:58,Johorean,poi,Sabah,Malaysia
21,-46.5955455,-23.682803,Real Create,779355711272841216,2020-02-14 01:18:53,"Atlanta, GA",city,"So Paulo, Brasil",Brasil
82,76.974691,28.368525,Daleep Pandita,779355806,2020-03-10 04:35:31,Gurgaon Haryana india ,city,"Gurgaon, India",India
200,31.850165999999998,37.4310545,Hso,779356190157438976,2020-03-17 18:00:20,"Seydiehir, Trkiye",city,"Seydiehir, Trkiye",Trkiye
151,7.424094,9.073663999999999,NIESV ABUJA,779356244981059584,2020-03-16 12:00:23,"Federal Capital Territory, Nig",city,"Abuja, Nigeria",Nigeria
175,46.70622826,24.95407895,,779356361104748544,2020-02-14 17:35:08,"Riyadh, KSA",city,"Riyadh, Kingdom of Saudi Arabia",Kingdom of Saudi Arabia
205,-5.0456005,55.8347335,Jason,779356466922811396,2020-03-16 12:38:35,"Glasgow, Scotland",city,"Rothesay, Scotland",United Kingdom
8,-60.102489,-34.05936,Pelo Trosset,779356668,2020-03-20 21:52:50,Arrecifes,poi,Arrecifes,Argentina
24660,-79.85736349999998,36.090397,North Carolina Sports Hall of Fame,779356825300955137,2020-03-05 17:57:22,"Raleigh, NC",city,"Greensboro, NC",United States
39580,-78.837021,35.7561885,North Carolina Sports Hall of Fame,779356825300955137,2020-03-11 20:52:27,"Raleigh, NC",city,"Cary, NC",United States
82,85.48834649999999,26.1473595,Nirala Nishad,779356959510294528,2020-02-18 12:51:35,"Muzaffarpur, Ramdayalu",city,"Purba Muzaffarpur, India",India
193,100.498953,7.006206,khun_tonmai ,779357363471998976,2020-05-08 00:49:27,,poi,  (Khunying Long Athakravisunthon Learning Resources Center),
82,72.87424399999999,19.174139999999998,Viral,779357494799773696,2020-03-26 05:59:43,"Goregaon West, Mumbai",city,"Mumbai, India",India
35,11.516079,3.883625,Makali Song,779357573099220994,2020-04-26 11:04:28,"Centre, Cameroon",poi,Rond Point Bastos,Cameroon
18140,-82.985772,39.9946835,Narco Barbie,779357640,2020-02-14 03:43:03,"Buenos Aires, Argentina",city,"Columbus, OH",Estados Unidos
205,-2.8810832000000004,53.26520429999999,Running Goals ,779357650828009472,2020-02-14 11:42:50,"Hoylake, England",city,"Ellesmere Port, England",United Kingdom
186,-3.5212065000000004,40.522255,Kike,779357692678795264,2020-03-01 14:48:02,"Paracuellos de Jarama, Espaa",city,"Paracuellos de Jarama, Espaa",Espaa
175,49.6276765,25.458642,Manar,779358954,2020-06-01 21:26:51,Kingdom of Saudi Arabia,city,",   ",  
191,6.63283,46.5185,Au Paradis du Jeu,779358972532908032,2020-02-14 14:05:05,"Lausanne, Suisse",city,"Lausanne, Suisse",Suisse
21,-43.0596095,-22.904549000000006,Valeria Pinheiro,779359212497473536,2020-04-06 18:08:50,"Niteri, Brasil",city,"Niteri, Brasil",Brasil
171,121.037,14.6439,Kent Alfred San Felipe,77935928,2020-02-15 18:51:42,"Manila, Philippines ",city,"Quezon City, National Capital Region",Republic of the Philippines
28140,-94.85298399999999,38.868721,Luke Zegunis,779359384920989697,2020-05-02 15:12:08,,poi,Olathe West High School,United States
40140,-116.5172895,33.8250795,"Kevin Stanley, Realtor, CalBRE#02015967",779360362118287361,2020-02-27 20:00:28,"Palm Springs, CA",city,"Palm Springs, CA",United States
189,18.0658935,59.461813,Ove Malmsten,779360583724441601,2020-04-04 16:59:17,"Tby, Sverige",city,"Tby, Sverige",Sverige
21,-46.448846,-23.690461,LIL. BLACK,779360659058397185,2020-05-28 03:14:57,"So Paulo, Brasil",poi,Parque Guapituba,Brasil
82,85.517617,23.726567000000003,Anurag Kumar,779360879900958720,2020-03-28 16:43:07,"Bengaluru South, India",poi,Mandu,India
46520,-157.799589,21.3199435,victoria mileni,779360906123673600,2020-03-16 16:37:36,,city,"Honolulu, HI",United States
33460,-93.301344,44.8244695,gabby,779361286882594816,2020-02-24 20:12:22,,city,"Bloomington, MN",United States
14460,-71.46758299999999,42.294066,Garrett T,779361320,2020-04-04 19:05:11,,poi,Framingham Country Club,United States
88,139.734723,35.61306000000001,  LINE WORKS ,779361351722422272,2020-04-19 09:37:37,,city, ,
33100,-80.09317999999998,26.456147499999997,RootsAndWings,779361596619448320,2020-03-23 23:30:09,"Delray Beach, FL",city,"Delray Beach, FL",United States
88,139.745379,35.652789,,779361980264030209,2020-03-06 03:55:58,,city, ,
31080,-118.4119065,34.0207895,Victoria Archer ,779362181309530112,2020-02-17 15:44:55,"California, USA",city,"Los Angeles, CA",United States
164,-8.6799,37.1006, _,779362224787824640,2020-05-02 19:31:35,Portugal,city,"Lagos, Portugal",Portugal
49,-80.091193,-2.512995,jafp,779362331297980416,2020-02-17 20:33:03,,city,"Guayaquil, Ecuador",Ecuador
8,-58.6941275,-34.5538035,Lu,779362454023335936,2020-04-25 15:12:54,"San Miguel, Argentina",city,"San Miguel, Argentina",Argentina
65,2.347003,48.8588335,  ,779362526622396416,2020-02-18 20:38:00,,city,"Paris, France",France
88,135.76025750000002,35.023444999999995,  ,779362526622396416,2020-05-08 19:58:25,,city,  ,
82,77.34397799999998,28.576940500000003,Premananda nayak,779362572201930752,2020-05-31 01:22:07,,neighborhood,"Noida Sector 31, Noida",India
89,-76.74695600000001,18.003897,Shawano-Blade N. Mclean,779362717933064193,2020-04-04 16:10:34,Jamaica,poi,The University Of The West Indies,Jamaica
222,111.68113999999998,-7.49823,Rianto,77936309,2020-05-20 03:02:48,Pilangkenceng Madiun,city,"Pilangkenceng, Indonesia",Indonesia
91,36.863620000000004,-1.2748635,KAMWINGA,77936314,2020-03-08 07:17:15,Global Citizen,city,"Nairobi, Kenya",Kenya
16740,-80.8467855,35.209059,Mike Mc,779363157991194624,2020-02-14 18:40:36,"Matthews, NC",city,"Charlotte, NC",United States
27920,-96.87104846,39.00199739,Jarrett H.,779363210,2020-02-19 02:33:31,new york,city,"Junction City, KS",United States
31740,-96.56146,39.17797,Jarrett H.,779363210,2020-02-25 04:30:14,new york,city,"Manhattan, KS",United States
27920,-96.8403,39.0275,Jarrett H.,779363210,2020-02-28 00:01:49,new york,city,"Junction City, KS",United States
31740,-96.5748,39.1857,Jarrett H.,779363210,2020-03-22 04:07:51,new york,city,"Manhattan, KS",United States
41180,-89.972622,38.806053000000006,Jerry Thomas,779363286,2020-03-01 22:42:50,Illinois,city,"Edwardsville, IL",United States
65,7.7212,48.65358,Au P'tit Sawyer,779363446420897792,2020-02-15 08:57:14,"Alsace, France",city,"Lampertheim, France",France
21,-38.47263473,-3.77669075,Pablo Henrique,779363579925594112,2020-03-16 00:15:23,"Aldeota, Fortaleza",city,"Fortaleza, Brasil",Brasil
82,81.55465550000001,26.489045500000003,Ashish Mishra      ,779363607762997248,2020-03-19 18:33:58,,city,"Jagadishpur Industrial Area, India",India
222,112.44784750000001,-7.504996,K. Adha,77936384,2020-02-20 04:28:46,East Java,city,"Puri, Indonesia",Indonesia
205,-2.23348,53.4569525,maam luu,779363926282612736,2020-04-22 12:53:48,"Iguig, Cagayan Valley",city,"Manchester, England",United Kingdom
171,121.7226155,17.735298,maam luu,779363926282612736,2020-04-23 11:23:33,"Iguig, Cagayan Valley",city,"Iguig, Cagayan Valley",Republic of the Philippines
8,-58.4397,-34.6089,MEY,779364482,2020-05-05 04:05:27, argentina,city,"Ciudad Autnoma de Buenos Aires, Argentina",Argentina
18140,-83.021867,40.066445,wonho's lee,779364578337501185,2020-02-14 20:44:00,"Columbus, OH",poi,Michaels,United States
35620,-73.78031800000001,41.1902035,JAEinsider,779364669291134976,2020-02-21 19:04:30,"Manhattan, NY",city,"Chappaqua, NY",United States
41740,-116.9251445,32.8386055,Royce Stephens,779365095029690368,2020-02-16 23:08:22,,city,"Winter Gardens, CA",United States
41860,-122.38709399999999,37.616713,Brandon Stone,779365105574174720,2020-04-06 16:46:55,"Sausalito, Ca",poi,San Francisco International Airport (SFO),United States
119,-96.1333,19.2,Carlos Diaz,779365197597192192,2020-06-03 16:58:46,Veracruz de Ignacio de la Llav,city,"Veracruz, Veracruz de Ignacio de la Llave",Mxico
205,-2.202075,53.548436,Helen Riley,779365222511415300,2020-02-20 21:33:00,"Manchester, England",city,"Middleton, England",United Kingdom
200,26.572273,41.668173,izeell,779365461821718528,2020-02-27 19:36:53,,city,"Edirne, Trkiye",Trkiye
222,106.8510905,-6.256264,Parameswari,77936557,2020-03-08 22:37:50,Indonesia,city,"Pancoran, Indonesia",Indonesia
40140,-117.294096,34.134925,Chey,779365716,2020-02-27 20:05:25,CSUSB,city,"San Bernardino, CA",United States
200,40.21988399999999,40.255324,aysekaldirim,779366223431733249,2020-03-02 18:52:44,,city,"Bayburt, Trkiye",Trkiye
175,46.7728,24.6408,Abdulmajeed,779366237667295232,2020-03-16 13:44:27,",   ",city,",   ",  
82,74.9011245,33.8682545,obaid bashir,779366272068755458,2020-04-01 18:09:22,Jammu And Kashmir,city,"Pulwama, Jammu And Kashmir",
222,110.4087895,-7.7676955,Fariz Firza,779366311,2020-02-18 21:30:13,"Sleman, Indonesia",city,"Depok, Indonesia",Indonesia
222,106.821881,-6.196397,,77936641,2020-03-02 08:15:01,149miles,poi,UNION DELI,Indonesia
69,0.004789,6.140760500000002,Spencer Kish,779366425014235136,2020-04-25 04:54:41,"Accra, Ghana ",city,"Odumasi, Ghana",Ghana
41700,-98.5406515,29.417501,i a n ,779366737649119233,2020-05-23 05:15:37,SA.TX,city,"San Antonio, TX",United States
41740,-117.10498899999999,32.810012,Gregory Brown III,779366888224661504,2020-02-20 18:17:18,"San Diego, CA",city,"San Diego, CA",United States
33860,-86.24472850000002,32.364145,The Fallout,779367081548578816,2020-04-13 15:00:07,"Montgomery, AL",city,"Montgomery, AL",United States
26900,-86.011649,40.050298,corie_elkin,779367456,2020-03-19 12:17:04,"Noblesville, IN
",city,"Noblesville, IN",United States
82,77.75939149999998,28.7124395,Pankaj Chaudhary,779367597485678596,2020-05-07 02:26:07,,city,"Hapur, India",India
24,-73.723025,45.5578305,future housewife,779367619220701185,2020-03-29 17:35:01,,city,"Montral, Qubec",Canada
71,9.46547,48.714833,Paul Caspers,77936768,2020-05-01 09:22:38,Deutschland,city,"Reichenbach an der Fils, Deutschland",Deutschland
47220,-75.207854,39.467,Chancelled is Cancelled,779367847998947328,2020-05-20 03:18:27,,poi,Redbox (Inside Walmart),United States
43760,-120.04098799999998,38.465252,Randy Ksar,779368,2020-02-17 15:23:49,"Saratoga, CA",poi,Bear Valley Village,United States
41940,-122.02884099999999,37.266726,Randy Ksar,779368,2020-02-18 16:27:16,"Saratoga, CA",city,"Saratoga, CA",United States
175,39.2541285,21.5857105,,779368026,2020-04-14 07:34:52,Kingdom of Saudi Arabia,city,",   ",  
9,115.9283185,-32.1501005,Brent Hedley,779368394,2020-03-06 01:18:28,"Melbourne, Australia",city,"Perth, Western Australia",Australia
42020,-120.6597175,35.154725,Riah,779368441719336960,2020-02-14 20:30:08,"Santa Maria, CA",city,"Pismo Beach, CA",United States
42200,-120.41958400000001,34.932367,Riah,779368441719336960,2020-02-14 23:50:45,"Santa Maria, CA",city,"Santa Maria, CA",United States
38060,-112.1246765,33.5528625,Riah,779368441719336960,2020-02-22 16:52:59,"Santa Maria, CA",city,"Phoenix, AZ",United States
42200,-120.4232365,34.87540300000001,Riah,779368441719336960,2020-03-01 05:28:16,"Santa Maria, CA",city,"Orcutt, CA",United States
42020,-120.6597175,35.154725,Riah,779368441719336960,2020-03-05 14:56:22,"Santa Maria, CA",city,"Pismo Beach, CA",United States
42200,-120.4232365,34.87540300000001,Riah,779368441719336960,2020-03-13 21:13:55,"Santa Maria, CA",city,"Orcutt, CA",United States
88,139.695285,35.658324,YUA,77936859,2020-03-10 03:11:57,,poi,Club HARLEM,
19740,-104.942745,39.747966,Spencer Bowles,779368782078758913,2020-02-23 16:40:05,"Denver, CO",poi,Denver Museum of Nature and Science,United States
21,-43.441578,-22.911421500000003,G.,779369088137170944,2020-02-14 03:52:03,CG/RJ,city,"Rio de Janeiro, Brasil",Brasil
40420,-89.002071,42.29846,This Farm Girl Cooks - Deanne Frieders,779369302893789185,2020-02-29 01:39:16,"Illinois, USA",poi,Christian Life Schools,United States
16980,-88.61459350000001,41.6466075,This Farm Girl Cooks - Deanne Frieders,779369302893789185,2020-03-19 16:21:19,"Illinois, USA",city,"Sandwich, IL",United States
38900,-122.6220445,45.6571565,Rick Brewer  ,77936948,2020-02-29 03:16:01,"Vancouver Wa,",city,"Minnehaha, WA",United States
65,1.4329005,43.600757,Didier Tchetche,779369538752315392,2020-03-16 14:55:39,"Toulouse, France",city,"Toulouse, France",France
205,-2.451174,52.6671545,Connor Williams,779369542472597505,2020-02-29 20:20:59,"Telford, England",city,"Telford, England",United Kingdom
186,2.006363,41.582976,Terra Nova World Studios,779369884744556544,2020-04-29 10:20:58,"Terrassa, Espaa",city,"Terrassa, Espaa",Espaa
205,-1.176203,52.960365,D2,779369907150548992,2020-05-09 18:32:43,,poi,Jamaica Ways,United Kingdom
24,-79.88034049999997,44.752589,Sherry dorion,779369909444833281,2020-02-22 16:01:46,"Midland, Ontario",city,"Midland, Ontario",Canada
82,76.65174999999998,30.7442755,shubhum sharma,779369909784498177,2020-03-25 13:20:34,"Kharar, India",city,"Kharar, India",India
45220,-84.26617399999999,30.4762155,Brittany Morgan Clark,779370025,2020-04-30 02:20:43,"Tallahassee, FL",city,"Tallahassee, FL",United States
205,-3.8881175000000003,55.999861,Mrs Mackay,779370436048068608,2020-04-14 10:30:53,,city,"Bonnybridge, Scotland",United Kingdom
82,72.87424399999999,19.174139999999998,pritam,779370453655756800,2020-05-05 15:50:30,"Malabar Hill, Mumbai",city,"Mumbai, India",India
19100,-96.621634,32.907641999999996,Leidy Moreno,779370524,2020-02-14 00:10:59,"Dallas, TX",city,"Garland, TX",United States
88,135.79412100000002,34.559667000000005,C3,779370564091686912,2020-04-07 10:02:32,,city, ,
16980,-87.732013,41.8335845,Ben TenPas,779370804,2020-03-03 18:09:40,,city,"Chicago, IL",United States
211,-67.995457,10.1763255,Luis Miguel Reveron,779370976521949184,2020-03-19 21:42:20,"Carabobo, Venezuela",city,"Valencia, Venezuela",Venezuela
222,110.365002,-7.1928339999999995,qih,779371050924544000,2020-02-22 00:46:44,"Bekasi, Jawa Barat",poi,Mawar Camping Ground,Indonesia
21,-43.441578,-22.911421500000003,BONFIM 22 ,779371522985164800,2020-02-14 09:21:31,,city,"Rio de Janeiro, Brasil",Brasil
164,-9.2315585,38.7594885,Vinicius Hannyel,779371764572950531,2020-02-17 01:55:28,,city,"Amadora, Portugal",Portugal
193,98.968911,18.79172,love isn't you,779371787142373376,2020-02-20 11:26:05,"Chiang Mai, Thailand",city,"Chiang Mai, Thailand",Thailand
38,-74.809967,4.3070059999999994,Ninfa Soto,779371970970394625,2020-04-27 16:37:40,"Girardot, Colombia",poi,Parque Acutico Las Olas - Girardot,Colombia
193,100.798682,6.9414955,Sak Chelsea.,779372252336750592,2020-04-10 02:03:45,", ",city,", ",
222,106.740404,-6.3168635,tukang bacot,779372353562169346,2020-03-08 11:16:27,,city,"Pamulang, Indonesia",Indonesia
151,3.3180660000000004,6.590611,yourfavouriteinfluencer,779372632164691968,2020-04-03 21:57:53,"Lagos, Nigeria",city,"Ikeja, Nigeria",Nigeria
200,29.0052225,41.0213205,Yusuf Akyol,779372894388453376,2020-02-26 19:43:59,"stanbul, Trkiye",city,"stanbul, Trkiye",Trkiye
21,-44.3025505,-2.6292855,Angiie | ,779372911773773824,2020-03-13 02:51:41,"So Luis, Brasil",city,"So Lus, Brasil",Brasil
8,-58.013021499999994,-34.9363185,Soy El Pollo,779373181111074817,2020-02-22 12:42:45,,city,"La Plata, Argentina",Argentina
19100,-97.13046999999999,32.722629,Andrew Batts,779373517,2020-02-23 20:03:56,"Fort Worth, TX",poi,Clay Gould Ballpark,United States
18580,-97.432425,27.737151,Andrew Batts,779373517,2020-04-25 21:16:07,"Fort Worth, TX",city,"Corpus Christi, TX",United States
19100,-97.1356375,32.70185,Andrew Batts,779373517,2020-04-29 17:04:35,"Fort Worth, TX",city,"Arlington, TX",United States
24020,-73.6482,43.3121,George Branchaud,779374122342187008,2020-06-08 04:14:58,"Glens Falls, NY",city,"Glens Falls, NY",United States
205,-3.2553490000000003,51.4070695,Jayne Gough,779374184250085376,2020-04-21 09:50:36,,city,"Barry, Wales",United Kingdom
205,-1.404722,50.906944,Lesley Strachan,779374200532377600,2020-04-30 15:19:16,"Southampton, England",city,"Southampton, England",United Kingdom
19100,-97.116784,32.5735485,Montaye Dawson,779374560768512000,2020-03-18 17:55:38,"Mansfield, TX",city,"Mansfield, TX",United States
82,85.843187,20.305195,Siddhant Sharma,779375014403375104,2020-03-03 05:08:59,"Bengaluru, India",poi,"Bhubaneswar,Orissa",India
222,106.851028,-6.2028739999999996,Yazid | ,77937503,2020-02-14 06:42:28,Nusantara,poi,LKK NU Matraman,Indonesia
88,136.64793002,36.57813391,,779375460,2020-02-15 23:51:31,,city, ,
151,7.438761,10.586766,Jay_R,779375467950436352,2020-04-28 21:53:11,,poi,Nigerian Air Force Kaduna,Nigeria
82,80.26180550000002,13.024394500000001,Madan Mohan,779375608815955968,2020-03-21 08:35:21,,city,"Mylapore Tiruvallike, India",India
38,-72.6948055,7.356692,Maira,779375671948746753,2020-03-07 03:29:04,,city,"Pamplona, Colombia",Colombia
82,77.095086,28.638489500000002,Visshal Sharma,779375827083558912,2020-03-19 19:19:22,"Noida, India",city,"New Delhi, India",India
48,-69.72278667,18.879295000000003,Barry Barrientos,77937605,2020-02-24 02:21:28,Santo Domingo,city,"Sabana Grande de Boy, Dominican Republic",Dominican Republic
14260,-116.35358400000001,43.642373,meg,779376075361034240,2020-04-26 05:44:34,Boise State University ,poi,BioLife Plasma Services,United States
119,-99.087817,19.4320755,Valeria Castelln,779377506,2020-02-21 03:46:15,,city,"Venustiano Carranza, Distrito Federal",Mxico
21140,-85.70576998,41.67499411,Wedgewood Brewing,779377529689956352,2020-03-26 18:32:28,"Middlebury, IN",city,"Middlebury, IN",United States
82,79.55285599999998,29.198377,Ravinder S L,77937792,2020-03-07 02:33:48,India,city,"Haldwani-Kathgodam, India",India
21,-48.9664745,-26.261689500000003,@jessyh,779378150329516032,2020-04-06 22:43:55,"Joinville, Brasil",city,"Joinville, Brasil",Brasil
12420,-97.754724,30.3233455,Jessica Shopoff,779378188476493824,2020-02-25 17:13:13,"San Antonio, TX",city,"Austin, TX",United States
31080,-118.125196,34.583628999999995,Jessica Shopoff,779378188476493824,2020-02-28 05:02:59,"San Antonio, TX",city,"Palmdale, CA",United States
41700,-98.412067,29.7551545,Jessica Shopoff,779378188476493824,2020-03-08 02:48:41,"San Antonio, TX",city,"Bulverde, TX",United States
33460,-93.1056485,44.9415155,Mohamedeck,779378241878405120,2020-03-07 16:03:19,United States,city,"St Paul, MN",United States
193,100.5300625,13.753020499999998, /innis250,779378404122505216,2020-02-16 23:12:31,Guangdong,city,", ",
41700,-98.5406515,29.417501,Nancy USA Patriot,779378588957147136,2020-02-14 00:11:09,"San Antonio, TX",city,"San Antonio, TX",United States
222,110.20583870000002,-6.9281872,arifwicaksono,779378610,2020-03-13 13:24:51,,city,"Kendal, Indonesia",Indonesia
175,42.547694,20.002276,25,779378623,2020-02-20 23:52:47,,city,",   ",  
19100,-97.1356375,32.70185,Sammy,779378681986756608,2020-04-14 23:18:28,"Arlington, TX",city,"Arlington, TX",United States
120,100.3730275,5.8031755,Mohd Firdaus,779378772,2020-03-13 10:21:16,,city,"Yan, Kedah",Malaysia
200,26.747386,38.392081,st,779378855949852673,2020-04-26 22:07:49,"zmir, Trkiye",poi,emealt,Trkiye
171,121.0311415,14.7108935,Patrick Elven,77937897,2020-03-05 16:10:59,"Quezon City, National Capital Region",city,"Caloocan City, National Capital Region",Republic of the Philippines
173,37.42764250000001,55.7547875,OliverSm,779379390669066244,2020-03-30 20:12:34,,city,"Moscow, Russia",Russia
222,106.8510905,-6.256264,belina Hutasoit,77937982,2020-02-24 13:31:36,,city,"Pancoran, Indonesia",Indonesia
33100,-80.34602,25.611439999999998,Iris Cohen,779379821906370560,2020-06-04 14:25:06,"Miami, FL",city,"East Perrine, FL",United States
193,100.397028,13.917720000000001,nok,77937989,2020-02-28 11:35:58,,poi,Lotus Express,
82,77.095086,28.638489500000002,Varun Kumar,779380028089991168,2020-05-08 09:10:54,"New Delhi, India",city,"New Delhi, India",India
31080,-118.4119065,34.0207895,Miles Brown,77938023,2020-02-14 07:01:52,"Oxnard, CA",city,"Los Angeles, CA",United States
16980,-87.732013,41.8335845,Miles Brown,77938023,2020-02-14 23:07:16,"Oxnard, CA",city,"Chicago, IL",United States
31080,-118.4119065,34.0207895,Miles Brown,77938023,2020-02-18 23:48:03,"Oxnard, CA",city,"Los Angeles, CA",United States
37100,-118.731399,34.2673105,Miles Brown,77938023,2020-05-01 22:09:07,"Oxnard, CA",city,"Simi Valley, CA",United States
31080,-118.4119065,34.0207895,Miles Brown,77938023,2020-05-03 10:24:18,"Oxnard, CA",city,"Los Angeles, CA",United States
12420,-97.754724,30.3233455,Brianna,779380292934963204,2020-02-14 09:36:03,"Austin, TX",city,"Austin, TX",United States
41700,-98.5406515,29.417501,Brianna,779380292934963204,2020-02-27 03:52:19,"Austin, TX",city,"San Antonio, TX",United States
12420,-97.754724,30.3233455,Brianna,779380292934963204,2020-02-29 20:50:17,"Austin, TX",city,"Austin, TX",United States
41700,-98.5406515,29.417501,Brianna,779380292934963204,2020-03-08 20:31:47,"Austin, TX",city,"San Antonio, TX",United States
12420,-97.754724,30.3233455,Brianna,779380292934963204,2020-03-10 11:30:26,"Austin, TX",city,"Austin, TX",United States
82,76.4308915,19.261060500000003,Suryakant Naik,779380675401003008,2020-03-31 09:45:13,Parbhani,city,"Pathri, India",India
205,-2.1270404999999997,57.16055600000001,Dylan Duncan,779380858566406144,2020-02-17 23:09:51,"Aberdeen, Scotland",city,"Aberdeen, Scotland",United Kingdom
38,-75.56139352,6.25339194,Zg,779380881559543813,2020-03-12 22:43:49,Medelln ,city,"Medelln, Colombia",Colombia
75,-13.620645999999999,9.574366,Gilles Hareng,779381003626373124,2020-02-24 20:14:52,France,poi,Conakry International Airport (CKY),Guine
65,2.3328695,48.805306,Gilles Hareng,779381003626373124,2020-02-26 08:39:04,France,city,"Arcueil, France",France
115,-16.034551,18.217188,Gilles Hareng,779381003626373124,2020-03-01 16:46:21,France,poi,Oceanides,Mauritania
65,2.3328695,48.805306,Gilles Hareng,779381003626373124,2020-03-17 07:36:54,France,city,"Arcueil, France",France
222,110.31781399999998,-7.784254000000002,imron,779381262826045440,2020-05-02 15:18:26,"Sleman, Indonesia",city,"Gamping, Indonesia",Indonesia
8,-64.1980255,-31.4154565,Tati,779381673976815617,2020-05-10 04:49:59,,city,"Crdoba, Argentina",Argentina
21,-40.589011,-9.035239,Gleidson Almeida,779381830646718464,2020-05-25 07:06:44,Petrolina/Juazeiro ,city,"Petrolina, Brasil",Brasil
21,-40.470364,-20.307374499999998,gi,779382655,2020-02-14 02:58:09,"Esprito Santo, Brasil",city,"Cariacica, Brasil",Brasil
9,149.1297825,-35.313979499999995,Warwick Baxter,779382763,2020-04-21 03:40:54,,city,"Canberra, Australian Capital Territory",Australia
88,137.2235695,37.4441695,Takonori,779382876005543936,2020-04-08 14:36:29,,city, ,
193,100.848809,13.6099,Bossz,779383043941216256,2020-03-03 13:32:52,,poi,The Porch ABAC,
82,75.74752099999999,26.909683,RAJ SINGH,779383188,2020-05-17 07:50:27,"Jaipur, India",city,"Jaipur, India",India
21,-43.1975,-22.908,isa estephanie,779383212015484928,2020-02-28 04:53:58,"Rio de Janeiro, Brasil",city,"Rio de Janeiro, Brasil",Brasil
41860,-122.55543899999999,38.093358,Steven Frank,779383411429482497,2020-05-02 00:36:37,"Novato, CA",city,"Novato, CA",United States
222,106.838007,-6.459111,dian endri,77938352,2020-03-29 04:43:38,"Mampangprapatan, Indonesia",poi,Graha Selaras,Indonesia
38,-74.24367099999999,4.2622835,Fer Rubio,779383675,2020-03-22 21:08:53,"Bogot, D.C., Colombia",city,"Bogot, D.C., Colombia",Colombia
200,32.8183815,39.8889765,RFAN YEM,779383867,2020-05-01 12:20:44,ANKARA,city,"Ankara, Trkiye",Trkiye
24,-79.91352049999999,43.260695500000004,Holistic Nursing Services,779384155817717760,2020-03-17 16:51:16,"Hamilton, Ontario",city,"Hamilton, Ontario",Canada
200,44.0386765,39.92234000000001,Ferhat Aksur GS ,779384354413961217,2020-02-16 13:24:54,"stanbul, Trkiye",city,"Idr, Trkiye",Trkiye
26420,-95.4464865,29.838495,bisc ,779384375888621568,2020-02-14 00:56:14,United States,city,"Houston, TX",United States
24,-80.54691600000001,43.4821515,arminder_b,779384699181494272,2020-03-16 04:24:59,,city,"Waterloo, Ontario",Canada
13140,-94.1267,30.0799,Payzo from SUBR,779384881411452928,2020-04-10 03:45:22,"Beaumont, TX",city,"Beaumont, TX",United States
65,6.0161805,43.1290465,fefedu83,77938504,2020-02-25 07:25:35,la garde,city,"La Garde, France",France
175,46.787113,24.68291,Sadeem,779385480,2020-03-04 16:41:52,Riyadh,poi,Iv Speciality Cafe,Kingdom of Saudi Arabia
82,70.89601250000003,22.2624275,YaSh JaNi,779385601632112641,2020-04-08 05:01:05,"Rajkot, India",city,"Rajkot, India",India
31080,-117.99940900000001,34.1391715,Brian V. Brown,779385728727912448,2020-03-18 11:33:28,"Los Angeles, CA",city,"Monrovia, CA",United States
37980,-75.154234,39.961544,RoyPitz Barrel House,779385785896230912,2020-02-27 17:14:18,"Philadelphia, PA",poi,Roy Pitz Barrel House,United States
88,138.573265,35.677525,Kang Gatsby,779385866,2020-03-19 08:46:02,Old Trafford,poi,,Japan
120,101.6494125,3.2946425,Kang Gatsby,779385866,2020-04-07 12:12:55,Old Trafford,city,"Batu, Selangor",Malaysia
24,-113.49261750000001,53.5558195,ssuc_yeg,779385899163332608,2020-04-02 05:34:25,10740 19 Ave NW /Treaty 6 /yeg,city,"Edmonton, Alberta",Canada
120,100.4110185,5.1081509999999986,,779385955,2020-06-09 09:51:07,"Perak, Malaysia",city,"Bagan Tiang, Perak",Malaysia
35620,-74.380317,40.995528,Patrick Foster,779385964431015936,2020-06-07 22:08:09,"Kinnelon, NJ",city,"Kinnelon, NJ",United States
41940,-121.77781599999999,37.228406,Ken Tang,779386126448463872,2020-06-10 00:36:57,,poi,Vitality Chiropractic,United States
205,-0.103675,51.520905,printfarringdon,779386203892228097,2020-06-01 12:34:19,"London, England",city,"Islington, London",United Kingdom
222,106.789773,-6.3451445,iman akhirudin,77938637,2020-04-18 07:17:20,Serpong,city,"Lima, Indonesia",Indonesia
46520,-157.799589,21.3199435,Alexandria Buchanan,779386422197313536,2020-02-21 20:48:05,"Honolulu, HI",city,"Honolulu, HI",United States
21,-48.478899,-27.609691,Letcia de Castro,779386824196251648,2020-02-16 21:00:48,,city,"Florianpolis, Brasil",Brasil
19820,-83.26079449999999,42.146817999999996,Ed umin,779386927397085184,2020-03-15 16:29:35,,city,"Woodhaven, MI",United States
37980,-75.117998,40.0048655,Stephen Thomas,779386932262567941,2020-02-14 17:10:59,"Philadelphia, PA",city,"Philadelphia, PA",United States
42540,-75.74111450000002,41.370639000000004,Stephen Thomas,779386932262567941,2020-03-02 16:12:12,"Philadelphia, PA",city,"Old Forge, PA",United States
37980,-75.7389895,39.6020915,Stephen Thomas,779386932262567941,2020-03-06 14:30:20,"Philadelphia, PA",city,"Glasgow, DE",United States
41940,-122.14403,37.414371,Marina Martin,779386948129394689,2020-03-04 15:40:21,,city,"Palo Alto, CA",United States
27260,-81.81765312,30.2228408,Tim Little,779387480910991361,2020-03-03 03:36:46,"Samos Island, Greece",neighborhood,"Southwest, FL",United States
200,28.978144,41.007932000000004,Tim Little,779387480910991361,2020-04-24 20:23:36,"Samos Island, Greece",city,"stanbul, Trkiye",Turkey
27260,-81.61250849999998,30.094251500000002,Tim Little,779387480910991361,2020-05-24 12:19:36,"Samos Island, Greece",city,"Fruit Cove, FL",United States
29460,-81.63166667,28.13333333,Tim Little,779387480910991361,2020-06-03 15:20:38,"Samos Island, Greece",city,"Haines City, FL",United States
205,-2.896507,53.2789415,Lisa Conway,779387776458485761,2020-03-18 15:49:04,"West Cheshire, England, UK",city,"Ellesmere Port, England",United Kingdom
171,121.034718,14.63231,Shy,77938817,2020-02-28 13:34:50,Quezon City,poi,Krispy Kreme,Republic of the Philippines
65,1.3995145,43.528686500000006,C.H.A.R.A,779388212791939073,2020-02-14 18:47:42,"Toulouse, France",city,"Portet-sur-Garonne, France",France
21,-43.3697645,-22.7854705,Bia ,779388275400335360,2020-02-17 02:36:49,"Venda Velha, So Joo de Merit",city,"So Joo de Meriti, Brasil",Brasil
82,76.974691,28.368525,Ruchira |  | ,77938832,2020-03-17 12:41:31,India,city,"Gurgaon, India",India
172,-66.004657,18.437701,Lizdanelly ,779388600639033344,2020-02-14 21:27:28,El *archipielago* del encanto ,poi,Luis Muoz Marn International Airport (SJU),United States
47900,-77.00905300000001,38.890031,Lizdanelly ,779388600639033344,2020-02-17 14:22:22,El *archipielago* del encanto ,poi,United States Capitol,United States
16060,-89.2232095,37.717654,G.Mittch,779388626,2020-02-18 01:57:48,,city,"Carbondale, IL",United States
33460,-93.1056485,44.9415155,G.Mittch,779388626,2020-04-27 19:49:16,,city,"St Paul, MN",United States
39580,-78.515337,35.9590235,_seewhatisee_,779389215935197184,2020-03-10 12:11:17,"North Carolina, USA",city,"Wake Forest, NC",United States
8,-64.1980255,-31.4154565,ludmila,779389325167497217,2020-02-28 18:57:05,"Crdoba, Argentina",city,"Crdoba, Argentina",Argentina
205,-3.0033305,53.632616000000006,Sam Guest,779389397322072064,2020-02-21 21:11:57,"Southport, England",city,"Southport, England",United Kingdom
171,120.6034085,16.058754500000003,juswa,779389741,2020-02-17 02:58:13,,city,"Binalonan, Ilocos Region",Republic of the Philippines
96,47.970514,29.367841,SM,779389877687296000,2020-02-14 15:00:13,,city,",  ", 
17460,-81.47324499999998,41.4433345,Alex,779389878551375873,2020-03-05 23:41:05,Cleveland,city,"Orange, OH",United States
205,-1.6453615000000001,54.992055500000006,Zori Miladinova,779389885526466560,2020-05-15 18:05:16,,city,"Newcastle Upon Tyne, England",United Kingdom
82,75.254366,22.8695315,Subhash solanki,779390008650297344,2020-05-11 16:34:57,"indore,india",city,"Kanun, India",India
200,27.006511,38.4079305,Bekir ARSLAN,779390085015953408,2020-02-22 14:50:01,"zmir, Trkiye",city,"zmir, Trkiye",Trkiye
151,3.39080664,6.55235577,Amydar Balogun,77939013,2020-04-09 10:51:40,Lagos Nigeria,city,"Ikeja, Nigeria",Nigeria
120,101.663706,3.115821,Al-Yanieff Ikqzuan,779390159917715456,2020-05-24 03:29:17,Neptune,poi,TM Annexe 2,Malaysia
40900,-121.469664,38.561721999999996,Pam Spaulding,7793902,2020-02-27 23:11:33,"Merced, CA",city,"Sacramento, CA",United States
32900,-120.47181,37.3162225,Pam Spaulding,7793902,2020-02-28 00:11:47,"Merced, CA",city,"Merced, CA",United States
205,-0.14893599999999999,51.500091999999995,Banucci,779390211243507712,2020-02-20 00:31:34,"London, England",city,"London, England",United Kingdom
12420,-97.754724,30.3233455,Bret Williams,779390231996837889,2020-03-02 03:22:20,"Austin, TX",city,"Austin, TX",United States
41940,-121.8737305,37.331159,bell ,779390341,2020-02-18 04:20:26,"East Oakland, CA",city,"San Jose, CA",United States
41860,-122.2286855,37.791994,bell ,779390341,2020-02-29 03:57:30,"East Oakland, CA",city,"Oakland, CA",United States
41940,-121.8737305,37.331159,bell ,779390341,2020-03-04 01:15:56,"East Oakland, CA",city,"San Jose, CA",United States
41860,-122.0857755,37.64127050000001,bell ,779390341,2020-03-07 03:25:54,"East Oakland, CA",city,"Hayward, CA",United States
41940,-121.8737305,37.331159,bell ,779390341,2020-03-07 17:57:58,"East Oakland, CA",city,"San Jose, CA",United States
46700,-122.23022250000001,38.114777,bell ,779390341,2020-03-08 04:58:21,"East Oakland, CA",city,"Vallejo, CA",United States
41940,-121.8737305,37.331159,bell ,779390341,2020-03-08 19:11:55,"East Oakland, CA",city,"San Jose, CA",United States
41860,-122.2286855,37.791994,bell ,779390341,2020-03-16 23:51:55,"East Oakland, CA",city,"Oakland, CA",United States
82,75.74752099999999,26.909683,Hitendra Shekhawat,779390520254566401,2020-05-23 07:38:07,"Rajasthan, India",city,"Jaipur, India",India
16980,-87.732013,41.8335845,SwiftBA,779390559949651969,2020-03-18 22:53:51,"Buenos Aires, Argentina",city,"Chicago, IL",United States
171,122.12487649999998,13.879589999999999,Rolfe,779390586,2020-02-14 06:24:21,"Manila, Philippines",city,"Gumaca, Calabarzon",Republic of the Philippines
16980,-87.0561785,41.477903000000005,MAAC Foundation,779390843253772288,2020-03-13 23:01:54,"Valparaiso, IN",city,"Valparaiso, IN",United States
36740,-81.3677725,28.5016785,Life of Si ,779391012,2020-02-16 21:28:42,Flo-rida/ Chicago,city,"Orlando, FL",United States
21,-46.5955455,-23.682803,Bibia,779391398,2020-02-14 01:19:32,+5511,city,"So Paulo, Brasil",Brasil
40140,-117.124,33.5033,Michelle L Rodriguez,77939148,2020-02-14 18:18:35,"San Diego, CA",city,"Temecula, CA",United States
31080,-118.18707585,33.97561529,Michelle L Rodriguez,77939148,2020-02-19 03:58:39,"San Diego, CA",city,"Bell, CA",United States
41740,-116.954,32.7949,Michelle L Rodriguez,77939148,2020-03-11 06:56:59,"San Diego, CA",city,"El Cajon, CA",United States
119,-117.0272472,32.5229285,Michelle L Rodriguez,77939148,2020-03-22 01:38:40,"San Diego, CA",city,"Tijuana, Baja California",Mexico
40140,-117.124,33.5033,Michelle L Rodriguez,77939148,2020-03-29 06:12:18,"San Diego, CA",city,"Temecula, CA",United States
41740,-117.1585,32.7155,Michelle L Rodriguez,77939148,2020-03-31 04:41:34,"San Diego, CA",city,"San Diego, CA",United States
40140,-117.124,33.5033,Michelle L Rodriguez,77939148,2020-04-11 00:11:10,"San Diego, CA",city,"Temecula, CA",United States
41740,-117.16042,32.71403,Michelle L Rodriguez,77939148,2020-04-18 19:01:21,"San Diego, CA",city,"San Diego, CA",United States
40140,-117.124,33.5033,Michelle L Rodriguez,77939148,2020-04-20 04:40:31,"San Diego, CA",city,"Temecula, CA",United States
41740,-116.94252222,32.55839167,Michelle L Rodriguez,77939148,2020-05-05 02:37:40,"San Diego, CA",city,"San Diego, CA",United States
40140,-117.124,33.5033,Michelle L Rodriguez,77939148,2020-05-07 07:36:08,"San Diego, CA",city,"Temecula, CA",United States
12540,-119.01899999999999,35.3733,Michelle L Rodriguez,77939148,2020-05-10 18:22:38,"San Diego, CA",city,"Bakersfield, CA",United States
31080,-118.352,33.9383,Michelle L Rodriguez,77939148,2020-05-13 18:07:01,"San Diego, CA",city,"Lennox, CA",United States
41740,-117.1585,32.7155,Michelle L Rodriguez,77939148,2020-05-29 18:13:00,"San Diego, CA",city,"San Diego, CA",United States
31080,-118.415659,34.265611,Michelle L Rodriguez,77939148,2020-06-07 01:46:38,"San Diego, CA",city,"Los Angeles, CA",United States
41740,-117.10498899999999,32.810012,brenda,779391584114647040,2020-02-15 06:36:43,"La Jolla, San Diego",city,"San Diego, CA",United States
31460,-120.063829,36.9637405,brenda,779391584114647040,2020-05-11 16:55:58,"La Jolla, San Diego",city,"Madera, CA",United States
175,40.4908105,21.38543, ,779391886851182592,2020-05-15 23:25:50,,city,",   ",  
31080,-117.665949,33.513451,Wits Inn,77939191,2020-02-14 23:35:10,"Orange County, California",city,"San Juan Capistrano, CA",United States
28140,-94.25864399999999,38.79831400000001,Maddy,779392081835859969,2020-05-06 03:22:11,Kansas City,city,"Pleasant Hill, MO",United States
178,25.655165,-25.873317,Ntebo,779392429644509184,2020-02-28 13:05:24,"Kempton Park, South Africa",city,"Mafikeng, South Africa",South Africa
222,107.758133,-6.5616575,YRS,779392639,2020-02-21 23:58:52,"Subang, Indonesia",city,"Subang, Indonesia",Indonesia
96,47.822992,29.239154,rayan,779392704509800449,2020-02-25 16:37:59,.,poi, | chabd, 
119,-115.22918,31.7896695,Martin Ochoa,779392736,2020-03-07 12:45:41,,city,"Mexicali, Baja California",Mexico
35620,-73.9685415,40.780709,Richard Stokes,779392795,2020-03-04 14:16:19,,city,"Manhattan, NY",United States
186,-1.987711,43.2778715,Jorge,779392884680294400,2020-04-09 11:40:24,"San Sebastin, Espaa",city,"San Sebastin, Espaa",Espaa
29820,-115.13516499999999,36.060964500000004,Deutschman,779392896839585792,2020-02-20 03:33:55,"Paradise, NV",city,"Paradise, NV",Estados Unidos
40140,-116.4208465,33.779234499999994,Deutschman,779392896839585792,2020-03-05 00:24:31,"Paradise, NV",city,"Rancho Mirage, CA",Estados Unidos
31080,-117.85108899999999,33.842863,Deutschman,779392896839585792,2020-03-07 02:09:05,"Paradise, NV",city,"Anaheim, CA",Estados Unidos
29820,-115.13516499999999,36.060964500000004,Deutschman,779392896839585792,2020-03-14 07:28:38,"Paradise, NV",city,"Paradise, NV",Estados Unidos
31180,-101.897173,33.5705265,Deutschman,779392896839585792,2020-06-07 05:51:29,"Paradise, NV",city,"Lubbock, TX",Estados Unidos
42140,-105.9991065,35.6565515,Deutschman,779392896839585792,2020-06-10 17:38:05,"Paradise, NV",city,"Santa Fe, NM",Estados Unidos
10740,-106.53778999999999,35.3103295,Deutschman,779392896839585792,2020-06-10 18:39:21,"Paradise, NV",city,"Bernalillo, NM",Estados Unidos
22140,-108.193367,36.75742,Deutschman,779392896839585792,2020-06-10 21:59:30,"Paradise, NV",city,"Farmington, NM",Estados Unidos
175,45.96981702,28.39449441, |  ,779392943945879554,2020-03-01 19:08:38,  ,city," ,   ",  
41700,-98.5406515,29.417501,Passmore Elementary,779393014875627520,2020-05-08 19:18:04,"San Antonio, TX",city,"San Antonio, TX",United States
85,9.1593365,45.461345,Eleonora,779393031824900096,2020-02-15 08:17:05,"Milano, Lombardia",city,"Milano, Lombardia",Italia
178,27.968098,-26.2761385,LizellIsTheQueen,77939313,2020-02-14 05:47:38,"Jhb, Gauteng ",city,"Johannesburg, South Africa",South Africa
119,-100.2794735,25.374897,Abigail,779394150,2020-02-15 22:52:17,,city,"Santiago, Nuevo Len",Mexico
38060,-112.261283,33.531892,Lisa Stipp,779394152,2020-03-01 00:54:06,,poi,Gila River Arena,United States
24,-113.12109299999999,53.6239735,Adrienne Dubinsky,779394392,2020-04-01 12:32:03,,city,"Strathcona County, Alberta",Canada
82,80.62048850000001,16.610865,HM JUNAID AHMED,779394456533557248,2020-04-03 05:55:55,"Jiribam, Manipur, India.",city,"Vijayawada, India",India
60,27.364075,61.7043445,Petteri Mattila,779394647055630336,2020-03-17 18:37:33,Mikkeli,city,"Mikkeli, Suomi",Suomi
24,-79.5124,43.8549,Starlight Dental,779394764579999744,2020-02-22 16:11:13,"Vaughan, Ontario",city,"Vaughan, Ontario",Canada
17300,-87.3221685,36.5509835,Samiym Muhammad,779394841,2020-06-03 20:01:39,"Clarksville, TN",city,"Clarksville, TN",United States
43780,-86.1205405,41.7348625, C ,779394889851269120,2020-02-16 18:17:50,"Indiana, USA",city,"Granger, IN",United States
21140,-85.716099,41.667989, C ,779394889851269120,2020-02-20 00:10:23,"Indiana, USA",city,"Middlebury, IN",United States
43780,-86.1531435,41.674541999999995, C ,779394889851269120,2020-02-23 06:31:12,"Indiana, USA",city,"Mishawaka, IN",United States
21140,-85.9586865,41.6799985, C ,779394889851269120,2020-02-23 16:15:12,"Indiana, USA",city,"Elkhart, IN",United States
40140,-117.39761599999999,33.935821999999995,Virginia Van Zandt,779394896,2020-02-26 22:13:03,"California, USA",city,"Riverside, CA",United States
162,15.7443085,50.76444,Maks Witek,779394955638870016,2020-02-14 19:29:29,United Kingdom,city,"Karpacz, Poland",Poland
205,-2.3312305,53.4559985,Maks Witek,779394955638870016,2020-02-27 17:37:15,United Kingdom,city,"Urmston, England",United Kingdom
164,-8.227667499999999,37.144667,Bea :),779395054356074496,2020-02-15 23:43:27,,city,"Albufeira, Portugal",Portugal
178,18.4890615,-34.1216575,Naz,779395173025456128,2020-03-28 07:01:45,,city,"Cape Town, South Africa",South Africa
9,150.931975,-33.848244,Shani Langi Latukefu,77939531,2020-05-16 01:58:23,Sydney,city,"Sydney, New South Wales",Australia
96,47.93799350000001,29.28411,  ,779395544,2020-02-25 23:01:12,Kuwait - Al-Rehab,city,",  ", 
222,106.79507,-6.25589,DerricFelgyVarendy,77939563,2020-03-17 09:09:30,,city,"Kebayoran Baru, Indonesia",Indonesia
33100,-80.1936,25.7751,DerricFelgyVarendy,77939563,2020-05-27 06:25:49,,city,"Miami, FL",United States
21,-46.621235,-20.727937,Julha ,779395967023976448,2020-05-27 14:22:40,ela/dela,city,"Passos, Brasil",Brasil
65,7.2530225,43.703021,Jimmy,779396745847537664,2020-03-31 16:34:14,"Nice, France",city,"Nice, France",France
222,106.65896416,-6.11806768,delrizki,77939693,2020-02-14 02:54:42,malang - jatim,city,"Benda, Indonesia",Indonesia
71,13.4246065,52.506701,Claudiu Ciurea,779396981785493504,2020-03-02 22:04:43,"Berlin, Deutschland",city,"Berlin, Deutschland",Deutschland
42200,-119.701636,34.429885,mittens,779397206856069121,2020-02-17 16:17:04,"Lancaster, CA",city,"Santa Barbara, CA",United States
85,11.20605469,43.22919511,Christoph Brnnimann,77939724,2020-03-06 15:26:06,"Zrich, Zrich, Schweiz",city,"Sovicille, Toscana",Italien
191,7.93549736,47.43257316,Christoph Brnnimann,77939724,2020-04-13 07:13:00,"Zrich, Zrich, Schweiz",city,"Oltingen, Schweiz",Schweiz
173,30.328698,59.934148,G,779397388301639680,2020-02-14 17:06:12,"-, ",city,"-, ",
175,46.685077,24.7219435,Aseel,779397403355049984,2020-02-14 00:19:00,,city,",   ",  
9,146.3516715,-41.2014185,Serve-Ag,779397475,2020-03-24 07:39:39,"Tasmania, Australia",city,"Devonport, Tasmania",Australia
88,139.4625355,35.803453999999995,,779397491372400641,2020-04-09 12:32:51, ,city, ,
205,-0.191723,50.839575,Toni Pettett,779397810848432128,2020-03-08 18:37:10,"Hove, England",city,"Hove, England",United Kingdom
200,29.123511999999998,40.933155,ayeki,779397920089079808,2020-04-20 13:56:13,"stanbul, Trkiye",poi,Adatepe,Trkiye
38,-75.619213,6.270883,Karen Pava,779398176,2020-02-16 01:36:29,,city,"Medelln, Colombia",Colombia
37980,-74.696936,40.1487165,Bordentown Wrestling,779398217926602752,2020-02-18 19:53:36,"Bordentown, NJ",city,"Bordentown, NJ",United States
82,77.23377099999999,28.624658,"Sunieta ojha, Lawyer",77939826,2020-02-18 11:42:14,India,poi,National School Of Drama |    ,India
24,-79.38715951,43.64260487,Efran Negrn,779398403323260931,2020-04-15 00:21:01,"Statesboro, GA",city,"Toronto, Ontario",Canada
27260,-81.3949,30.2883,Efran Negrn,779398403323260931,2020-05-17 23:39:32,"Statesboro, GA",city,"Jacksonville Beach, FL",United States
178,30.814191499999996,-29.8374105,Dick Goodwood,77939847,2020-02-16 06:14:16,,city,"Pinetown, South Africa",South Africa
33460,-93.2620465,44.9706105,Jeff Dubois,779398988206256128,2020-05-18 15:43:09,"Minneapolis, MN",city,"Minneapolis, MN",United States
200,29.0052225,41.0213205,shortcake,779399051318099969,2020-04-01 19:03:28,,city,"stanbul, Trkiye",Turkey
171,121.08234499999999,14.5833065,Dianne Fanoga MD,77939987,2020-02-14 14:24:09,philippines,city,"Pasig City, National Capital Region",Republic of the Philippines
31080,-117.874032,33.617638,  ,779400037310816256,2020-02-15 04:15:10,,city,"Newport Beach, CA",United States
225,54.65010899999999,24.729435000000002,BH,779400037310816256,2020-04-20 15:51:18,,poi,Al Hanyora,United Arab Emirates
222,112.746468,-7.4921405,Ika Rachma,779400438,2020-02-26 02:15:13,Sidoarjo,city,"Candi, Indonesia",Indonesia
24,-123.66945349999999,48.846084499999996,Lexie,779400673188155392,2020-02-26 05:34:55,In a grave yard,city,"North Cowichan, British Columbia",Canada
34060,-79.9438375,39.6293145,Big Shots Girls Hoop,779400847591612416,2020-04-22 18:36:16,Nationwide ,city,"Morgantown, WV",United States
200,29.986509499999997,39.4132955,,779400890973315072,2020-04-14 12:25:51,"Ktahya, Trkiye",city,"Ktahya, Trkiye",Trkiye
42660,-122.39788999999999,47.66061,Seven Hills Run Shop,779401088,2020-02-14 03:20:32,"Seattle--Magnolia, Discovery P",city,"Seattle, WA",United States
205,-2.1168695,53.54286550000001,Oldham Food Aid Hub (UKeff),779401130254143488,2020-03-22 11:43:14,72 Yorkshire St Oldham OL1 1SR,city,"Oldham, England",United Kingdom
31080,-118.41149473,34.06676383,"Gerald Minniti, M.D.",77940121,2020-03-02 21:52:07,"Beverly Hills, CA",city,"Beverly Hills, CA",United States
151,3.34381,6.631310000000001,"Gerald Minniti, M.D.",77940121,2020-04-13 19:17:06,"Beverly Hills, CA",city,"Ikeja, Nigeria",Nigeria
31080,-118.40033000000001,34.07347,"Gerald Minniti, M.D.",77940121,2020-04-16 23:53:38,"Beverly Hills, CA",city,"Beverly Hills, CA",United States
24,-113.83538300000001,51.037544,"Gerald Minniti, M.D.",77940121,2020-05-18 18:29:38,"Beverly Hills, CA",city,"Chestermere, Alberta",Canada
31080,-118.41058999999998,34.065709999999996,"Gerald Minniti, M.D.",77940121,2020-05-19 21:31:11,"Beverly Hills, CA",city,"Beverly Hills, CA",United States
119,-116.929102,32.332876500000005,Emilio Leon,77940127,2020-05-25 16:45:51,San Diego,city,"Tijuana, Baja California",Mexico
21,-43.441578,-22.911421500000003,DJ 2G SHEIK ,779401768144891904,2020-02-14 00:02:02,"Vidigal, Califrnia ",city,"Rio de Janeiro, Brasil",Brasil
82,80.26180550000002,13.024394500000001,mathivanan,779402124526428160,2020-02-20 16:06:37,"Chennai, India",city,"Mylapore Tiruvallike, India",India
8,-58.370833,-34.608861,Kara Guaz,779402420,2020-05-06 23:34:26,Chernobyl,city,"Ciudad Autnoma de Buenos Aires, Argentina",Argentina
203,37.13471,-7.3475220000000006,NK,779403185689653248,2020-03-14 14:50:10,Tanzania,poi,Mikumi National Park,Tanzania
35620,-74.046402,40.885966,Q.breez_,779403246,2020-02-14 03:00:54,,city,"Hackensack, NJ",United States
21,-47.9848085,-16.092893500000002,walmire jr. ,779403392091389953,2020-05-23 06:32:30,"Braslia, Brasil",city,"Valparaso de Gois, Brasil",Brasil
88,135.5839675,34.702339,  ,779403553748070400,2020-02-14 07:56:19,  ,city,  ,
21,-48.08075494,-15.80883302,periciapredial.com,779403664255492096,2020-03-17 12:42:56,"Braslia, Brazil",city,"Braslia, Brasil",Brasil
31080,-117.874032,33.617638,Thomas Melton II,779403761852805120,2020-04-25 20:55:56,"Loma Linda, CA",city,"Newport Beach, CA",United States
35620,-73.9685415,40.780709,Baby Boy,779404096226877441,2020-02-15 03:54:42,"Brooklyn, NY",city,"Manhattan, NY",United States
39580,-78.78389,35.78873,Pure Gold Raleigh,77940438,2020-02-23 01:22:31,"Cary, North Carolina",city,"Cary, NC",United States
25540,-72.8815725,41.5990055,Pastor Jim Townsley,779404440717692932,2020-02-19 13:25:53,"Southington, CT",city,"Southington, CT",United States
151,8.851410000000001,9.863838000000001,Tangkat Mairiga,779404515707654145,2020-05-01 23:01:54,"Jos, Nigeria",city,"Barakin Akawo, Nigeria",Nigeria
200,31.6118565,40.736535499999995,Funda Bayrak,779404528386990080,2020-04-09 22:11:46,"Mula, Trkiye",city,"Bolu, Trkiye",Trkiye
33100,-80.192,25.7752,Confidencias & Algo MS,77940459,2020-02-22 15:47:04,Estados Unidos,city,"Miami, FL",Estados Unidos
222,103.618904,-1.594378,Rozalino.G,77940518,2020-02-28 00:16:38,"Jambi Selatan, Indonesia",city,"Telanaipura, Indonesia",Indonesia
161,73.06521592,33.69386247,Rozalino.G,77940518,2020-05-08 17:20:48,"Jambi Selatan, Indonesia",city,"Islamabad, Pakistan",Pakistan
222,103.618904,-1.594378,Rozalino.G,77940518,2020-05-09 15:45:33,"Jambi Selatan, Indonesia",city,"Telanaipura, Indonesia",Indonesia
65,2.51680339,48.93490444,grosse lamou,779405270636228608,2020-02-27 20:46:28,"Sevran, France",city,"Sevran, France",France
16980,-87.732013,41.8335845,Donna Kishbaugh,779405474,2020-03-01 09:57:07,,city,"Chicago, IL",United States
26900,-86.13660949999998,40.0357415,Donna Kishbaugh,779405474,2020-03-01 18:45:27,,city,"Westfield, IN",United States
186,-1.1753675,39.441599,miky_tebar,779405905,2020-04-12 11:00:30,"Requena, Espaa",city,"Requena, Espaa",Espaa
40700,-123.347079,43.2256595,RiverBlendz Coffee,779406066794635264,2020-03-16 02:56:50,"4121 NE Stephens Roseburg, OR",city,"Roseburg, OR",United States
191,9.545328,47.013175,,779406084935221248,2020-02-29 20:36:26,,poi,Heidi's House,Schweiz
71,11.042755999999999,47.480855,R,779406084935221248,2020-03-29 02:55:53,,poi,Bahnhof Untergrainau,Deutschland
191,7.85732,46.686366,,779406084935221248,2020-04-18 02:40:38,,poi,Grand Hotel Victoria Jungfrau,Schweiz
57,12.732365,47.204438,Reem,779406084935221248,2020-05-25 04:20:48,,city,"Kaprun, sterreich",sterreich
82,78.91350200000001,11.886017,suryaa,779406161158152193,2020-04-30 17:01:34,"Sankarapuram, India",city,"Sankarapuram, India",India
32580,-98.23134746,26.20187511,Dalila Garza,77940633,2020-06-09 22:26:20,McAllen Tx,city,"McAllen, TX",United States
88,135.4832605,34.7261635,,779406454671314945,2020-02-16 18:18:07,  ,city,  ,
47900,-77.0143985,38.898603,"Betsy Cutler, M.Ed. '17 VCU's CSL",779406507452628993,2020-03-01 14:30:31,"Midlothian, VA",city,"Washington, DC",United States
200,29.0052225,41.0213205,Gizem1903,779406514507382784,2020-03-16 07:48:35,"stanbul, Trkiye",city,"stanbul, Trkiye",Trkiye
96,47.975367999999996,29.284412,Nadeem Hanif,779406658975989760,2020-04-27 10:37:33,Kuwait,city,"Khaitan, Kuwait",Kuwait
21,-47.796623,-15.776254000000002,Nilda Gomes,779407038581510144,2020-03-07 22:53:28,,city,"Braslia, Brasil",Brasil
205,-0.6632855,51.9217745,Ella Broom,77940710,2020-02-15 23:15:56,England,city,"Leighton Buzzard, England",United Kingdom
171,126.0350835,9.657964,Rexras,77940733,2020-04-03 16:47:21,Makati,city,"Socorro, Caraga",Republic of the Philippines
46060,-110.91557350000001,32.1893905,Unicorn Mermaid SpaceBabe ,779407417549332480,2020-03-07 21:29:31,"San Diego, CA",city,"Tucson, AZ",United States
40140,-117.1195165,33.501021,Unicorn Mermaid SpaceBabe ,779407417549332480,2020-03-10 20:51:19,"San Diego, CA",city,"Temecula, CA",United States
41740,-117.10498899999999,32.810012, Unicorn Mermaid $paceBabe ,779407417549332480,2020-05-26 11:48:46,"Los Angeles, CA",city,"San Diego, CA",United States
35620,-73.8494415,40.8503475,Lewis,779407479855837186,2020-05-29 00:23:43,"Bronx, NY",city,"Bronx, NY",United States
205,-0.882951,52.238853999999996,LTS MaJ,779407777559113728,2020-02-14 07:37:35,,city,"Northampton, England",United Kingdom
119,-99.15712059,19.42856052,Myr,779407826,2020-02-26 02:59:08,,city,"Cuauhtmoc, Distrito Federal",Mexico
175,46.686612,24.685845,M.,779407840570146817,2020-02-20 10:14:37,||,poi,King Fahad National Library    ,Kingdom of Saudi Arabia
44180,-92.718542,38.129057,Natasha Hull,779407931179761669,2020-02-20 16:09:32,"Kansas City, MO",poi,Margaritaville Lake Resort Lake of the Ozarks,United States
28140,-94.5592815,39.1000485,Natasha Hull,779407931179761669,2020-03-11 13:28:03,"Kansas City, MO",city,"Kansas City, MO",United States
65,2.3256240000000004,48.823087,Sa ou f timoun ? ,779408016814796801,2020-02-24 11:47:29,"Fontenay-aux-Roses, France",poi,Porte d'Orlans,France
16980,-88.04924650000002,42.1151285,Bernal,779408023,2020-05-25 16:23:11,"Out here, IL",city,"Palatine, IL",United States
200,30.196824,37.064499,Nazl Turan,779408319593275392,2020-04-02 21:48:59,"Antalya, Trkiye",poi,Korkuteli,Trkiye
42680,-80.493949,27.782875,Roberts,779408365,2020-02-17 23:54:39,ny,city,"Sebastian, FL",United States
35620,-73.12393599999999,40.9084135,Roberts,779408365,2020-04-28 21:38:01,ny,city,"Stony Brook, NY",United States
175,39.241737,21.492420000000003,,779408412660621312,2020-02-25 05:47:42,Jeddah ,poi,KAU (   ),  
35620,-73.92027413,40.69571377,REON,77940842,2020-04-07 20:25:01,"New York, NY",city,"Brooklyn, NY",United States
22660,-105.07799999999999,40.5592,Dan Pahlau,77940859,2020-05-10 17:38:35,"Fort Collins, Colorado",city,"Fort Collins, CO",United States
222,106.834272,-6.174257,netijen yang terhormat,77940954,2020-03-11 03:17:07,Ministry of Foreign Affairs RI,poi,Kementerian Luar Negeri RI,Indonesia
205,-3.233509,56.2920885,Fiona Highet,779409599162150912,2020-02-17 19:00:52,"Auchtermuchty, Scotland",city,"Auchtermuchty, Scotland",United Kingdom
151,3.9052964999999995,7.4290745,Light_SkinnedBeau,779409689708785664,2020-04-05 10:26:46,Living waters,city,"Ibadan, Nigeria",Nigeria
47900,-77.0143985,38.898603,dj,779410,2020-04-23 20:02:34,,city,"Washington, DC",United States
205,0.8731215,51.1419255,*,779410154609577984,2020-03-05 19:37:38,"Ashford, England",city,"Ashford, England",United Kingdom
205,-1.4390975000000001,53.2498555,Kane Snell,779410213711540224,2020-02-17 08:52:04,"Chesterfield, England",city,"Chesterfield, England",United Kingdom
85,12.5451455,41.8984165,Floriana ,779410412827709440,2020-04-29 07:49:21,"Roma, Lazio",city,"Roma, Lazio",Italia
41700,-98.4867135,29.597634000000003,Gina Graham,779410749898694656,2020-06-01 13:46:51,"Texas, USA",city,"Hollywood Park, TX",United States
171,121.10992900000001,14.2538655,aubrey,779410964,2020-03-09 13:15:39,save me,city,"Cabuyao, Calabarzon",Republic of the Philippines
159,-57.292018999999996,-22.247259,SD Matheus Schiavi,779411113213583360,2020-04-11 15:55:56,"Glria de Dourados, Brasil",poi,FUERTE SAN CARLOS,Paraguay
21,-43.959822499999994,-19.918692,Dara,779411255719329792,2020-02-17 20:59:35,Argentina,city,"Bello Horizonte, Brasil",Brasil
24,-114.087851,51.027664,T3JL_11,779411290657660928,2020-05-05 06:08:11,"Calgary, Alberta",city,"Calgary, Alberta",Canada
65,2.2626815,48.823922499999995,Hugo Vercellone,779411418965835777,2020-06-10 20:05:56,,city,"Issy-les-Moulineaux, France",France
21,-43.076543,-20.6670605,Bruna Luiza,779411638629924864,2020-03-31 09:14:21,"Minas Gerais, Brasil",city,"Porto Firme, Brasil",Brasil
222,107.6158815,-6.8817675000000005,applepie ,77941177,2020-02-14 09:40:27,"Kota Bandung, Jawa Barat",city,"Coblong, Indonesia",Indonesia
19100,-96.8799575,32.924548,Gerald Bartz,779411780309168128,2020-02-25 00:01:28,,city,"Farmers Branch, TX",United States
91,36.81666667,-1.28333333,Ambrose Nandwah,779412168076881920,2020-04-08 11:59:30,"Nairobi, Kenya",city,"Nairobi, Kenya",Kenya
2,2.12334259,36.58329254,Walid SH ,779412170626957313,2020-04-23 18:35:09,Cherchell                     ,city,"Sidi Ghilles                                                                                        , Algeria",Algrie
200,27.255696,39.92953,Ahmet zcan,779412370607276032,2020-03-31 12:58:54,"Mula, Trkiye",poi,anakkale,Trkiye
175,43.9776075,26.055773499999997,  ,779413112722194433,2020-04-02 17:43:48,,city,",   ",  
160,-71.5329075,-16.4094915,Aura Alexandra,779413296730497024,2020-04-18 20:01:53,"Lara, Venezuela",city,"Arequipa, Peru",Peru
200,32.818348,39.971160999999995,RUTAYISIRE Faustin,779413681146830848,2020-03-09 15:56:07,"Ankara, Trkiye",poi,Ankara Yldrm Beyazt niversitesi Etlik Bat Yerlekesi Okuma Salonu,Turkey
36540,-96.053431,41.275721,Gator,77941376,2020-02-14 19:20:37,"South Omaha, NE",city,"Omaha, NE",United States
88,139.745379,35.652789,,77941382,2020-02-18 21:52:43,,city, ,
21,-48.771081,-26.9669185,Eduardo,779414184773771264,2020-02-15 07:23:11,"Imbituba, Brasil",city,"Itaja, Brasil",Brasil
119,-110.954,29.0989,Gerry Quyn,77941424,2020-06-04 20:49:56,,city,"Hermosillo, Sonora",Mexico
88,139.931051,35.715682,KEITO@SWIFT/ZC11S,779414344912162816,2020-02-22 10:37:13, ,city, ,
42620,-91.95559399999999,35.518122999999996,Mrs. Holcomb,779414347,2020-02-29 00:51:51,"Heath, TX",poi,Lindsey's Resorts,United States
19100,-96.105788,33.117996000000005,Mrs. Holcomb,779414347,2020-03-02 14:51:16,"Heath, TX",city,"Greenville, TX",United States
39300,-71.66214699999999,41.967863,Mary Ellen Lynch,779414405217918977,2020-02-28 01:52:33,,poi,Burrillville Highschool,United States
205,-0.115406,51.4603395,Raquel Douglas,779414419465994240,2020-03-18 11:38:48,,city,"Lambeth, London",United Kingdom
8,-57.54402214,-38.00482322, Bianca ,779414562,2020-03-05 16:47:54,,city,"Mar del Plata, Argentina",Argentina
23180,-84.853542,38.187468,Ky Food Frenzy,779414581479346176,2020-04-17 17:35:58,"Kentucky, USA",city,"Frankfort, KY",United States
40140,-117.31987099999999,34.057348000000005,Sylvia,779414621618786304,2020-02-14 23:10:49,"Colton, CA",city,"Colton, CA",United States
96,47.9064045,29.316399, ..!,779414746449797121,2020-02-17 06:59:19,,city,"Al Mubarakiya Camps, Kuwait",Kuwait
120,103.89928499999999,1.5164819999999999,alabiarlamalaslanakfikirtiber,779415017514946560,2020-04-10 16:28:48,"Johor Bahru, Johor",poi,Taman Flora Heights,Malaysia
205,-0.0929105,51.5144805,Mark Kinseley,779415068597452800,2020-03-11 22:43:14,,city,"City of London, London",United Kingdom
71,13.4246065,52.506701,Adriana Silver,779415373691191300,2020-02-26 19:31:45,"Berlin, Deutschland",city,"Berlin, Deutschland",Deutschland
33460,-93.2620465,44.9706105,Jack Donovan,779415452,2020-02-14 18:41:39,"Minneapolis, MN",city,"Minneapolis, MN",United States
31860,-93.9611745,44.327146,Jack Donovan,779415452,2020-02-16 18:36:00,"Minneapolis, MN",city,"St Peter, MN",United States
33460,-93.2620465,44.9706105,Jack Donovan,779415452,2020-02-18 02:24:46,"Minneapolis, MN",city,"Minneapolis, MN",United States
40140,-117.5621525,34.12167,N,779415507896193025,2020-04-02 21:46:13,,city,"Rancho Cucamonga, CA",United States
200,29.0052225,41.0213205,elcingurler,77941563,2020-04-22 21:04:42,stanbul ,city,"stanbul, Trkiye",Trkiye
35620,-74.13201281,39.95148048,BuyYourLocalMusic,779415650531962880,2020-04-05 22:17:45,"Toms River, NJ",city,"Toms River, NJ",United States
102,25.280835,54.680246, ,779415679686569984,2020-04-12 21:13:35,,poi,Vilnius,Lithuania
222,104.745504,-2.999422,Nadya Sabrina,779416015,2020-02-15 14:58:00,nadyasabrina48@gmail.com,city,"Bukit Kecil, Indonesia",Indonesia
120,101.57849499999999,3.1565125,madie,779416385277431808,2020-02-14 01:37:29,,city,"Sungai Buloh, Selangor",Malaysia
205,-0.189289,51.4108755,Tracy Gnoan ,779416400876240896,2020-05-31 10:33:46,UK/London/Nottingham,city,"Merton, London",United Kingdom
200,32.52097,38.009064,kapattik kardesim,779416677721206785,2020-03-06 16:24:35,Selcuk-Hukuk ,city,"Seluklu, Trkiye",Trkiye
222,106.809173,-6.2445845,Nada Yangrifqi,77941674,2020-02-16 15:27:35,Youniverse,city,"Kebayoran Baru, Indonesia",Indonesia
82,88.352242,22.6127055,sunjana,779416890905014272,2020-04-06 04:56:55,,city,"Kolkata, India",India
21340,-106.187572,31.6901135,guerita ,779416970819096576,2020-04-06 20:01:47,"El Paso, TX",city,"Horizon City, TX",United States
71,13.434504500000001,52.5390965,German Kleinigkeit,779416974728237057,2020-03-15 08:37:36,"Berlin, Deutschland",neighborhood,"Prenzlauer Berg, Berlin",Deutschland
184,103.986434,1.357785,a ordinary Mrs,77941757,2020-02-15 09:47:19,,poi,Movie Theatre | Terminal 3,
193,100.5373105,13.757901,a ordinary Mrs,77941757,2020-02-16 11:05:40,,city,", ",
222,106.7457355,-6.1862365,a ordinary Mrs,77941757,2020-02-21 02:04:27,,city,"Kembangan, Indonesia",Indonesia
24,-79.91352049999999,43.260695500000004,Dina Gadsdon,779417730285838336,2020-02-22 00:43:35,,city,"Hamilton, Ontario",Canada
18140,-82.985772,39.9946835,Claire Adams,779417833134493696,2020-02-29 01:34:52,"Galena, OH",city,"Columbus, OH",United States
21,-43.441578,-22.911421500000003,nay ,779417988,2020-02-14 00:31:16,,city,"Rio de Janeiro, Brasil",Brasil
24,-63.6833,46.4833,Frank Falzett,779418,2020-02-16 18:09:13,"Scranton, PA ",city,"Lot 18, Prince Edward Island",Canada
16980,-87.732013,41.8335845,:@_,77941804,2020-02-15 07:33:14,  ChicagoMade,city,"Chicago, IL",United States
88,139.67496200000002,35.676482,,77941817,2020-03-14 04:45:56,,poi,,
191,6.202996,46.1950035,DyZoTy,779418211989217280,2020-05-15 12:00:04,"Genve, Suisse",city,"Thnex, Suisse",Suisse
186,-1.70501,37.69573200000001,Antonio Ruiz Frutos,779418633537748992,2020-05-19 19:02:45,,city,"Lorca, Espaa",Espaa
33,-70.6667,-33.45,JOS NUEZ ,77941880,2020-02-18 10:27:48,"Santiago, Chile",city,"Santiago, Chile",Chile
82,79.10636,13.224620000000002,S THANIGAIVELU,779419230,2020-03-29 12:08:25,"Hyderabad, India",poi,Surya Prathap Function Hall,India
71,8.736096,53.120002,Stadtbahn Ultra,779419563255599104,2020-02-18 18:03:25,Bremen,city,"Bremen, Deutschland",Deutschland
8,-57.0684035,-37.37110850000001,Mariano,779419645,2020-02-17 22:15:29,"Villa Gesell, Argentina",city,"Villa Gesell, Argentina",Argentina
21,-43.17666667,-22.90805556,Fabio Affonso,77941966,2020-02-19 16:47:58,,city,"Rio de Janeiro, Brasil",Brasil
96,48.0860765,28.841995500000003,.,779419819540090880,2020-02-16 22:20:35,,city,",  ", 
24,-119.468245,49.025176,Sophie Gray,779420389889810432,2020-02-20 17:45:32,"Vancouver, British Columbia",city,"Osoyoos, British Columbia",Canada
82,73.8262495,24.4594275, ,779420605,2020-02-14 23:33:39,Mumbai,city,"Udaipur, India",India
88,136.2160935,36.046813,TOM,779420658363006976,2020-02-15 03:13:03,,city, ,
85,9.1593365,45.461345,Michele,779420850927853570,2020-03-01 19:53:38,"Milano, Lombardia",city,"Milano, Lombardia",Italia
200,31.422931,38.35703,lknur Ali Demir,779420930816741376,2020-04-05 13:14:41,,city,"Akehir, Trkiye",Trkiye
200,31.1559295,40.85424999999999,Eda ztrk,779421163399307264,2020-02-14 18:10:05,,city,"Dzce, Trkiye",Trkiye
14,90.41046,23.70644,Shaon SPA Meghdut,779421287361896448,2020-02-15 08:05:48,"Dacca, Bangladesh",city,"Dacca, Bangladesh",Bangladesh
200,31.6118565,40.736535499999995,Ahmet Kuzu,779421655147933696,2020-03-25 14:10:00,,city,"Bolu, Trkiye",Trkiye
12420,-97.754724,30.3233455,PositivelySpanking ,779422211761250304,2020-02-16 01:01:56,"Austin, TX",city,"Austin, TX",United States
65,2.347003,48.8588335,PositivelySpanking ,779422211761250304,2020-02-17 09:23:43,"Austin, TX",city,"Paris, France",France
12420,-97.754724,30.3233455,PositivelySpanking ,779422211761250304,2020-02-24 15:33:12,"Austin, TX",city,"Austin, TX",United States
29820,-115.13516499999999,36.060964500000004,PositivelySpanking ,779422211761250304,2020-03-16 06:54:23,"Austin, TX",city,"Paradise, NV",United States
12420,-97.754724,30.3233455,PositivelySpanking ,779422211761250304,2020-03-17 03:01:34,"Austin, TX",city,"Austin, TX",United States
29180,-92.186341,30.2354465,Miss Rachel ,779422211761250304,2020-05-30 19:57:47,"Austin, TX",city,"Duson, LA",United States
25060,-88.92911749999998,30.4278175,Miss Rachel ,779422211761250304,2020-06-01 03:29:29,"Austin, TX",city,"Biloxi, MS",United States
12420,-97.754724,30.3233455,Miss Rachel ,779422211761250304,2020-06-05 07:06:25,"Austin, TX",city,"Austin, TX",United States
17140,-84.51295999999998,39.2167995,Ben Brueggemeyer,779422318506508288,2020-02-19 02:37:16,"Finneytown, OH",city,"Finneytown, OH",United States
12100,-74.50896900000002,39.446196,Sue Turnage,779422339276550144,2020-05-10 14:19:17,"New Jersey, USA",city,"Absecon, NJ",United States
28940,-84.132237,36.3569765,Steve Syoen,77942244,2020-04-28 00:54:38,"T: 41.420461,-83.615651",city,"La Follette, TN",United States
200,35.895055,36.413636,Glizar Gzel,779422472659693568,2020-02-26 20:26:45,,poi,Arsuz Sahil,Trkiye
51,-6.2591,53.3476,L e V a N,779422490955280384,2020-02-24 18:29:23,,city,"Dublin City, Ireland",Ireland
39580,-78.515337,35.9590235,Katie,779422596840484864,2020-03-13 23:48:32,"Raleigh, NC",city,"Wake Forest, NC",United States
26420,-95.400973,30.124856,Dr. LaShawn Hodge #ConleyPrincipal #blessed,779422599939973120,2020-02-15 21:05:07,,city,"Oak Ridge North, TX",United States
13820,-86.79391700000001,33.5422375,Dr. LaShawn Hodge #ConleyPrincipal #blessed,779422599939973120,2020-03-09 02:06:45,,city,"Birmingham, AL",United States
26420,-95.3778145,30.0635145,Dr. LaShawn Hodge #ConleyPrincipal #blessed,779422599939973120,2020-03-12 21:31:20,,city,"Spring, TX",United States
175,46.685077,24.7219435, ,779422716982095873,2020-03-31 08:08:20,,city,",   ",  
35840,-82.51389300000001,27.585890000000003,fg,779422873,2020-02-19 16:00:51,"Florida, USA",poi,I-275 @ I-75,United States
36740,-81.1972755,28.588445,fg,779422873,2020-02-21 15:00:19,"Florida, USA",city,"University, FL",United States
15980,-81.986834,26.63648,fg,779422873,2020-04-07 14:23:46,"Florida, USA",city,"Cape Coral, FL",United States
15260,-81.504908,31.2144885,fro.g,779422873,2020-05-22 13:36:37,"Florida, USA",city,"Brunswick, GA",United States
119,-100.772211,20.5226915,Adan Canelo,77942288,2020-02-18 23:08:52,"Celaya, Guanajuato",city,"Celaya, Guanajuato",Mexico
38,-73.92732149999999,11.0734625,Luis,779422947824001024,2020-02-22 02:57:31,"Santa Marta, Colombia",city,"Santa Marta, Colombia",Colombia
65,-1.5607395,47.2381615,69,779423125058486272,2020-02-15 21:09:23,"Lyon, France",city,"Nantes, France",France
41700,-98.5406515,29.417501,,779423152182992896,2020-02-15 01:35:43,"Heidelberg, Germany",city,"San Antonio, TX",United States
119,-101.3403935,20.673542,,779423152182992896,2020-03-09 08:11:54,"Heidelberg, Germany",city,"Irapuato, Guanajuato",Mexico
41700,-98.4706965,29.4821915,,779423152182992896,2020-03-17 02:08:40,"Heidelberg, Germany",city,"Alamo Heights, TX",United States
12420,-97.9351915,29.8956065,,779423152182992896,2020-05-02 15:52:49,"Heidelberg, Germany",city,"San Marcos, TX",United States
41700,-97.903977,29.821644,,779423152182992896,2020-05-05 01:12:11,"Heidelberg, Germany",city,"Redwood, TX",United States
205,-2.23348,53.4569525,M.,779423189860507649,2020-02-17 10:41:06,"Manchester, England",city,"Manchester, England",United Kingdom
222,115.18788058,-8.70777759,Bent O SHW,779423244,2020-02-22 02:11:35,"Denpasar, Bali, Indonesia",city,Indonesia,Indonesia
82,78.471129,17.38654,Sarath Kumar Reddy,779423294,2020-05-06 09:45:13,Addanki,poi,Nampally Exhibition Grounds,India
222,106.8171375,-6.2016105,Agung Kurniadiredja,779423496,2020-03-16 06:13:16,,city,"Tanah Abang, Indonesia",Indonesia
222,106.810024,-6.6242350000000005,MI VI,77942362,2020-05-08 05:49:07,indonesia,city,"Bogor Selatan, Indonesia",Indonesia
42140,-105.99668899999999,35.654542,hana,779423959,2020-03-06 20:12:29,"New Mexico, USA",poi,Meow Wolf,United States
12060,-84.541562,33.588263,collegeparkga00,779424522,2020-06-04 21:25:10,in Georgia duh,city,"Union City, GA",United States
175,50.20176100000001,26.307814, .,779424735612530690,2020-03-05 20:14:06,Dark paradise,city,",   ",  
164,-8.280765500000001,41.144049,Henrique Martins,779424853,2020-02-16 20:59:01,,city,"Penafiel, Portugal",Portugal
21,-43.441578,-22.911421500000003,Isabelle Santana,779424967343632384,2020-02-14 16:41:13,"Rio de Janeiro, Brasil",city,"Rio de Janeiro, Brasil",Brasil
171,123.842969,8.149827,beryl ,779425106548232193,2020-03-13 06:37:22,,poi,"Aguada, Ozamiz City",Republic of the Philippines
34980,-87.209176,35.544796999999996,MCPS Technology,779425604085186561,2020-03-23 13:48:37,"Columbia, TN",poi,Mount Pleasant High School,United States
21,-40.8680485,-15.070901000000001,fada do brownie,779425722154815489,2020-04-14 04:03:48,vca,city,"Vitria da Conquista, Brasil",Brasil
96,47.95599774,29.29656012,,779426101177253888,2020-02-14 11:14:33,"The Capital, Kuwait",city,",  ", 
119,-116.929102,32.332876500000005,Blanca Jhoana,779426415733202944,2020-02-19 23:53:18,,city,"Tijuana, Baja California",Mxico
200,37.122362,36.725115,Talha Gonul,779426627130421248,2020-02-14 10:55:07,Ordu fatsa,city,"Kilis, Trkiye",Trkiye
26420,-95.4464865,29.838495,SUSHI IS HER,779426849541677056,2020-03-19 19:20:43,"Houston, TX",city,"Houston, TX",United States
21,-46.57066134,-23.65285839,Thais Helena,77942717,2020-02-29 20:56:59,Santo Andre,city,"So Bernardo do Campo, Brasil",Brazil
85,8.862227,45.451051,wezzy,7794272,2020-02-21 13:38:18,"45.461807251,8.8852214813",city,"Magenta, Lombardia",Italy
21,-43.441578,-22.911421500000003,beatriz ,779427600,2020-02-20 10:00:56,crvg  rmcf  bvb,city,"Rio de Janeiro, Brasil",Brasil
222,115.204629,-8.650534,rrn,77942775,2020-03-07 21:44:22,,city,"Denpasar Barat, Indonesia",Indonesia
191,7.107436,47.0708885,Arthur chantraine,779427754429280256,2020-04-10 10:25:11,"Neuchtel, Suisse",city,"La Neuveville, Suisse",Suisse
12060,-84.50306649999997,34.110776,Georgia HS Cheerleading,779427861811826689,2020-05-02 15:45:51,"Georgia, USA",city,"Woodstock, GA",United States
222,109.107933,-6.9342625,mi.,779427865,2020-05-24 01:53:37,,city,"Adiwerna, Indonesia",Indonesia
35620,-73.73030299999998,41.1997215,Jocelyn Soto,779427967,2020-05-11 01:51:32,,city,"Mount Kisco, NY",United States
38,-74.782175,10.889511,RK,779427983798964232,2020-03-28 22:22:12,"Barranquilla, Colombia",city,"Soledad, Colombia",Colombia
65,2.347003,48.8588335,Mai,779428146466684933,2020-03-15 15:16:36,"Paris, France",city,"Paris, France",France
222,106.85680900000001,-6.225842,Fathia Shabrina,77942817,2020-02-28 14:37:03,Indonesia,city,"Tebet, Indonesia",Indonesia
21,-42.77478,-2.978551,Mbili ,779428236350648320,2020-02-27 17:09:45,,poi,Flutuao No Rio Formiga,Brasil
175,39.6540485,24.462089000000002,Ehdaa AL_Ghates,779428322,2020-02-14 23:06:27,"Saudi Arabia , Madinah",city,"Al Madinah Al Munawwarah, Kingdom of Saudi Arabia",Kingdom of Saudi Arabia
36420,-97.552161,35.4828435,selena,779428425048035329,2020-02-16 07:06:16,Oklahoma,city,"Oklahoma City, OK",United States
21,-48.478899,-27.609691, ,779428435097681920,2020-02-21 15:55:16,"Florianpolis, Brasil",city,"Florianpolis, Brasil",Brasil
21,-50.84150601,-29.63636197,Lebrinha Store,779428496032600064,2020-02-14 14:55:16,"Parob, Brasil",city,"Parob, Brasil",Brasil
38,-74.24367099999999,4.2622835, ,779428501204197376,2020-03-06 21:46:45,El perreo ,city,"Bogot, D.C., Colombia",Colombia
200,29.0052225,41.0213205,Tugba,779428683111096320,2020-06-07 09:02:12,Trkiye,city,"stanbul, Trkiye",Trkiye
88,139.7317415,35.8337305,,779428718984826880,2020-05-01 06:55:55,,city, ,
205,-2.0877745,51.8963135,Robbie Baker,779428814292156416,2020-02-14 00:09:42,"Cheltenham, England",city,"Cheltenham, England",United Kingdom
73,23.93572,37.968207,Robbie Baker,779428814292156416,2020-03-10 14:43:06,"Cheltenham, England",city,"-, ",
205,-2.0877745,51.8963135,Robbie Baker,779428814292156416,2020-03-14 19:45:36,"Cheltenham, England",city,"Cheltenham, England",United Kingdom
19820,-83.81109350000001,42.452406,Mike Kordek,779429449,2020-04-08 00:58:01,"Michigan, USA",city,"Hamburg, MI",United States
11460,-83.7560765,42.4227085,Mike Kordek,779429449,2020-05-20 20:37:35,"Michigan, USA",city,"Whitmore Lake, MI",United States
19820,-83.81109350000001,42.452406,Mike Kordek,779429449,2020-06-08 23:40:51,"Michigan, USA",city,"Hamburg, MI",United States
69,-0.03041782,5.69878003,HOTCAKE IS OUT..,779429896942739456,2020-02-21 07:55:09,"Ashaiman, Ghana",city,"Tema, Ghana",Ghana
24,-123.1251831,49.2749481,Harry Deligiannidis,77942997,2020-02-14 04:40:53,"Vancouver, BC",city,"Vancouver, British Columbia",Canada
14460,-71.740157,42.677490999999996,Nadjalee,779430081018068992,2020-03-17 06:37:19,,poi,Earth,United States
49340,-71.80534850000002,42.582977,Nadjalee,779430081018068992,2020-03-20 01:11:48,,city,"Fitchburg, MA",United States
37980,-75.225217,39.957636,Krystal Strong,77943025,2020-02-16 23:26:50,Philly,poi,Lucien Blackwell West Philly Regional Library,United States
211,-71.642638,8.610011,Emer Abou Assi,77943039,2020-02-16 14:36:31,"El Viga, Venezuela",poi,El Vigia,Venezuela
24,-113.49261750000001,53.5558195,Stefanie Braz,779430744590458880,2020-02-18 16:44:12,"Edmonton, Alberta",city,"Edmonton, Alberta",Canada
19100,-96.835249,33.1501395,Brian Livingston,779430842221236224,2020-03-01 14:32:45,"Frisco, TX",city,"Frisco, TX",United States
48220,-98.98210350000001,35.4970195,Derek Proctor,779431956,2020-05-19 01:59:57,"Oklahoma, USA",city,"Clinton, OK",United States
51,-7.349033,53.534594999999996,Caroline Earley,779432144380784641,2020-05-05 15:30:09,,poi,Midland Regional Hospital,Ireland
222,110.7929635,-7.561752,nandooooi,779432588,2020-03-05 13:57:11,,city,"Laweyan, Indonesia",Indonesia
44700,-121.545151,37.7809345, A Y O K A ,779433096219242496,2020-04-04 19:31:08,"California, USA",city,"Mountain House, CA",United States
47900,-77.35893899999998,38.64612,Kobi J ,779433102271770624,2020-06-03 01:43:58,"Dumfries, VA",city,"Dale City, VA",United States
41860,-122.28527778,37.83138889,Siu-Mei Man,779433407633686528,2020-03-23 03:50:57,"Oakland, CA",city,"Emeryville, CA",United States
19740,-104.9220935,39.713563,this one time at band camp,779433536574984194,2020-02-16 08:13:51,"Colorado, USA",city,"Denver, CO",United States
171,121.259866,14.6541465,Own-thee,779433577243041792,2020-02-14 02:38:37,"Antipolo City, Calabarzon",city,"Antipolo City, Calabarzon",Republic of the Philippines
41220,-81.656217,30.792143499999998,avni ,779433638,2020-04-01 20:55:26,"Atlanta, GA",city,"Kingsland, GA",United States
120,101.9493055,2.7139235,MinoSZN*,779434024179605504,2020-05-25 06:37:16,"Negri Sembilan, Malaysia",city,"Bandar Seremban, Negri Sembilan",Malaysia
200,32.744717,39.9676005,Damla Yakan,779434136213843968,2020-04-05 09:42:28,Ankara,city,"Yenimahalle, Trkiye",Trkiye
41740,-117.10498899999999,32.810012,Heather,7794342,2020-03-13 04:34:31,"San Diego, CA, USA",city,"San Diego, CA",United States
19100,-97.1356375,32.70185,junior,779434242111483904,2020-02-14 17:16:23,"Arlington, TX",city,"Arlington, TX",United States
12420,-97.754724,30.3233455,junior,779434242111483904,2020-03-13 15:23:26,"Arlington, TX",city,"Austin, TX",United States
19100,-97.1356375,32.70185,junior,779434242111483904,2020-03-17 00:59:17,"Arlington, TX",city,"Arlington, TX",United States
205,-3.5234865,55.623092500000006,Michael Glen,779434333971091456,2020-03-20 18:37:29,"Biggar, Scotland",city,"Biggar, Scotland",United Kingdom
205,0.84846391,51.75971147,clare Iles,779434496311558150,2020-02-14 22:33:02,"England, United Kingdom",city,"Tollesbury, East",United Kingdom
222,104.4294795,-2.857785,Julias Shofiar,77943452,2020-02-19 02:49:38,"Putussibau, Kab. Kapuas Hulu",city,"Banyuasin III, Indonesia",Indonesia
171,121.0444275,14.349252499999999,Trix ,77943478,2020-03-27 11:31:28,Philippines,city,"San Pedro, Calabarzon",Republic of the Philippines
21,-43.441578,-22.911421500000003,Jm F/A,779434969412362240,2020-03-19 00:38:05,"Rio de Janeiro, Brasil",city,"Rio de Janeiro, Brasil",Brasil
186,-7.723400999999999,42.40684,Uxa Casas,779435023577546752,2020-04-03 12:05:57,"A Pobra de Trives, Espaa",poi,Luintra,Espaa
119,-100.238651,25.694709,Karla Jurez,779435054,2020-02-14 15:06:06,,poi,SAT Administracin Local Guadalupe,Mxico
9,150.931975,-33.848244,Prateik Vaghela,77943510,2020-04-05 11:01:58,"Sydney, New South Wales",city,"Sydney, New South Wales",Australia
222,106.83881799999999,-6.4719745,papah anggi,779435293,2020-02-16 13:48:57,"Cibinong, Indonesia",city,"Cibinong, Indonesia",Indonesia
119,-96.088551,19.078963,Jair Cacho,77943538,2020-04-20 22:15:42,,poi,Boulevard Riviera Veracruzana,Mexico
88,139.708181,36.168064,,779435689498718208,2020-04-01 14:10:48,,poi, ,
26420,-95.562444,29.623471999999996,Mia Alejandra,779436213073608704,2020-03-09 16:54:33,,city,"Stafford, TX",United States
186,-0.3771966,39.4753671,Tiane Costa,779436368292352000,2020-03-25 21:22:44,"Valencia, Spain",city,"Valencia, Spain",Spain
119,-116.929102,32.332876500000005,ninethe,779436530,2020-02-18 04:49:30,California,city,"Tijuana, Baja California",Mexico
8,-59.545877000000004,-33.851585,Luciano Guariniello,779436833088344065,2020-05-22 22:22:44,Baradero. Argentina,poi,Baradero,Argentina
186,-0.9273325000000001,41.6916365,mari,779436892043485184,2020-06-07 16:27:05,"Zaragoza, Espaa",city,"Zaragoza, Espaa",Espaa
71,8.507480000000001,51.631409999999995,Snakecleaver,77943694,2020-02-18 08:18:46,,city,"Geseke, Deutschland",Deutschland
175,46.0327485,28.350082500000003,,779437418239918080,2020-06-04 06:56:25,,city,"Hafr Al Batin, Kingdom of Saudi Arabia",Kingdom of Saudi Arabia
73,23.815164000000003,38.106134999999995,George Kouvaris,779437433796567040,2020-06-09 09:43:56,", ",poi,,
96,48.099368,29.164565999999997,jjh,779437567385231362,2020-02-20 17:03:10,,poi,American University of Middle East (AUM), 
24,-79.3872,43.648,Conor Brown,77943766,2020-05-02 20:08:08,"Toronto, Ontario",city,"Toronto, Ontario",Canada
222,110.4087895,-7.7676955, ,77943782,2020-02-14 09:34:13,"Mantrijeron, Indonesia",city,"Depok, Indonesia",Indonesia
193,103.49136373,14.87770372,nansura1,77943792,2020-02-15 10:31:20,,city,"Surin, Thailand",Thailand
24,-79.2317521,43.7764258,Shopnil Mahmud,77943831,2020-05-24 16:22:03,"Toronto, Canada",city,"Toronto, Ontario",Canada
49,-78.61601300000002,-1.3497295,Cristina Andrade,779438579927883776,2020-03-29 21:23:12,Tungurahua,city,"Cevallos, Ecuador",Ecuador
186,-3.5979675,37.180409000000004,Elena,779438682977734656,2020-02-14 14:40:25,"Granada, Andaluca",city,"Granada, Espaa",Espaa
96,48.098867,29.197896999999998,i found my peace in his eyes,779439648259051520,2020-05-29 16:30:12,,poi,Abu Fatirah |  ,Kuwait
50,31.635326,30.096649,Ahmed Emad,779440279724126209,2020-05-18 13:04:17,"Cairo, Egypt",poi,Madinaty | ,Egypt
21,-43.441578,-22.911421500000003,Juliana,779440334803759105,2020-02-14 01:32:53,"Rio de Janeiro, Brasil",city,"Rio de Janeiro, Brasil",Brasil
39300,-71.3560885,41.8037495,Justine Carufel,779440429842440197,2020-02-22 23:40:13,,city,"East Providence, RI",United States
14460,-71.11081999999998,42.424952000000005,Justine Carufel,779440429842440197,2020-02-27 23:48:45,,city,"Medford, MA",United States
39300,-71.3560885,41.8037495,Justine Carufel,779440429842440197,2020-03-14 12:08:24,,city,"East Providence, RI",United States
9,145.07608118,-37.99331839,Chris Bywater,779440458,2020-04-14 03:54:09,"Parkdale, VIC",city,"Melbourne, Victoria",Australia
171,120.483057,14.769924,Jam Magpantay (Jessica Anne Mariz Mendoza),77944064,2020-04-18 04:46:51,Makati City,city,"Samal, Central Luzon",Republic of the Philippines
8,-58.442643,-34.604315,#13,779440670,2020-02-18 22:48:17,,city,"Ciudad Autnoma de Buenos Aires, Argentina",Argentina
119,-99.260819,18.933812,Papitos Cuernavaca,779440728942403585,2020-02-14 19:06:40,"Centro, Cuernavaca",city,"Cuernavaca, Morelos",Mxico
21,-43.441578,-22.911421500000003,dornelles,779440780683411457,2020-02-27 22:35:40,rj,city,"Rio de Janeiro, Brasil",Brasil
88,139.4737255,35.72719700000001,,779441250730553344,2020-03-12 05:53:30,,city, ,
19100,-97.2859135,32.7799665,Atwood McDonald Elementary School,779441277523730432,2020-02-23 15:30:54,"Fort Worth, TX",city,"Fort Worth, TX",United States
41860,-122.2286855,37.791994,StevieTheSFGiantsFan(0-0),779441408738402304,2020-03-17 02:51:52,"Oakland, CA",city,"Oakland, CA",United States
8,-58.446241,-34.659632,Lua ,779441826,2020-04-03 21:45:50,"Buenos Aires, Argentina",city,"Villa Soldati, Argentina",Argentina
205,-1.4727815,53.5583015,Hazel Ainsworth,779442221368107008,2020-03-21 19:13:59,,city,"Barnsley, England",United Kingdom
96,48.233723,28.583890999999998,,779442248,2020-03-05 19:24:56,kuwait,poi,Al-Wafra City, 
119,-101.166961,25.0326315,Mara Gabriela,779442546254680064,2020-02-17 20:57:54,,city,"Saltillo, Coahuila de Zaragoza",Mxico
9,151.5896705,-32.74788,George,779442799938646017,2020-04-10 03:33:40,"Newcastle, New South Wales",city,"Maitland (NSW), New South Wales",Australia
88,139.7820505,35.739796500000004,,779442936643674112,2020-02-16 01:13:41,,city, ,
24,-79.475199,43.766985999999996,g o o d v i b e s,779443796891332608,2020-03-01 04:16:26,Yarf city bitch,poi,Yack & Associates,Canada
88,137.90653111,34.82659913,PN2@,779443811680268288,2020-02-14 23:40:48,@may,city, ,
82,72.24534,25.828623999999998,Kp chouhan,779443867,2020-03-15 16:11:29,,poi,Balotra,India
16980,-87.3198245,41.484822,S. Mendoza,779443908635987968,2020-02-25 04:31:33,This place temporary,city,"Merrillville, IN",United States
88,139.64791462,35.74414681,myoq,77944404,2020-02-16 05:43:18,,city, ,
71,9.1773475,48.7793015,Perico belga,779444052135673856,2020-02-17 06:43:02,"Girona, Espaa",city,"Stuttgart, Alemania",Alemania
205,-2.147965,52.5801345,Perico belga,779444052135673856,2020-02-20 16:26:26,"Girona, Espaa",city,"Wolverhampton, England",Reino Unido
186,2.8404005000000003,41.9844735,Perico belga,779444052135673856,2020-02-23 16:54:46,"Girona, Espaa",city,"Girona, Espaa",Espaa
82,76.395653,29.803171000000003,Rajbir Harit,779444411226816512,2020-04-05 16:37:44,"Gurgaon, India",poi,kaithal,India
8,-58.442643,-34.604315,Pam,779444678919880704,2020-03-07 12:28:24,Buenos aires ,city,"Ciudad Autnoma de Buenos Aires, Argentina",Argentina
12060,-84.025058,33.400705,Amber Alday,779444886516867074,2020-02-14 16:40:13,United States,poi,New Hope Elementary,United States
152,6.7773520000000005,52.252328999999996,Nils Freriksen,77944537,2020-02-23 06:56:01,Hengelo (OV),city,"Hengelo, Nederland",The Netherlands
167,51.523809,25.33021,,779445527058448384,2020-02-29 08:46:37, ,poi,Diplomatic Area Beach, 
12060,-84.34834000000001,33.6862,KendrickRadiator,779445602,2020-03-29 17:12:09,"Atlanta, GA",city,"Atlanta, GA",United States
205,-0.13069076,51.50674004,Fringe Wives Club,779445731333636096,2020-03-20 08:44:51,London/Melbourne,city,"London, England",United Kingdom
88,139.6262955,35.69816249999999, KOMORI masaki,77944587,2020-02-16 10:41:19,"Tokyo, Japan",city, ,
50,31.249709000000003,30.050058,Eng. ehab khaled,779446092421267456,2020-05-19 21:38:49,"Cairo, Egypt",poi,Cairo Le Meridian Hotel,Egypt
88,140.7708255,42.0114275,(^^;,779446311711977472,2020-02-14 00:33:31, ,city, ,
21,-59.9803255,-2.572425,Wendrelnunes,779446349515333633,2020-03-27 22:13:41,,city,"Manaus, Brasil",Brasil
162,18.547656,54.4419195,Aytu Arkan ,77944682,2020-03-23 13:02:40,"Sopot, Poland",city,"Sopot, Poland",Poland
88,136.855393,35.079181000000005,mar,779446921,2020-03-13 15:24:45,,city,  ,
161,74.3584865,31.5318195,zain rj,779447704543981572,2020-03-04 18:45:09,Pakistan Bhawalnagar,city,", ",
36540,-95.980251,41.252644000000004,Dub,779447747309019136,2020-03-21 16:13:33,"Omaha, NE, USA",city,"Omaha, NE",United States
85,12.599059,41.493645,Ganto,779447975978336256,2020-05-16 17:25:58,,city,"Anzio, Lazio",Italia
22220,-94.13363149999999,36.44941950000001,Delaney Paige,779448002,2020-04-24 18:53:25,Always on the run,city,"Pea Ridge, AR",United States
21,-41.941329,-22.470358500000003,Carlos Roberto,779448542133886976,2020-02-17 00:38:21,Rio de Janeiro Brasil,city,"Rio das Ostras, Brasil",Brasil
88,135.458779,34.667495,5/4(),779448578,2020-03-15 14:12:38,(),poi,,
119,-87.07866,20.625889899999997,Kamasutra by Sensus,779448748296376320,2020-02-14 15:33:23,Playa del Carmen y Cancun,city,"Solidaridad, Quintana Roo",Mxico
38300,-80.0931635,40.5463505,Mason Horwat,779449451530297345,2020-03-13 01:04:16,,city,"Ohio, PA",United States
31080,-118.4119065,34.0207895,TAinvestor,779449700298559488,2020-03-06 22:35:56,,city,"Los Angeles, CA",United States
119,-100.43631438,20.67481118,Chica de humo,77944971,2020-02-16 22:48:39,Lullaland,city,"Quertaro, Quertaro Arteaga",Mxico
21,-51.536475,-29.105826500000003,Gio ,779449785791152128,2020-02-14 17:03:08,"Rio Grande do Sul, Brasil",city,"Bento Gonalves, Brasil",Brasil
85,9.1593365,45.461345,Artosayten,779449919425970176,2020-02-27 21:32:53,"Bahelievler, Tekirda",city,"Milano, Lombardia",Italia
50,31.202638,30.054834000000003,Bebo ,779449925830643717,2020-03-04 21:19:23,"Riyadh, Kingdom of Saudi Arabia",poi,Location,
55,-89.21332199999999,13.734879999999999,Mandrake el mago.,779449968734056448,2020-02-15 16:17:05,"San Salvador, El Salvador",city,"Panchimalco, El Salvador",El Salvador
35620,-74.198396,39.831603,Bobby YachtMaster Flexxx,779449976,2020-02-14 01:36:45,new jersey,poi,Mario's Italian Restaurant & Pizzeria,United States
34980,-86.7837,36.1651,Dave Delaney,779451,2020-03-04 17:44:20,Nashville,city,"Nashville, TN",United States
151,9.88404979,12.56056617,Harisu T Bala,779451057533485056,2020-03-20 09:29:27,"Jigawa, Nigeria",city,"Dunari, Nigeria",Nigeria
