currentGEOID,lon,lat,name,author_Id,created_at,location,place_type,place_full_name,place_country
186,1.4236605,38.910337,Mati Fernndez,198266419,2020-04-06 12:33:00,Ibiza Mediterrneo ,city,"Eivissa, Espaa",Espaa
35620,-73.9685415,40.780709,Jae Yoon Kim,198266465,2020-05-13 14:25:53,NYC,city,"Manhattan, NY",United States
82,77.4044755,23.272495000000003,Varun Chourey,198266488,2020-03-20 00:09:21,"Delhi, India",city,"Bhopal, India",India
205,-1.570206,55.18015450000001,Brian Shotton,198266818,2020-02-18 16:39:59,"North East, England",city,"Ashington, England",United Kingdom
48,-68.623478,18.725815,Betsabe Sosa,198266843,2020-02-19 22:25:08,,city,"Higey, Dominican Republic",Dominican Republic
205,-1.2225015,54.5594145,LindsayBee,19826687,2020-02-22 15:33:20,"County Durham, UK",city,"Middlesbrough, England",United Kingdom
205,-3.11063,51.010490000000004,Mark Peters,19826700,2020-04-22 18:52:16,"51.030737,-3.083505",city,"Taunton, England",United Kingdom
24660,-79.85736349999998,36.090397,Izzy Iz ,198267112,2020-02-15 15:51:20,"North Carolina, USA",city,"Greensboro, NC",United States
33100,-80.12775400000001,25.788299,Izzy Iz ,198267112,2020-03-01 23:53:16,"North Carolina, USA",poi,Miami Beach,United States
16740,-80.8467855,35.209059,Izzy Iz ,198267112,2020-03-04 14:03:37,"North Carolina, USA",city,"Charlotte, NC",United States
33460,-93.36206700000001,45.036056,Tom Allen,198267277,2020-02-20 14:46:20,"Minneapolis, Minnesota",city,"Crystal, MN",United States
21,-43.63296,-22.742701,insta: @danillonascimento__,198267358,2020-02-27 18:10:54,Vila da Penha,poi,Narnia,Brasil
186,-3.66666667,40.5,Angel Gomez,198267607,2020-02-24 21:59:05,GETAFE,city,"Madrid, Espaa",Espaa
191,8.7463405,46.1485215, 'O,198267924,2020-02-16 09:46:03,,city,"Ascona, Switzerland",Switzerland
88,139.745379,35.652789, 'O,198267924,2020-03-03 01:19:03,,city,"Minato-ku, Tokyo",Japan
191,8.7760335,46.1073175, 'O,198267924,2020-06-01 08:02:26,,city,"Sant'Abbondio, Svizzera",Switzerland
31080,-118.25232,33.9157145,Ambar Loza,198268015,2020-02-16 08:52:19,"Gardena, CA / Guadalajara, Jal",city,"Willowbrook, CA",United States
47300,-119.3195265,36.319486,Ambar Loza-Morales,198268015,2020-05-16 14:34:44,"Gardena, CA / Guadalajara, Jal",city,"Visalia, CA",United States
31080,-118.4119065,34.0207895,Ambar Loza-Morales,198268015,2020-05-27 22:43:16,"Gardena, CA / Guadalajara, Jal",city,"Los Angeles, CA",United States
189,12.934894,55.579857499999996,Leif Persson,19826808,2020-02-16 08:55:27,"Malm, Sweden",city,"Malmo, Sweden",Sweden
160,-77.0106727,-12.0340418,jorge barrientos,198268102,2020-05-10 01:07:15,lima,city,"San Juan de Lurigancho, Peru",Peru
152,4.669533,52.336572,daddy macaroni,19826876,2020-05-08 07:58:38,the netherlands,poi,Groene Weelde,The Netherlands
178,28.371731,-25.76473,Douw GJ Vermaak,19826878,2020-05-18 05:26:08,"Pretoria, South Africa",poi,Silver Lakes Golf Estate,South Africa
16980,-87.617011,41.851290000000006,Dave Van de Walle,19826881,2020-02-15 19:01:22,"Evanston, IL",poi,McCormick Place,United States
33140,-86.89295899999999,41.718689000000005,Dave Van de Walle,19826881,2020-03-08 01:36:45,"Evanston, IL",poi,Blue Chip Casino & Hotel,United States
16980,-87.74470600000002,42.0341165,Dave Van de Walle,19826881,2020-03-08 22:27:55,"Evanston, IL",city,"Skokie, IL",United States
31080,-117.9171906,33.81131463,Gerardo Oropeza,198268947,2020-02-14 14:35:47,"West Covina, CA",city,"Anaheim, CA",United States
29820,-115.17235600000001,36.11991002,Gerardo Oropeza,198268947,2020-02-22 15:35:41,"West Covina, CA",city,"Paradise, NV",United States
31080,-117.92239176,33.81219295,Gerardo Oropeza,198268947,2020-03-02 20:16:34,"West Covina, CA",city,"Anaheim, CA",United States
40140,-116.45936200000001,33.798190999999996,Gerardo Oropeza,198268947,2020-03-04 23:27:40,"West Covina, CA",city,"Cathedral City, CA",United States
31080,-118.057216,34.00496978,Gerardo Oropeza,198268947,2020-03-09 22:26:12,"West Covina, CA",city,"Whittier, CA",United States
40140,-117.458,34.0977,Gerardo Oropeza,198268947,2020-05-12 03:58:12,"West Covina, CA",city,"Fontana, CA",United States
31080,-118.01272411,34.00085931,Gerardo Oropeza,198268947,2020-05-12 21:17:38,"West Covina, CA",city,"Whittier, CA",United States
23460,-86.00682950000002,34.003125,Pastor Brad Mullinax,19826895,2020-03-06 18:28:44,"Gadsden, AL",city,"Gadsden, AL",United States
11500,-85.82057850000002,33.595941499999995,Pastor Brad Mullinax,19826895,2020-03-28 16:42:14,"Gadsden, AL",city,"Oxford, AL",United States
8,-58.013021499999994,-34.9363185,Milii  18/08/14,198268975,2020-02-14 15:07:33,La Plata,city,"La Plata, Argentina",Argentina
38,-74.34534000000001,5.11901,Ricardo Cubillos,198269299,2020-06-08 23:14:40,Vergara Cundinamarca,city,"Vergara, Colombia",Colombia
14460,-70.891243,43.187098,Robb Goodell - Writer/Photographer/Disciple,19826933,2020-02-14 22:15:38,"Dover, NH",city,"Dover, NH",United States
205,-0.102162,51.5879015,Dant Banks,19826938,2020-02-14 09:29:06,London N8,city,"Tottenham, London",United Kingdom
186,-3.7035075,40.4777945,Jaime Rey Tabasco,198269512,2020-02-19 12:39:29,Getafe (Madrid),city,"Madrid, Espaa",Espaa
205,-2.8904995,56.641179,Steven Phillip,198269655,2020-03-23 14:00:25,"Forfar, Scotland",city,"Forfar, Scotland",United Kingdom
162,21.06179,52.2328355,Micha Sierzputowski ,198270075,2020-02-15 10:38:54,Warszawa,city,"Warszawa, Polska",Polska
37980,-75.117998,40.0048655,your local queen bee ,198270168,2020-02-19 20:39:30,,city,"Philadelphia, PA",United States
36420,-97.552161,35.4828435,John Camey,19827023,2020-02-21 02:02:49,Oklahoma,city,"Oklahoma City, OK",United States
29820,-115.13516499999999,36.060964500000004,John Camey,19827023,2020-02-25 15:32:27,Oklahoma,city,"Paradise, NV",United States
36420,-97.552161,35.4828435,John Camey,19827023,2020-02-29 23:07:24,Oklahoma,city,"Oklahoma City, OK",United States
186,-6.004633,37.41717,Francisco Cubelos,198270468,2020-02-20 10:23:54,Talavera / Madrid / El Bierzo,poi,Sevilla,Espaa
119,-102.366667,23.316667000000002,ZeLi.i,198270480,2020-04-05 23:10:23,Mxico,city,"Villa de Cos, Zacatecas",Mxico
200,29.0052225,41.0213205,aan Dikenelli,198270534,2020-05-01 05:31:29,stanbul,city,"stanbul, Trkiye",Trkiye
35620,-73.9685415,40.780709,Lauren Beth,198270668,2020-03-23 02:44:49,"New York, New York",city,"Manhattan, NY",United States
186,-3.527456,40.3494365,Nacho Morales,198270826,2020-03-14 21:05:18,Tristan da Cunha,city,"Rivas-Vaciamadrid, Espaa",Espaa
51,-7.866291,54.92103149999999,AILEEN WILSON,198270914,2020-02-15 12:32:46,,city,"Donegal, Ireland",Ireland
205,-6.1433545,54.19414,AILEEN WILSON,198270914,2020-05-30 19:35:43,,city,"Hilltown, Northern Ireland",United Kingdom
178,29.466421999999998,-25.767104999999997,Hlomza waga malaka,198270925,2020-02-18 18:29:22,south Africa,city,"Middelburg, South Africa",South Africa
42660,-122.1645275,48.088757,Jose Alberto,19827109,2020-05-04 19:52:59,North of Seattle,city,"Marysville, WA",United States
205,0.6359135,51.8035935,delabole,19827112,2020-03-29 13:18:38,witham essex,city,"Witham, East",United Kingdom
205,-2.099844,51.897156,Andrew Brady,19827145,2020-02-17 15:17:13,"Stamford, England",poi,Cheltenham Spa Railway Station (CNM),United Kingdom
26420,-95.37790600000001,29.725883000000003,J.Haynes,198271559,2020-04-02 17:57:09,"Atlanta, GA",poi,The Turkey Leg Hut,United States
12060,-84.4703885,33.6312775,J.Haynes,198271559,2020-05-12 12:35:38,"Atlanta, GA",city,"College Park, GA",United States
26420,-95.4464865,29.838495,J.Haynes,198271559,2020-05-13 03:05:28,"Atlanta, GA",city,"Houston, TX",United States
12420,-97.754724,30.3233455,J.Haynes,198271559,2020-05-19 22:28:44,"Atlanta, GA",city,"Austin, TX",United States
26420,-95.4464865,29.838495,J.Haynes,198271559,2020-05-22 14:45:50,"Atlanta, GA",city,"Houston, TX",United States
31080,-118.24429908,34.05575468,Jake Kroeger,198271725,2020-05-08 15:24:32,somewhere in LA,city,"Los Angeles, CA",United States
14460,-71.0887125,42.3136695,Johnbryan Murphy,19827176,2020-03-16 18:20:14,"iPhone: 36.081940,-115.143913",city,"Boston, MA",United States
19740,-104.9220935,39.713563,Dave Wolf,19827182,2020-02-15 05:40:46,"Denver, CO USA",city,"Denver, CO",United States
119,-99.0444445,19.568279999999998,Yo Soy Frodo,198271911,2020-03-24 00:13:39,"Ecatepec de Morelos, Mxico",city,"Ecatepec de Morelos, Mxico",Mxico
119,-99.2115105,19.4299345,Sergio Herrera,198272075,2020-02-14 12:24:24,,city,"Miguel Hidalgo, Distrito Federal",Mxico
200,28.6561,41.0065,Evnur Karakaya Cansu,198272341,2020-04-23 06:53:29,,city,"stanbul, Trkiye",Trkiye
19740,-104.8130265,39.961856,Jeff C. Staab,198272385,2020-02-16 04:04:51,"Brighton, CO",city,"Brighton, CO",United States
153,8.8,61.85,Simen Bjrgen,19827241,2020-04-08 17:50:30,Lom,city,"Lom, Norge",Norway
200,29.0052225,41.0213205,Zeynep Trkolu,198272610,2020-02-20 05:09:07,"stanbul, Trkiye",city,"stanbul, Trkiye",Trkiye
42660,-122.2939585,47.6903095,Vladimir Vinogradsky,19827277,2020-05-21 06:23:45,"Seattle, WA",neighborhood,"Wedgewood, Seattle",United States
119,-104.837578,23.9541625,Martha Mendivil,198272840,2020-03-27 16:19:38,"Durango, Mxico.",city,"Durango, Mxico",Mxico
186,2.1412275000000003,41.392657,mortizauge,198273075,2020-04-02 07:37:48,,city,"Barcelona, Espaa",Espaa
205,-4.2417515,55.85830249999999,julia,19827339,2020-02-14 21:54:40,"Glasgow, Scotland",city,"Glasgow, Scotland",United Kingdom
38900,-122.630908,45.536402,Pelegrino Papi,19827341,2020-05-30 03:51:00,"Portland, OR",city,"Portland, OR",United States
16980,-88.41916549999998,41.638108,seewithmel,198273609,2020-03-02 22:39:37,,city,"Yorkville, IL",United States
21,-43.441578,-22.911421500000003,Markus Cortez,198273611,2020-02-29 02:43:13,"Brasil, Rocinha",city,"Rio de Janeiro, Brasil",Brasil
222,112.6107005,-7.943314999999999,Alhamidz ibn Mansyur,198274143,2020-03-06 11:44:26,"Arema, Merasa orang Indonesia",city,"Lowokwaru, Indonesia",Indonesia
33340,-88.04770450000001,42.940823,Coach Mattox,198274169,2020-02-16 03:07:39,"Hales Corners, WI",city,"Hales Corners, WI",United States
36780,-88.5653355,44.033276,Coach Mattox,198274169,2020-02-27 02:35:54,"Hales Corners, WI",city,"Oshkosh, WI",United States
33340,-88.04770450000001,42.940823,Coach Mattox,198274169,2020-03-02 03:08:30,"Hales Corners, WI",city,"Hales Corners, WI",United States
205,-0.945339,51.023853,ysanne bonner,19827431,2020-02-14 23:32:58,hampshire,city,"Steep, England",United Kingdom
159,-57.60601750000001,-25.300264000000002,Jos Mara Galeano,198274431,2020-02-19 15:55:12,Paraguay,city,"Asuncion, Paraguay",Paraguay
65,9.0692715,42.274058000000004,minu',19827448,2020-04-17 14:17:25,corsica,city,"Corte, France",France
205,-1.56549,53.801956,julie lill,19827452,2020-04-22 12:18:12,leeds,city,"Leeds, England",United Kingdom
65,4.353991000000001,48.979879100000005,Gauthier. RB,198274734,2020-02-14 07:04:28,,city,"Saint-Martin-sur-le-Pr, France",France
8,-58.442643,-34.604315,,198274739,2020-02-18 17:15:48,,city,"Ciudad Autnoma de Buenos Aires, Argentina",Argentina
151,5.641287999999999,6.3349545,juicyjames Eze,198274839,2020-03-29 14:11:35,Nigeria,city,"Benin-City, Nigeria",Nigeria
8,-58.84588449,-27.48341722,Carlos Bustos,198274987,2020-02-15 16:20:32,Formosa Argentina,city,"Corrientes, Argentina",Argentina
51,-6.3953155000000015,52.957956,Tom Byrne,198275162,2020-05-31 21:35:58,Ireland,city,"Wicklow, Ireland",Ireland
12060,-84.43310600000001,33.7671945,,198275301,2020-02-14 09:01:28,"Atlanta, GA",city,"Atlanta, GA",United States
119,-97.52088,20.01857,Crudencia ,198275887,2020-02-19 00:39:46,"Puebla, Mxico",city,"Cuetzalan del Progreso, Puebla",Mxico
17140,-84.37566149999999,38.95892050000001,Auntie Coco,19827590,2020-02-14 21:29:51,Kentucky,city,"Alexandria, KY",United States
8,-61.1233805,-33.5421805,adolfo imhoff,198275931,2020-03-01 11:54:58,rosario,city,"Alcorta, Argentina",Argentina
119,-103.23313,25.244223,VocesTVMx,198275983,2020-02-16 03:23:39,"TORREN, COAHUILA - MEXICO",city,"Torren, Coahuila de Zaragoza",Mxico
21,-51.50403,-27.1771,Eliseu ,19827617,2020-03-28 01:05:54,Joaaba SC,city,"Joaaba, Brasil",Brasil
200,38.25750100000001,37.759986,murat grgz,198276411,2020-03-31 02:31:15,turkey,city,"Adyaman, Trkiye",Trkiye
40900,-121.1784,38.6763,Brodie Stephens,19827670,2020-05-07 14:07:38,"Folsom, California, USA",city,"Folsom, CA",United States
37340,-80.8293865,28.584726,Heather Corby,198276846,2020-05-27 12:39:40,"Jacksonville, FL",city,"Titusville, FL",United States
88,135.4650225,34.5766425,,198276971,2020-02-17 00:38:18,,city,  ,
211,-72.350528,7.697469,Jackson Carrillo Monterrey,198276993,2020-04-08 02:33:41,"Tchira, Venezuela",poi,Victoria (Parte Alta),Venezuela
200,29.0052225,41.0213205,ATLANTA,198277005,2020-04-03 16:55:45,"stanbul, Trkiye",city,"stanbul, Trkiye",Trkiye
160,-78.40873400000002,-8.900004,Erick orr'z ,198277041,2020-02-23 00:04:17,Peru,city,"Chimbote, Peru",Peru
21,-46.5955455,-23.682803,Anny Ulisses ,198277060,2020-02-18 15:26:48,"So Paulo, Brasil",city,"So Paulo, Brasil",Brasil
24860,-82.3422685,34.7959415,Reh Harvey,198277105,2020-02-17 21:35:51,"Greenville, SC",city,"Greenville, SC",United States
178,18.42175373,-33.92436976,iampaulward,198277172,2020-03-20 21:44:57,,city,"Cape Town, South Africa",South Africa
85,9.19162172,45.46416376,iampaulward,198277172,2020-03-27 21:24:27,,city,"Milan, Lombardy",Italy
128,5.0,51.0,iampaulward,198277172,2020-03-29 11:34:13,,city,"Diest, Belgi",Belgium
178,28.03333333,-26.2,iampaulward,198277172,2020-03-30 13:51:16,,city,"Johannesburg, South Africa",South Africa
88,139.77,35.68,iampaulward,198277172,2020-04-01 14:25:17,,city,"Chuo-ku, Tokyo",Japan
35620,-74.0064,40.7142,iampaulward,198277172,2020-04-07 16:48:56,,city,"Manhattan, NY",United States
88,139.77,35.68,iampaulward,198277172,2020-04-09 19:13:36,,city,"Chuo-ku, Tokyo",Japan
205,-0.12731805,51.50711486,iampaulward,198277172,2020-04-10 12:39:50,,city,"London, England",United Kingdom
71,13.401251,52.518391,iampaulward,198277172,2020-04-11 12:21:25,,city,"Berlin, Germany",Germany
178,18.42175373,-33.92436976,iampaulward,198277172,2020-04-12 16:44:36,,city,"Cape Town, South Africa",South Africa
88,139.77,35.68,iampaulward,198277172,2020-04-25 15:40:31,,city,"Chuo-ku, Tokyo",Japan
178,18.42175373,-33.92436976,iampaulward,198277172,2020-05-04 06:38:35,,city,"Cape Town, South Africa",South Africa
35620,-74.0064,40.7142,iampaulward,198277172,2020-05-05 13:10:16,,city,"Manhattan, NY",United States
178,18.42175373,-33.92436976,iampaulward,198277172,2020-05-15 10:07:32,,city,"Cape Town, South Africa",South Africa
57,9.651695,47.2989855,Fred Kuman,198277211,2020-02-14 08:36:10,Vorarlberg/Austria,city,"Rthis, sterreich",sterreich
205,-1.9880000000000002,50.714,John Harris #STFC FI,19827731,2020-04-13 21:38:06,#STFC,city,"Poole, England",United Kingdom
205,-2.195856,53.501222,80 Hertz Studios,19827749,2020-03-03 12:49:52,Manchester,poi,80 Hertz Studio,United Kingdom
27260,-81.404855,30.27988,Nicholas Ertel,198277571,2020-03-15 17:28:57,"Jacksonville Beach, FL",city,"Jacksonville Beach, FL",United States
10580,-73.763825,42.7391215,George Berg,19827761,2020-05-26 22:35:04,Albany NY,city,"Latham, NY",United States
33100,-80.2333285,25.7823535,mrs. brazy hoe,198277661,2020-03-10 21:55:49,,city,"Miami, FL",United States
34940,-81.79626999999999,26.15643,Brien Spina,19827779,2020-02-23 15:09:07,"Naples, FL",city,"Naples, FL",United States
15980,-81.8571,26.6318,Brien Spina,19827779,2020-02-27 21:26:08,"Naples, FL",city,"Fort Myers, FL",United States
34940,-81.7947,26.1418,Brien Spina,19827779,2020-03-20 16:30:21,"Naples, FL",city,"Naples, FL",United States
29460,-81.63166667,28.13333333,Brien Spina,19827779,2020-03-29 12:58:04,"Naples, FL",city,"Haines City, FL",United States
34940,-81.78699999999999,26.245,Brien Spina,19827779,2020-04-03 00:59:05,"Naples, FL",city,"Pine Ridge, FL",United States
205,-0.017990000000000003,51.454107,Jamz,198277848,2020-04-05 09:11:29,London,city,"Lewisham, London",United Kingdom
42660,-122.21807549999998,47.3923115,Demond Harris,198278335,2020-02-27 03:14:45,,city,"Kent, WA",United States
31080,-118.2445,34.0564,Demond Harris,198278335,2020-04-28 17:26:34,,city,"Los Angeles, CA",United States
38060,-111.92670895,33.54116779,Demond Harris,198278335,2020-05-27 21:33:20,,city,"Paradise Valley, AZ",United States
26420,-95.53985250000001,30.1812515,Hannah,198278392,2020-05-06 21:58:49,"Spring, TX",city,"The Woodlands, TX",United States
60,22.4422515,60.4204075,John Hall,19827857,2020-02-14 05:55:19,Bishop's Cross - Piispanristi,city,"Kaarina, Suomi",Finland
42340,-81.1096165,32.017284499999995,Paige Harmon,198278612,2020-03-27 12:57:22,"Savannah, GA",city,"Savannah, GA",United States
24,-73.723025,45.5578305,Marc-Alexandre,19827876,2020-02-15 03:30:31,"Longueuil, Qubec",city,"Montral, Qubec",Canada
35620,-73.984562,41.15000000000001,Marc-Alexandre,19827876,2020-04-01 01:35:50,"Longueuil, Qubec",city,"New City, NY",United States
24,-73.43361800000001,45.5109365,Marc-Alexandre,19827876,2020-04-01 17:07:09,"Longueuil, Qubec",city,"Longueuil, Qubec",Canada
35380,-90.1786295,30.001244,Darby Matthews,19827892,2020-03-07 19:09:53,New Orleans,city,"Metairie, LA",United States
33,-70.5189175,-33.425400499999995,Amanecer!!!,198279024,2020-02-15 02:51:44,,city,"Las Condes, Chile",Chile
205,-2.366933,51.3796495,Otto von Arx,198279036,2020-02-21 20:43:16,"Bath , UK",city,"Bath, England",United Kingdom
15380,-78.74839899999999,42.9072065,Josh Waxum,198279089,2020-02-27 17:51:31,"Buffalo, NY",city,"Cheektowaga, NY",United States
31080,-118.1361935,34.1938085,Brian McPherson,1982791,2020-02-14 04:25:11,"Altadena, CA",city,"Altadena, CA",United States
8,-58.508385,-34.529882,Esteban A. Lagger,198279526,2020-04-21 20:46:21,Argentina - Santafesino,city,"Vicente Lpez, Argentina",Argentina
161,67.01,24.86,Mudassir Ghafoor ,198279534,2020-04-17 22:39:56,"Karachi, Pakistan",city,"Karachi, Pakistan",Pakistan
21,-43.197351,-22.909011,Biro biro,198279933,2020-02-25 22:54:25,", ",poi,Sambdromo da Marqus de Sapuca,Brasil
19100,-96.8637945,32.604153000000004,Cazares,198280349,2020-03-24 04:22:23,"Mesquite, TX",city,"Desoto, TX",United States
21,-46.651745,-23.547432999999998,dodo,198280538,2020-02-20 01:21:37,"So Paulo, Brasil",poi,Universidade Presbiteriana Mackenzie,Brasil
119,-96.0989905,19.1431005,Toazo!! \/,198280574,2020-02-14 00:06:00,"@Boca del River, Ver.",city,"Boca del Ro, Veracruz de Ignacio de la Llave",Mexico
24,-75.625038,45.4827445,Scouts Canada,19828068,2020-02-26 21:38:31,From coast to coast in Canada,city,"Gatineau, Qubec",Canada
8,-55.909711,-27.404671,Macarena,198281140,2020-02-14 00:18:46,Tierra colorada,city,"Posadas, Argentina",Argentina
173,37.42764250000001,55.7547875, ,198281210,2020-05-04 04:37:29,Skotoprigonievsk,city,"Moscow, Russia",Russia
193,100.2561865,13.652544,Lpeloa,198281273,2020-04-25 08:04:44,Thailand ,city,"Krathum Baen, Thailand",Thailand
21,-43.5167,-22.8833,Aryane Costa,198281323,2020-04-15 16:45:58,,city,"Rio de Janeiro, Brasil",Brasil
119,-87.0316645,21.048719000000002,John L Farrell,19828144,2020-02-14 12:23:10,,city,"Benito Jurez, Quintana Roo",Mexico
35620,-74.184848,40.734494,John L Farrell,19828144,2020-02-15 22:31:25,,city,"Newark, NJ",United States
12100,-74.4372135,39.364509999999996,John L Farrell,19828144,2020-02-24 01:25:54,,city,"Atlantic City, NJ",United States
35620,-74.10636600000002,40.6707835,John L Farrell,19828144,2020-02-24 23:50:30,,city,"Bayonne, NJ",United States
12700,-70.19519650000001,41.66541150000001,John L Farrell,19828144,2020-03-08 20:16:02,,city,"South Yarmouth, MA",United States
35620,-74.10636600000002,40.6707835,John L Farrell,19828144,2020-03-13 01:33:07,,city,"Bayonne, NJ",United States
12700,-70.19519650000001,41.66541150000001,John L Farrell,19828144,2020-03-24 15:17:21,,city,"South Yarmouth, MA",United States
35620,-74.10636600000002,40.6707835,John L Farrell,19828144,2020-03-26 01:28:51,,city,"Bayonne, NJ",United States
12700,-70.20506549999999,41.732685,John L Farrell,19828144,2020-05-01 13:38:17,,city,"Dennis, MA",United States
35620,-74.10636600000002,40.6707835,John L Farrell,19828144,2020-05-01 20:11:15,,city,"Bayonne, NJ",United States
12700,-70.20506549999999,41.732685,John L Farrell,19828144,2020-05-05 21:46:16,,city,"Dennis, MA",United States
85,11.3109234,44.713257399999996,alberghinialessandra,198281456,2020-04-17 10:37:28,pieve di cento bologna,city,"Pieve di Cento, Emilia Romagna",Italia
178,28.184066499999997,-25.752605499999998,Keitumetse Moroane,198281700,2020-02-25 20:29:38,gauteng,city,"Pretoria, South Africa",South Africa
16740,-80.8467855,35.209059,Reed Shimberg,198281733,2020-02-17 18:14:42,,city,"Charlotte, NC",United States
205,-0.994932,53.78186700000001,John McAtominey,198281819,2020-06-09 15:53:48,"Cliffe, North Yorkshire",city,"Cliffe, England",United Kingdom
205,-2.4925080000000004,51.46582,Haydon,198281862,2020-02-29 17:17:10,,city,"Kingswood, England",United Kingdom
16980,-87.732013,41.8335845,Emily,198281903,2020-04-10 01:44:53,"Chicago, IL",city,"Chicago, IL",United States
85,9.348314,45.474630499999996,Andrea F. de Cesco,198282057,2020-02-16 18:00:10,"Milano, Lombardia",city,"Rodano, Lombardia",Italia
186,2.769968,39.39169800000001,Andrea F. de Cesco,198282057,2020-02-28 11:34:31,"Milano, Lombardia",city,"Palma di Maiorca, Spagna",Spagna
119,-99.1158905,19.518656,Polet Torres,198282102,2020-02-14 05:01:32,"Gustavo A. Madero, Distrito Federal",city,"Gustavo A. Madero, Distrito Federal",Mxico
35620,-73.983265,40.753621,RMFnD,198282136,2020-04-17 12:15:40,"Queens, NY",poi,Bryant Park,United States
21,-34.83569348,-7.12163423,Gilmar Ferreira,198282345,2020-04-09 22:51:13,,city,"Joo Pessoa, Brazil",Brazil
159,-57.60601750000001,-25.300264000000002,Lucia Mora,198282408,2020-03-05 13:14:12,Paraguay,city,"Asuncion, Paraguay",Paraguay
8,-64.1980255,-31.4154565,Flor,198282651,2020-02-14 15:12:12,,city,"Crdoba, Argentina",Argentina
21,-43.018208,-22.821465,Arlene Lima,198282756,2020-02-15 13:01:59,Rio de Janeiro,city,"So Gonalo, Brasil",Brasil
27260,-81.657,30.3285,M MLR,19828288,2020-02-15 12:20:23,"Jacksonville, FL",neighborhood,"Downtown Jacksonville, FL",United States
36740,-81.46746659,28.47313565,M MLR,19828288,2020-03-24 11:04:23,"Jacksonville, FL",city,"Orlando, FL",United States
27260,-81.657,30.3285,M MLR,19828288,2020-04-07 14:01:56,"Jacksonville, FL",neighborhood,"Downtown Jacksonville, FL",United States
36740,-81.46746659,28.47313565,M MLR,19828288,2020-04-08 21:34:14,"Jacksonville, FL",city,"Orlando, FL",United States
27260,-81.4088,30.3347,M MLR,19828288,2020-04-20 00:45:11,"Jacksonville, FL",city,"Atlantic Beach, FL",United States
119,-117.029335,32.542539,Jerveris V. Floyd,19828295,2020-03-19 18:55:08,"Los Angeles, CA",poi,United States / Mexico International Border,Mexico
31080,-118.4119065,34.0207895,Jerveris V. Floyd,19828295,2020-03-21 18:40:14,"Los Angeles, CA",city,"Los Angeles, CA",United States
119,-102.4248865,22.7666095,Mximo Rosales,198282998,2020-02-24 16:04:33,ZAC | SLP,city,"Guadalupe, Zacatecas",Mxico
186,2.0573895,41.3634225,Jos Luis Parada Caballero,198283038,2020-02-16 15:19:41,"Barcelona, Espaa",city,"Sant Joan Desp, Espaa",Espaa
24,-66.594273,45.8242045,Jenny Knutsson,198283087,2020-04-23 22:24:49,"Fredericton, New Brunswick",city,"Lincoln, New Brunswick",Canada
38,-73.11764000000001,7.108649000000001,Nelson Daz.,198283101,2020-02-28 23:17:44,Bucaramanga - Santander,poi,Sanandresito La Isla,Colombia
28580,-80.6281,24.9239,'Rob' Magrini,198283269,2020-03-01 05:41:52,Worldwide,city,"Islamorada, FL",United States
21,-52.782411,-27.112329,Natlia Lorenzi,198283290,2020-02-14 00:31:11,,city,"Guatamb, Brasil",Brasil
33340,-87.97634302,43.044439600000004,Laura Bayzee,19828330,2020-02-17 00:27:47,SouF MealEwalkAY WisCANsin,city,"Milwaukee, WI",United States
39540,-88.16093347,42.82127554,Laura Bayzee,19828330,2020-05-03 12:08:01,SouF MealEwalkAY WisCANsin,city,"Wind Lake, WI",United States
33340,-87.97634302,43.044439600000004,Laura Bayzee,19828330,2020-05-11 20:50:34,SouF MealEwalkAY WisCANsin,city,"Milwaukee, WI",United States
24,-52.829425,47.4826065,Christa,198283577,2020-05-21 13:31:17,"Newfoundland, Canada",city,"St. John's, Newfoundland and Labrador",Canada
38,-75.5751,6.2359,FAUSTO B,198283587,2020-03-07 14:32:09,colombia,city,"Medelln, Colombia",Colombia
88,139.680015,35.46134,,198283743,2020-02-14 12:47:57,,poi,PA,
35620,-74.363031,40.5415725,Dr. Pam McElwee,19828377,2020-02-18 00:06:18,Either NJ or Southeast Asia.,city,"Metuchen, NJ",United States
65,5.36902,43.296020500000004,MICH TO MICH,198283819,2020-02-16 18:08:58,"Paris, France",city,"Marseille, France",France
186,-2.6850178,42.83786168,Natalie van den Adel,198283826,2020-02-15 11:51:22,"Barendrecht, Nederland",city,"Vitoria-Gasteiz, Spain",Spain
152,4.54064,51.85318,Natalie van den Adel,198283826,2020-03-25 12:56:48,"Barendrecht, Nederland",city,"Barendrecht, Nederland",The Netherlands
42340,-81.30943640000001,32.3544164,Natalie van den Adel,198283826,2020-05-10 12:50:27,"Barendrecht, Nederland",city,"Springfield, GA",United States
186,-2.6664,42.8504,Natalie van den Adel,198283826,2020-05-16 14:31:15,"Barendrecht, Nederland",city,"Vitoria-Gasteiz, Spain",Spain
120,101.58085219,3.20842359,Natalie van den Adel,198283826,2020-05-30 11:04:46,"Barendrecht, Nederland",city,"Batu, Selangor",Malaysia
152,4.48654376,51.90912572,Natalie van den Adel,198283826,2020-06-04 09:50:42,"Barendrecht, Nederland",city,"Rotterdam, The Netherlands",The Netherlands
38,-72.501103,7.9199399999999995,TOTO GARCIA,198284151,2020-04-22 19:44:49,colombia,poi,Cucuta Norte De Santander,Colombia
12060,-83.996909,33.8545135,,198284301,2020-05-26 18:18:09,"Philadelphia, PA",city,"Snellville, GA",United States
205,-3.765778,55.240207,Ross Murdoch,198284363,2020-04-21 21:04:48,"Thornhill, Dumfriesshire",city,"Thornhill, Scotland",United Kingdom
38,-74.06967,4.64585,SeverOreveS Band,198284366,2020-03-06 14:49:28,Bogot Colombia,city,"Bogot, D.C., Colombia",Colombia
26420,-95.4464865,29.838495,Brandon,198284455,2020-02-14 04:00:01,"Houston, TX",city,"Houston, TX",United States
186,-4.8729125,36.507495,vicente gonzalez,198284633,2020-02-24 19:04:24,"Marbella, Espaa",city,"Marbella, Espaa",Espaa
119,-100.5876,25.81662,rogelio perez gamez,198284680,2020-02-14 21:08:17,Mty nl mex,city,"Garca, Nuevo Len",Mexico
205,-0.019615900000000002,51.47592642,Marco D'Emilia,198284809,2020-04-14 06:55:07,London,city,"Greenwich, London",United Kingdom
31080,-117.99873249999999,33.692541999999996,An Internet Goblin,19828543,2020-02-14 18:09:03,"Huntington Beach, CA",city,"Huntington Beach, CA",United States
37980,-75.19313335,39.95147155,Luigi Salas Miranda,198285506,2020-04-05 08:33:14,Arequipa & Cusco - Per,city,"Philadelphia, PA",Estados Unidos
119,-99.09575701,19.4050579,Alejandro Mora,19828568,2020-02-25 02:22:32,Mexico City,city,"Iztacalco, Distrito Federal",Mexico
82,72.91801,19.377516500000002,Prabal Gope,198285772,2020-04-01 17:54:55,Mumbai,city,"Thane, India",India
38,-74.24367099999999,4.2622835,Jonathan M. De Los Santos,198285969,2020-03-15 23:56:36,Sobreviviendo en Venezuela,city,"Bogot, D.C., Colombia",Colombia
89,-78.36808,18.269876999999997,xtabiresort,198286239,2020-02-19 13:00:16,Jamaica,poi,Xtabi Resort,Jamaica
235,22.2254411,43.5736062,Knjazevac - vesti,19828625,2020-04-09 08:35:08,Knjazevac,city,"Knjaevac, Srbija",Republic of Serbia
211,-66.8589635,10.4579305,Elias da silva,198286303,2020-04-16 22:22:00,"Caracas, Venezuela",city,"Nuestra Seora del Rosario de Baruta, Venezuela",Venezuela
159,-57.610325,-25.332704999999997,Desiderio Venialgo,198286396,2020-05-11 22:33:06,lambare,poi,Lomilitos,Paraguay
88,139.810157,35.6450615,Rey,198286407,2020-02-24 00:52:13,,city, ,
47900,-77.0143985,38.898603,Alex Vance,19828645,2020-02-14 23:11:04,"Washington, DC",city,"Washington, DC",United States
37980,-75.117998,40.0048655,Alex Vance,19828645,2020-03-08 04:31:30,"Washington, DC",city,"Philadelphia, PA",United States
47900,-77.0143985,38.898603,Alex Vance,19828645,2020-03-14 16:20:37,"Washington, DC",city,"Washington, DC",United States
205,-1.30890182,52.38009396,Tim,19828657,2020-02-16 19:39:15,"Long Lawford, England",city,"Long Lawford, England",United Kingdom
18140,-82.881943,39.968866999999996,daniel aponte,198286571,2020-03-06 12:36:24,"Columbus, OH",city,"Whitehall, OH",United States
41860,-122.2286855,37.791994,Michael Lighty,198286584,2020-04-18 12:57:23,Oakland,city,"Oakland, CA",United States
119,-99.1614805,19.380613,SandraKellyDemerutis,198286691,2020-03-05 22:36:20,Miguel Hidalgo,city,"Benito Jurez, Distrito Federal",Mxico
205,-2.955045,56.476952000000004,Arthur JA Campbell ,198287068,2020-02-29 10:11:43,Dundee,city,"Dundee, Scotland",United Kingdom
205,-0.0671735,51.249955,Alex Scarratt,198287079,2020-05-06 21:48:15,,city,"Godstone, South East",United Kingdom
32820,-89.92202900000002,35.1335205,Margaret Caffey,198287276,2020-02-26 23:29:25,Memphis,city,"Memphis, TN",United States
21,-43.17434148,-22.93481913,Luana,198287393,2020-03-29 22:44:14,"Mossor, Brasil",city,"Rio de Janeiro, Brasil",Brasil
205,-0.092633,51.358931,plumber2day,198287416,2020-03-31 09:45:07,#Coulsdon #Surrey #London #UK,city,"Croydon, London",United Kingdom
41940,-121.8737305,37.331159,yassi,198287447,2020-03-18 20:27:32,California,city,"San Jose, CA",United States
205,-5.928413,54.59586899999999,Lindsay Rothwell,198287484,2020-05-18 21:15:01,"Belfast, NI",city,"Belfast, Northern Ireland",United Kingdom
26420,-95.4464865,29.838495,Syd,198287584,2020-02-26 03:35:36,"Houston,TX",city,"Houston, TX",United States
193,100.4040735,14.892081,N@mning pothong,198287645,2020-05-09 10:06:02,,city,"Sing Buri, Thailand",Thailand
71,13.4246065,52.506701,Jalen,19828769,2020-02-16 23:51:34,"Fishers, IN",city,"Berlin, Germany",Germany
160,-77.08360040000001,-12.07609289,Rubn Yuri Navarro,198287729,2020-02-15 00:16:04,"Lima, Peru",city,"San Miguel, Peru",Peru
205,0.8829100000000001,51.309740000000005,Anna-Jane Casey,198287917,2020-03-26 20:03:27,"Kent, England",city,"Faversham, England",United Kingdom
31080,-118.27532,33.93835,Zack Kampf,198288380,2020-06-03 01:20:05,Los Angeles,poi,Los Angeles Police Department Southeast Station,United States
164,-9.107346000000001,38.666255,Loureno Gonalves,198288907,2020-03-28 11:53:19,"Zanzibar, Tanzania",city,"Almada, Portugal",Portugal
186,2.1412275000000003,41.392657,lvaro G. Montoliu,198288946,2020-06-08 18:06:17,Barcelona,city,"Barcelona, Espaa",Espaa
24,-123.1200325,49.098260499999995,heather sellers,198289003,2020-02-14 22:40:12,,city,"Delta, British Columbia",Canada
41860,-122.419,37.7793,Larina,19828924,2020-03-08 18:21:52,San Francisco,city,"San Francisco, CA",United States
34980,-86.8229,35.960679999999996,Steven Wright,19828927,2020-02-24 21:41:08,,city,"Franklin, TN",United States
13820,-86.7878589,33.50885183,Steven Wright,19828927,2020-05-21 22:46:02,,city,"Birmingham, AL",United States
35380,-90.070864,29.948479,AshleyHebert,198289306,2020-02-14 06:28:20,"New Orleans, LA",city,"New Orleans, LA",United States
12940,-91.18740556,30.45707222,AshleyHebert,198289306,2020-02-21 16:50:35,"New Orleans, LA",city,"Baton Rouge, LA",United States
35380,-90.070864,29.948479,AshleyHebert,198289306,2020-02-23 19:22:18,"New Orleans, LA",city,"New Orleans, LA",United States
29180,-92.0294,30.2139,AshleyHebert,198289306,2020-03-01 02:31:10,"New Orleans, LA",city,"Lafayette, LA",United States
12940,-91.1402,30.4581,AshleyHebert,198289306,2020-03-25 03:56:58,"New Orleans, LA",city,"Baton Rouge, LA",United States
35380,-90.070864,29.948479,AshleyHebert,198289306,2020-06-03 16:47:28,"New Orleans, LA",city,"New Orleans, LA",United States
16980,-87.9314125,42.0624705,Philip Walter,19828959,2020-03-30 20:14:01,Chicago,city,"Mount Prospect, IL",United States
8,-64.29055556,-36.62027778,MORQUIN,198289637,2020-03-10 22:00:46,santa rosa la pampa,city,"Santa Rosa, Argentina",Argentina
186,2.1412275000000003,41.392657,miquel molina,198289653,2020-04-12 07:03:19,barcelona,city,"Barcelona, Espanya",Espanya
24,-73.723025,45.5578305,Pawel Zielinski,19828979,2020-02-14 14:12:35,Neuilly sur Seine,city,"Montral, Qubec",Canada
160,-77.04396650000002,-12.055468,JuanMa,198289861,2020-04-07 02:41:53,"Lima, Peru",city,"Lima, Peru",Peru
31080,-118.4119065,34.0207895,rawmiiii,198289878,2020-02-14 07:39:48,,city,"Los Angeles, CA",United States
41860,-122.43597849999999,37.7706565,rawmiiii,198289878,2020-02-22 20:31:45,,city,"San Francisco, CA",United States
31080,-117.8874385,33.739992,rawmiiii,198289878,2020-02-24 08:49:50,,city,"Santa Ana, CA",United States
40140,-117.39761599999999,33.935821999999995,rawmiiii,198289878,2020-03-01 21:38:11,,city,"Riverside, CA",United States
31080,-118.130426,33.937673499999995,rawmiiii,198289878,2020-03-20 04:16:29,,city,"Downey, CA",United States
41740,-117.064609,33.070234,,198289907,2020-03-07 21:25:21,"San Marcos, CA",poi,Westfield North County Fair - Playtown,United States
35620,-74.00321845,40.72441652,Sean,19829012,2020-02-18 21:26:12,"New York, NY",city,"Manhattan, NY",United States
33460,-93.2620465,44.9706105,Cline Dijon,19829063,2020-02-17 17:33:07,"Minneapolis, MN",city,"Minneapolis, MN",United States
24,-106.614536,49.653524499999996,Penny Filson,19829092,2020-04-04 19:14:37,,city,"Wood River No. 74, Saskatchewan",Canada
186,-1.857034,37.229676,Paula Lord,19829101,2020-03-02 04:31:57,UK,city,"Vera, Spain",Spain
205,-3.1749715,55.654066500000006,John Armstrong,198291269,2020-05-03 13:30:37,Peebles,city,"Peebles, Scotland",United Kingdom
205,-2.5933005000000002,53.38260800000001,Paul Slater,198291307,2020-05-15 15:40:44,Stockton heath ,city,"Warrington, England",United Kingdom
186,0.1685305,38.7669685,Han IJssennagger,198291316,2020-02-18 07:44:28,Bilthoven - Utrecht,city,"Jvea, Espaa",Spanje
65,3.832522,43.573291999999995,Han IJssennagger,198291316,2020-03-13 07:02:57,Bilthoven - Utrecht,city,"Saint-Jean-de-Vdas, France",Frankrijk
152,5.162796,52.1446045,Han IJssennagger,198291316,2020-03-14 22:40:13,Bilthoven - Utrecht,city,"De Bilt, Nederland",Nederland
19820,-83.05625649999998,42.3542025,Cindy Primus,198291324,2020-05-12 19:27:30,Canada,neighborhood,"Medical Center, Detroit",United States
24,-83.00208549999998,42.295065,Cindy Primus,198291324,2020-05-12 23:28:16,Canada,city,"Windsor, Ontario",Canada
21,-46.5955455,-23.682803,Marise Benitez,198291352,2020-02-17 11:39:00,So Paulo,city,"Sao Paulo, Brazil",Brazil
21,-49.27634239,-25.42895452,Mari Fregulia,198291496,2020-02-21 19:57:34,"Curitiba, Paran",city,"Curitiba, Brazil",Brazil
74,-90.47364499999999,14.440083999999999,Mario Ch. ,198291509,2020-02-14 16:25:13,Guatemala,poi,CAP Fraijanes,Guatemala
88,137.0078995,35.061264,,198291711,2020-03-06 08:09:50,,city, ,
29820,-115.03833700000001,36.006256,Yenimelendez,198291719,2020-03-29 19:44:26,"Nevada, USA",city,"Henderson, NV",Estados Unidos
41180,-90.191062,38.626137,Arthur Nunn,19829186,2020-03-07 17:52:39,"St. Louis, Missouri",poi,Kiener Plaza,United States
205,-0.227542,51.513574,,19829189,2020-03-06 07:28:04,London,poi,White City Place,United Kingdom
21,-46.5955455,-23.682803,Weslley Mesquita,198291955,2020-02-26 00:30:21,,city,"So Paulo, Brasil",Brasil
21,-35.092478,-8.276487,Well Betaquarks,198292005,2020-03-31 23:39:15,,city,"Cabo de Santo Agostinho, Brasil",Brasil
58,16.577969500000002,49.2020625,Nik Nguyen,198292478,2020-03-29 09:10:37,"Brno, Czech Republic",city,"Brno, Czech Republic",Czech Republic
33,-73.0717,-38.031909999999996,Daniel Venegas C.,198292559,2020-02-20 12:13:13,"Santiago, Chile",city,"Purn, Chile",Chile
160,-71.5369,-16.3988,Sly Bryam,198292687,2020-05-09 07:24:22,AREQUIPA PERU,city,"Arequipa, Peru",Peru
16700,-79.837322,32.847946500000006,Mark M. Smith,198292689,2020-04-12 11:14:24,"Mt Pleasant, SC",city,"Mount Pleasant, SC",United States
88,139.88299999999998,36.55,kiyoshi yoshimura,198292697,2020-02-17 03:28:29,,city, ,
29820,-115.223125,36.232915000000006,Coole High,19829277,2020-02-14 17:29:50,"Brooklyn, Las Vegas",city,"Las Vegas, NV",United States
211,-66.815766,10.485083,Sandra Landaeta,198292954,2020-05-02 12:54:05,Caracas-Venezuela,city,"Petare, Venezuela",Venezuela
45300,-82.7643,27.9736,Chris Taylor,198293069,2020-05-24 19:31:56,"Clearwater, FL",city,"Clearwater, FL",United States
21,-41.7635725,-2.9474245000000003,GRVIDA,198293160,2020-04-01 03:01:27,Parnaba - PI,city,"Parnaba, Brasil",Brasil
19780,-93.6063695,41.5764375,"JANA, Inc.",19829323,2020-03-10 13:40:05,"San Antonio, TX",city,"Des Moines, IA",United States
33100,-80.2333285,25.7823535,"JANA, Inc.",19829323,2020-03-11 13:09:24,"San Antonio, TX",city,"Miami, FL",United States
40140,-116.456271,33.767959999999995,Kristen Lee,198293441,2020-03-16 07:41:04,Somewhere between LA & The Bay,poi,Air Pool - Ritz Carlton Rancho Mirage,United States
205,-0.16852999999999999,52.315566499999996,Matt Jamison,19829369,2020-03-02 15:05:48,UK,city,"Godmanchester, England",United Kingdom
186,-3.7035075,40.4777945,Lucas Skywalker,198293711,2020-02-16 04:17:20,,city,"Madrid, Espaa",Espaa
24,-119.4568255,49.8991485,Vik Bains,198293945,2020-03-16 01:30:30,"T: 49.283325,-123.1218219",city,"Kelowna, British Columbia",Canada
135,6.1358045,49.607906,Paul Huberlant,19829403,2020-04-02 06:54:06,Luxembourg,city,Luxembourg,Luxembourg
33,-70.610759,-33.429485,Frank,198294040,2020-02-15 21:04:15,"Santiago, Chile",city,"Providencia, Chile",Chile
24,-114.067093,51.047359,Jeff Beamish,198294141,2020-02-21 14:35:18,"Calgary, Alberta",city,"Calgary, Alberta",Canada
205,-0.0601675,51.5476445,Loop.pH,198294285,2020-02-14 22:34:44,London,city,"Hackney, London",United Kingdom
65,3.8742675,43.610396,Manuel,198294346,2020-05-29 19:29:17,,city,"Montpellier, France",France
205,-0.0601675,51.5476445,Johannes Weiss,198294488,2020-02-15 21:06:56,London,city,"Hackney, London",United Kingdom
33,-70.62832,-33.45977,Ani Miranda Quiroz,198294503,2020-02-20 01:15:20,Via Del Mar,city,"uoa, Chile",Chile
205,-1.61944,54.9881,Ayshayh Middleton,19829461,2020-02-29 15:21:41,Newcastle upon tyne,city,"Newcastle Upon Tyne, England",United Kingdom
16980,-87.6461792,41.90023277,Cortez C. Dorris Official,19829508,2020-03-09 21:17:27,"Chicago, IL",city,"Chicago, IL",United States
38,-75.619213,6.270883,LUCI,198295224,2020-02-15 13:28:52,"Medelln, Colombia",city,"Medelln, Colombia",Colombia
21,-46.5955455,-23.682803,lino,198295311,2020-04-24 00:02:43,so paulo,city,"So Paulo, Brasil",Brasil
119,-99.3574265,19.893234,iVan,19829536,2020-02-15 02:04:40,Soy un technocharro solitario.,city,"Tepeji del Ro de Ocampo, Hidalgo",Mxico
159,-57.60601750000001,-25.300264000000002,Jaime Errazuriz,19829578,2020-03-13 16:43:44,"T: -39.30433,-72.063865",city,"Asuncion, Paraguay",Paraguay
43340,-93.809434,32.461107,Channing Ewing,19829606,2020-02-22 01:14:32,"Shreveport, La",city,"Shreveport, LA",United States
38,-74.814403,10.8392125,Ginette.,198296096,2020-02-20 03:39:37,"Malambo, Colombia",city,"Malambo, Colombia",Colombia
85,12.872442999999999,46.108824,Alessio (malex) Milan,19829625,2020-05-23 18:48:09,Spilimbergo,city,"Spilimbergo, Friuli-Venezia Giulia",Italia
119,-98.23799895,19.28320356,Zachiel V.F.,198296511,2020-02-22 20:58:50,Estado de Mxico,city,"Tlaxcala, Mxico",Mxico
35620,-73.9685415,40.780709,Lonnie Cooper,198296591,2020-04-30 23:14:51,"New York, NY",city,"Manhattan, NY",United States
205,-1.56549,53.801956,lizz_st,19829660,2020-02-15 21:18:15,"Leeds, England",city,"Leeds, England",United Kingdom
186,-5.72435,38.9961195,Meroga Mrg ,198296634,2020-02-20 22:11:43,Villanueva de la Serena,city,"Villanueva de la Serena, Espaa",Espaa
205,-1.216432,54.67899,NicNak,19829678,2020-05-28 22:07:22,hartlepool,city,"Hartlepool, England",United Kingdom
205,-0.17311500000000002,51.5248355,Kate Hall,198296908,2020-04-06 10:08:56,London / Stow on the Wold,city,"Paddington, London",United Kingdom
35620,-73.9685415,40.780709,Dan Shipper,19829693,2020-02-14 03:42:13,"New York, NY",city,"Manhattan, NY",United States
41620,-111.917026,40.765805,Dan Shipper,19829693,2020-03-05 17:14:57,"New York, NY",city,"Salt Lake City, UT",United States
35620,-73.9685415,40.780709,Dan Shipper,19829693,2020-03-09 13:54:07,"New York, NY",city,"Manhattan, NY",United States
205,-0.786868,51.330234,Darren Cullimore,19829710,2020-02-15 12:03:36,"Berkshire, England",city,"Frogmore, South East",United Kingdom
43780,-86.1205405,41.7348625,Greg Feldman,19829723,2020-02-17 03:35:11,Granger Indiana,city,"Granger, IN",United States
41740,-117.022463,32.633767,Hector's Mariscos,198297637,2020-04-09 19:06:33,,city,"Chula Vista, CA",United States
96,48.086822999999995,29.256783000000002,AhMeD,198297757,2020-02-15 18:15:18,kuwait,poi,Wara Hospital,Kuwait
38,-75.560285,5.056934,Ricardo A. Orozco,198298050,2020-03-13 01:47:19,Manizales,city,"Manizales, Colombia",Colombia
31080,-117.982366,34.0023805,Dayramir Gonzalez,198298491,2020-03-19 00:26:01,"New York, NY",city,"Hacienda Heights, CA",United States
21,-60.8232695,-11.369033,kischener_L,198298584,2020-02-20 20:52:11,"Rondnia, Brasil",city,"Espigo d'Oeste, Brasil",Brasil
38,-75.6365725,6.1745115,henry,198298687,2020-02-24 00:03:00,"Sabaneta, Colombia",city,"Itagui, Colombia",Colombia
49,-78.5566815,-0.16657049999999998,Pedro D. Dvla-Jcoe ..,198298863,2020-05-09 01:21:19,"Quito, Ecuador",city,"Quito, Ecuador",Ecuador
205,-0.0601675,51.5476445,Daniel Carrara,19829948,2020-02-19 20:01:59,"London, England",city,"Hackney, London",United Kingdom
151,3.3386055,6.4931125000000005,Comr. Eddy Mena (No more Elections in),198299583,2020-02-15 10:52:50,"Ikoyi, Nigeria",city,"Lagos, Nigeria",Nigeria
169,26.0948065,44.4455455,Comr. EddyMena,198299583,2020-05-01 17:46:09,"Ikoyi, Nigeria",city,"Bucharest, Romania",Romania
151,3.3386055,6.4931125000000005,Comr. EddyMena,198299583,2020-05-21 06:11:22,"Ikoyi, Nigeria",city,"Lagos, Nigeria",Nigeria
205,1.116584,52.3799755,Jo,198299596,2020-02-14 11:59:46,Norwich,city,"Diss, England",United Kingdom
82,75.6915649,16.1774789,Rahul Joshi,19829960,2020-03-25 06:32:26,Bagalkote,city,"Bagalkot, India",India
21,-49.261299,-16.642782500000003,pamonha de doce,198299754,2020-02-15 13:48:29,Espirito Santo,city,"Goinia, Brasil",Brasil
51,-8.645068499999999,54.193422,Josie Clare,198300128,2020-02-14 06:28:38,Usually near the Irish Sea,city,"Sligo, Ireland",Ireland
205,-2.23348,53.4569525,Josie Clare,198300128,2020-02-14 19:58:08,Usually near the Irish Sea,city,"Manchester, England",United Kingdom
33100,-80.09317999999998,26.456147499999997,Fubon Guardians Fan Ryan,198300242,2020-04-17 14:48:57,"Chicago, IL",city,"Delray Beach, FL",United States
16980,-87.732013,41.8335845,Ryan C,198300242,2020-05-14 22:52:55,"Chicago, IL",city,"Chicago, IL",United States
178,28.087214000000003,-26.026867000000003,Slut Dragon Phil,198300358,2020-03-13 14:20:31,"Sandton, South Africa",poi,Waterfall Polo Estate,South Africa
205,-2.282578,56.84438000000001,Andrea Watt,19830055,2020-02-14 16:44:36,"Lives in Inverbervie, Scotland",city,"Inverbervie, Scotland",United Kingdom
186,-3.7035075,40.4777945,Gonzalo Bustos,198300554,2020-02-25 01:36:46,Macondo ,city,"Madrid, Espaa",Espaa
21,-47.796623,-15.776254000000002,Day nado ,198300574,2020-02-14 03:56:40,R.A. XIV ,city,"Braslia, Brasil",Brasil
205,-0.0350195,51.5148305,Benny K. C,19830060,2020-02-21 19:09:27,"Poplar, London",city,"Poplar, London",United Kingdom
35620,-73.9685415,40.780709,Benny K. C,19830060,2020-03-08 15:07:27,"Poplar, London",city,"Manhattan, NY",United States
37980,-75.09039250000002,39.8658035,Benny K. C,19830060,2020-03-12 00:32:14,"New York, NY",city,"Bellmawr, NJ",United States
35620,-73.9685415,40.780709,Benny K. C,19830060,2020-03-17 02:05:53,"New York, NY",city,"Manhattan, NY",United States
205,-0.128048,51.507987,Benny K. C,19830060,2020-05-31 16:42:32,"London, England",poi,Trafalgar Square,United Kingdom
88,135.52583333,34.68722222,Yu,198300707,2020-03-05 12:04:01,,city,  ,
205,-3.176854,51.482063000000004,Lloyd Rees,19830072,2020-02-22 14:31:38,London (From Merthyr Tydfil),poi,Marco Pierre White Steakhouse,United Kingdom
186,-3.7035075,40.4777945,Maria Amor,198300892,2020-02-14 11:37:51,"Madrid, Comunidad de Madrid",city,"Madrid, Espaa",Espaa
27980,-156.500553,20.800779000000002,Maria Amor,198300892,2020-02-26 16:42:59,"Madrid, Comunidad de Madrid",city,"Maalaea, HI",Estados Unidos
71,8.636605500000002,50.1212355,Maria Amor,198300892,2020-03-02 13:32:09,"Madrid, Comunidad de Madrid",city,"Frankfurt am Main, Alemania",Alemania
186,-3.7035075,40.4777945,Maria Amor,198300892,2020-03-03 13:56:16,"Madrid, Comunidad de Madrid",city,"Madrid, Espaa",Espaa
38,-75.3155775,4.4486729999999985,,198300905,2020-04-03 17:36:40,colombia,city,"Ibagu, Colombia",Colombia
38,-73.11209407,7.10951274,SARASI,198301067,2020-04-30 21:43:25,,city,"Bucaramanga, Colombia",Colombia
21,-47.65407,-23.5357175,Alison,198301183,2020-02-18 01:16:17,Araoiaba da  Serra,city,"Araoiaba da Serra, Brasil",Brasil
34980,-86.7074,36.3231,Crdenas,19830135,2020-03-18 14:40:35,"Nashville, TN",city,"Goodlettsville, TN",United States
42660,-122.455344,47.2429605,meagan,198301408,2020-05-08 19:20:32,"Tacoma, Wa",city,"Tacoma, WA",United States
38,-74.24367099999999,4.2622835,Mara GM,198301430,2020-02-15 02:44:25,,city,"Bogot, D.C., Colombia",Colombia
48,-68.785026,18.324709,Mara GM,198301430,2020-03-13 23:45:31,,city,"La Romana, Dominican Republic",Dominican Republic
38,-74.24367099999999,4.2622835,Mara GM,198301430,2020-03-16 20:04:17,,city,"Bogot, D.C., Colombia",Colombia
186,-3.7035075,40.4777945,Ral Martn,198301443,2020-02-19 13:41:03,Fuenlabrada NuoG Bournemouth,city,"Madrid, Espaa",Espaa
21,-48.51511165,-27.59005661,Marina Agibert,198301644,2020-03-15 02:13:38,"Gramado, Rio Grande do Sul",city,"Florianpolis, Brasil",Brasil
205,-0.420879,51.7034025,Andy Vincent,19830173,2020-02-15 07:56:31,"Abbots Langley, East",city,"Abbots Langley, East",United Kingdom
205,-4.142930000000001,50.402215000000005,Clare Edwards,198301740,2020-02-15 01:23:27,"Coventry, UK",city,"Plymouth, England",United Kingdom
21,-43.441578,-22.911421500000003,Juliana Barros,198301748,2020-02-17 10:26:39,Rio de Janeiro,city,"Rio de Janeiro, Brasil",Brasil
186,-6.292299,36.531163,R o ,198301781,2020-02-25 00:37:38,"Cdiz, Andaluca",poi,Parking Canalejas,Espaa
191,6.62783843,46.50088924,R o ,198301781,2020-04-03 19:08:03,,city,"Lausana, Suiza",Suiza
186,-6.21694444,36.49416667,R o ,198301781,2020-04-10 18:42:12,,city,"San Fernando, Espaa",Espaa
24,-79.3872,43.648,Heather,19830204,2020-04-06 18:36:51,"Roncesvalles, baby!",city,"Toronto, Ontario",Canada
31080,-118.4119065,34.0207895,$CAM DADDY,198302146,2020-04-25 21:30:50,Universal,city,"Los Angeles, CA",United States
14460,-71.36345,42.370574,Mark Thirman,19830250,2020-02-20 02:02:37,"Massachusetts, USA",city,"Wayland, MA",United States
31080,-118.822046,34.1430685,Mark Thirman,19830250,2020-02-25 19:08:25,"Massachusetts, USA",city,"Westlake Village, CA",United States
14460,-71.36345,42.370574,Mark Thirman,19830250,2020-03-04 00:05:38,"Massachusetts, USA",city,"Wayland, MA",United States
38,-74.09695,4.7332386,stiven enrique ochoa,198302681,2020-02-15 02:53:34,"Bogot, Colombia suba",city,"Bogot, D.C., Colombia",Colombia
21,-35.977807,-7.275212,gabriela ribeiro,198302829,2020-04-03 01:31:35,campina grande,city,"Campina Grande, Brasil",Brasil
205,-1.253975,53.7119585,Kerry,19830294,2020-02-23 19:24:30,,city,"Knottingley, England",United Kingdom
12540,-119.050497,35.367577000000004,thiccgothdad69,198303154,2020-02-22 18:48:43,"Bakersfield, California",poi,Panera Bread,United States
41860,-122.0664725,37.715782,thiccgothdad69,198303154,2020-02-23 07:30:58,"Bakersfield, California",city,"Castro Valley, CA",United States
12540,-119.025163,35.3469015,thiccgothdad69,198303154,2020-02-25 08:09:06,"Bakersfield, California",city,"Bakersfield, CA",United States
23420,-119.7824645,36.786042,baddiesanders,198303154,2020-03-06 04:32:14,"Bakersfield, California",city,"Fresno, CA",United States
12540,-119.025163,35.3469015,baddiesanders,198303154,2020-03-06 20:29:18,"Bakersfield, California",city,"Bakersfield, CA",United States
47300,-119.02913249999999,36.074775,baddiesanders,198303154,2020-04-16 03:14:19,"Bakersfield, California",city,"Porterville, CA",United States
12540,-119.025163,35.3469015,baddiesanders,198303154,2020-04-16 21:17:28,"Bakersfield, California",city,"Bakersfield, CA",United States
42200,-119.5123185,34.397580000000005,baddiesanders,198303154,2020-04-24 02:12:18,"Bakersfield, California",city,"Carpinteria, CA",United States
12540,-119.025163,35.3469015,baddiesanders,198303154,2020-04-25 20:49:51,"Bakersfield, California",city,"Bakersfield, CA",United States
119,-103.35,20.6667,alexandro barragan,198303155,2020-02-14 09:45:28,tuxpan jalisco,city,"Guadalajara, Jalisco",Mxico
205,-0.8421635000000001,51.274357,melanie wilson,19830320,2020-03-01 22:43:05,fleet hampshire,city,"Fleet, England",United Kingdom
205,-5.0282909999999985,54.856477500000004,Foxy ,198303475,2020-04-15 11:53:08,"Stranraer, Scotland",city,"Colfin, Scotland",United Kingdom
38,-75.5751,6.2359,Kathe Gmez,198303496,2020-04-11 18:32:38,Colombia,city,"Medelln, Colombia",Colombia
48,-70.0087115,18.4680185,GILBERTO SARITA,198303624,2020-02-21 01:38:39,"Santo Domingo, R.D.",city,"Santo Domingo Oeste, Dominican Republic",Dominican Republic
33100,-80.3957495,25.535172000000006,Jasmine Dolford,198303943,2020-06-06 06:40:53,,city,"Princeton, FL",United States
173,30.328698,59.934148,Pavel Vagapov,19830399,2020-02-14 09:50:47,"Saint-Petersburg, Russia",city,"-, ",
24,-82.989693,42.337357,Erica ,198304140,2020-06-05 20:44:42,"Detroit, MI",poi,Belle Isle Park,United States
19820,-83.099288,42.3527865,Erica ,198304140,2020-06-08 17:07:26,"Detroit, MI",city,"Detroit, MI",United States
51,-7.778553,54.798038,adrian taaffe,19830415,2020-03-06 19:39:36,"129 West 81st Street, Apt 5a",poi,Finn Park,Ireland
205,0.1381825,51.509195399999996,Gareth Hardy,19830426,2020-02-25 13:46:37,"Birmingham, England",city,"Crayford, London",United Kingdom
171,121.0627355,14.683012,gil morales,198304636,2020-02-15 20:04:22,visayas ave qc ,city,"Quezon City, National Capital Region",Republic of the Philippines
21,-43.299576,-19.6039455,Joyce,198304734,2020-06-01 23:35:20,,city,"Itabira, Brasil",Brazil
205,-0.15277778,50.82777778,Kelly Smith,19830490,2020-04-03 14:17:48,"Brighton, England",city,"Brighton, England",United Kingdom
222,104.864174,-5.2839505,twjspry,198304924,2020-02-27 08:08:12,"Bandar Lampung, Lampung",city,"Pagelaran, Indonesia",Indonesia
49,-80.091193,-2.512995,Humana Visin,198304944,2020-02-21 20:15:32,Guayaquil,city,"Guayaquil, Ecuador",Ecuador
41860,-122.2721,37.8029,Lexi Adsit,198305026,2020-04-22 14:31:25,"Bay Area, CA",city,"Oakland, CA",United States
21,-46.3486,-23.4864,Israel Carvalho,198305059,2020-06-01 10:40:13,Itaquaquecetuba,city,"Itaquaquecetuba, Brasil",Brasil
26900,-86.1429225,39.7795625,NicoleSheree,198305175,2020-05-30 23:56:41,,city,"Indianapolis, IN",United States
205,-0.0929105,51.5144805,Ash Watkins,198305216,2020-02-24 08:30:09,London,city,"City of London, London",United Kingdom
21,-43.299576,-19.6039455,Tibones,198305363,2020-02-15 01:59:51,Brazil,city,"Itabira, Brasil",Brasil
21,-43.20867135,-22.7967801,Carolina Sampaio,198305457,2020-04-23 23:18:57,Rio de Janeiro,city,"Rio de Janeiro, Brazil",Brazil
120,102.3623425,3.414675,~Muhammad Syarafi~,198305526,2020-02-14 00:00:43,"Temerloh, Pahang",city,"Perak, Pahang",Malaysia
21,-35.977807,-7.275212,talo Carvalho,198305562,2020-02-16 12:20:05,"Campina Grande, Brasil",city,"Campina Grande, Brasil",Brazil
19100,-96.785531,32.604786000000004,El_Roycenatico,198305694,2020-02-14 05:14:51,Somewhere ,city,"Lancaster, TX",United States
45300,-82.44858550000002,28.131729999999997,Dr. Kimo ,198305999,2020-04-30 01:45:25,"Cheval, FL",city,"Lutz, FL",United States
21,-43.441578,-22.911421500000003,BRUNO LOPES,198306124,2020-04-19 16:06:39,"Rio de Janeiro, Brasil",city,"Rio de Janeiro, Brazil",Brazil
38,-74.151513,4.703489,rooselvet perez cast,198306446,2020-02-22 03:49:17,colombia,poi,CATAM - Comando Areo de Transporte Militar,Colombia
41940,-121.8865,37.3376,Stella G.,198306584,2020-02-17 03:43:03,"San Jose, CA",city,"San Jose, CA",United States
44700,-121.22083333,37.80277778,Stella G.,198306584,2020-06-04 10:54:28,"San Jose, CA",city,"Manteca, CA",United States
37980,-75.295,40.00139,Terra Mone',198306787,2020-03-14 23:50:33,"Philadelphia, PA",city,"Ardmore, PA",United States
119,-100.9958282,25.38792117,Gera Figueroa,198306829,2020-02-23 06:32:29,"Saltillo, Coahuila de Zaragoza",city,"Saltillo, Coahuila de Zaragoza",Mxico
14460,-71.0887125,42.3136695,Robyn Parets,198306856,2020-02-16 21:38:18,"Boston, MA",city,"Boston, MA",United States
12580,-76.63412500000003,39.185639,L,198307477,2020-02-14 12:07:33,M dot D (41O),city,"Ferndale, MD",United States
205,-1.2334334999999998,51.75428599999999,Kathryn White,19830763,2020-02-15 16:37:24,Oxford/ Gloucestershire,city,"Oxford, England",United Kingdom
35620,-73.9487755,40.655138,Venus Tong,198307832,2020-02-14 12:19:36,nyc,city,"Brooklyn, NY",United States
21,-49.261299,-16.642782500000003,Sandro,198307839,2020-02-26 22:08:17,Goinia | GO | Brasil ,city,"Goinia, Brasil",Brasil
35620,-73.9685415,40.780709,Chelsea Pech,198308066,2020-05-26 02:32:44,"New York, NY",city,"Manhattan, NY",United States
21,-44.10358965,-22.52066412,TF,198308084,2020-05-30 13:05:13,Valena/Volta Redonda - RJ,city,"Volta Redonda, Brasil",Brasil
20460,-96.423117,33.9387735,Lefty,198308139,2020-02-17 04:43:04,"Austin, TX /  DFW, TX / CA",city,"Calera, OK",United States
12420,-97.754724,30.3233455,Lefty,198308139,2020-02-24 05:10:49,"Austin, TX/ Los Angeles, CA",city,"Austin, TX",United States
41860,-122.43597849999999,37.7706565,Bee,198308209,2020-04-10 20:25:35,"San Francisco, California",city,"San Francisco, CA",United States
8,-58.21065187,-34.76244037, Lauti ,198308250,2020-04-04 00:45:34,"Berazategui, Argentina",city,"Berazategui, Argentina",Argentina
47900,-77.10199899999999,38.8808445,Katt DC,19830826,2020-03-18 19:42:38,"Arlington, VA (Washington, DC)",city,"Arlington, VA",United States
-9999,-61.8117305,44.321234,Al Lodge,198308284,2020-04-20 18:47:38,,city,"Halifax, Nova Scotia",Canada
33460,-92.604582,44.865365000000004,Stephanie Trinidad,19830840,2020-02-16 00:48:47,"Bronx, NY",city,"River Falls, WI",United States
34820,-78.878866,33.703390500000005,Mikayla Moskov,19830845,2020-02-17 03:32:41,"Myrtle Beach, SC",city,"Myrtle Beach, SC",United States
11700,-82.975077,35.524485999999996,Mikayla Moskov,19830845,2020-03-07 01:32:45,"Myrtle Beach, SC",poi,Lake Junaluska,United States
34820,-78.878866,33.703390500000005,Mikayla Moskov,19830845,2020-03-08 20:31:47,"Myrtle Beach, SC",city,"Myrtle Beach, SC",United States
205,0.20499,51.134983,Charlotte,19830850,2020-03-24 07:38:09,"Royal Tunbridge Wells, England",poi,Langton Green Primary School,United Kingdom
119,-99.2115105,19.4299345,andres barrenechea,198308628,2020-03-08 03:01:44,mexico,city,"Miguel Hidalgo, Distrito Federal",Mxico
21,-43.441578,-22.911421500000003,Baviera ,198308644,2020-02-14 01:41:19,"Rio de Janeiro, Brasil",city,"Rio de Janeiro, Brasil",Brasil
45,12.487361,55.837542500000005,Vitria Klein,198308803,2020-02-18 07:49:14,Brasil ,city,"Rudersdal, Danmark",Dinamarca
21,-51.425147,-29.6123785,Vitria Klein,198308803,2020-03-20 17:16:45,Brasil ,city,"Pareci Novo, Brasil",Brasil
200,28.978144,41.007932000000004,Trk ncGreYWoLF,198308834,2020-05-29 20:25:14,stanbul,city,"stanbul, Trkiye",Trkiye
186,2.1412275000000003,41.392657,Angela Barbosa,198308895,2020-03-02 20:39:33,Barcelona ,city,"Barcelona, Espaa",Espaa
16300,-91.6828545,41.976528,Mark MacDonald,19830961,2020-02-16 12:27:26,"Jacksonville, FL",city,"Cedar Rapids, IA",United States
27260,-81.404855,30.27988,Mark MacDonald,19830961,2020-02-25 00:46:13,"Jacksonville, FL",city,"Jacksonville Beach, FL",United States
12060,-84.4703885,33.6312775,Mark MacDonald,19830961,2020-02-25 11:33:04,"Jacksonville, FL",city,"College Park, GA",United States
16740,-80.93981803,35.22308422,Mark MacDonald,19830961,2020-02-28 16:27:22,"Jacksonville, FL",city,"Charlotte, NC",United States
12060,-84.45762602,33.62657147,Mark MacDonald,19830961,2020-02-29 12:55:50,"Jacksonville, FL",city,"College Park, GA",United States
27260,-81.466862,30.265045,Mark MacDonald,19830961,2020-03-02 02:58:40,"Jacksonville, FL",poi,Chets Creek Church,United States
16860,-85.2673,35.0455,Mark MacDonald,19830961,2020-04-01 12:18:06,"Jacksonville, FL",city,"Chattanooga, TN",United States
27260,-81.55824709,30.15742941,Mark MacDonald,19830961,2020-04-03 10:37:19,"Jacksonville, FL",neighborhood,"Mandarin, FL",United States
205,-1.9522794999999997,50.7283545,Chris Welch ,19831000,2020-02-16 23:38:59,"Dorset, UK",city,"Poole, England",United Kingdom
186,-6.5823920000000005,38.379114,Luis Rdenas ||*||,198310466,2020-02-16 20:58:15,,city,"Burguillos del Cerro, Espaa",Espaa
31080,-118.243,34.0522,  ,198310620,2020-02-25 17:51:04,"Dream Street, USA ",city,"Los Angeles, CA",United States
15540,-73.2232,44.4847,   ,198310620,2020-04-08 18:25:37,"Dream Street, USA ",city,"Burlington, VT",United States
205,-2.014222,53.4409725,Jill Baron,19831097,2020-03-19 19:26:17,Manchesterish,city,"Broadbottom, England",United Kingdom
151,5.641287999999999,6.3349545,Eric Igbinosun,198311094,2020-03-06 13:38:02,"Abuja, Nigeria",city,"Benin-City, Nigeria",Nigeria
21,-44.3025505,-2.6292855,B.M,198311112,2020-02-14 13:23:27,So Lus,city,"So Lus, Brasil",Brasil
65,2.347003,48.8588335,Steven Macari,19831119,2020-02-28 20:42:08,France,city,"Paris, France",France
205,-1.337269,53.48955700000001,Shunter65,198311192,2020-02-21 12:17:43,"England, United Kingdom",city,"Brampton, England",United Kingdom
21,-48.465311,-27.6214625,Pietro Korosue,198311281,2020-02-20 19:53:57,,neighborhood,"Lagoa da Conceio, Florianpolis",Brasil
13380,-122.59,48.8489,Rebecca Asbury,198311446,2020-02-19 20:17:39,"Ferndale, Wa",city,"Ferndale, WA",United States
175,50.2057079,26.3033187,Thamer..,198311572,2020-02-28 17:39:17,Boston  / Qatif ,city,"Al Khobar, Kingdom of Saudi Arabia",Kingdom of Saudi Arabia
211,-66.8455957,10.61591076,Eleazar Ortiz,198311647,2020-04-06 03:00:55,,city,"Caraballeda, Venezuela",Venezuela
33100,-80.26295,25.74924,Nalsen,198311832,2020-04-17 03:09:13,,city,"Coral Gables, FL",Estados Unidos
205,-1.449612,53.3831645,Soledad Muniz,19831184,2020-03-11 22:21:58,"London, UK",city,"Sheffield, England",United Kingdom
24,-77.1563875,44.1880315,LiL Crow Cabin n Crow Nest Bunkie,198311893,2020-05-09 16:11:59,Tyendinaga Mohawk Territory,city,"Tyendinaga Mohawk Territory, Ontario",Canada
160,-76.89075,-12.040600999999999,Lucia Segura,198311898,2020-02-18 23:08:37,Lima - Peru,city,"Ate, Peru",Peru
186,-1.1177955,37.916841,lampara871,198312136,2020-05-14 09:39:37,,city,"Murcia, Espaa",Espaa
44,33.902581,35.184708,Roman Jaki,198312276,2020-02-20 17:58:12,"Ljubljana, Slovenija",poi,Salamis Antik Amfitiyatro,Cyprus
182,14.580579,46.09496,Roman Jaki,198312276,2020-03-01 08:27:01,"Ljubljana, Slovenija",poi,Podgorica,Republic of Slovenia
79,15.156989000000001,43.891744,Roman Jaki,198312276,2020-05-24 15:30:33,"Ljubljana, Slovenija",poi,Nature Park Telaica,Republic of Croatia
49,-80.091193,-2.512995,Karla Gangotena,198312614,2020-03-08 00:18:27,,city,"Guayaquil, Ecuador",Ecuador
159,-57.60601750000001,-25.300264000000002,Fernando,198312761,2020-02-21 13:45:12,"Asuncion, Paraguay",city,"Asuncion, Paraguay",Paraguay
35620,-73.8494415,40.8503475,Joel,198312862,2020-02-24 06:40:53,NYC,city,"Bronx, NY",United States
88,139.7091805,35.701657,Denis Cadogan,19831308,2020-02-27 10:42:48,"Tokyo, Japan",city,"Shinjuku-ku, Tokyo",Japan
40900,-121.50545,38.59479,"Perry, Grinding Station.",198313082,2020-03-12 22:13:34,SF Bay Area,poi,Nena's Mexican Cuisine,United States
82,77.095086,28.638489500000002,Deepak soni,198313088,2020-04-06 03:33:39,New Delhi ,city,"New Delhi, India",India
8,-72.27614399999999,-50.3428605,Romanella Jabones.,198313106,2020-02-26 17:07:35,"El Calafate, Santa Cruz. ",city,"El Calafate, Argentina",Argentina
33,-70.63538700000002,-33.405859,Paola Sanson,198313144,2020-02-28 01:37:07,,city,"Recoleta, Chile",Chile
24,-79.27256949999999,43.629311,Luisa,19831317,2020-02-25 01:59:41,Toronto,city,"Toronto, Ontario",Canada
15380,-78.86780999999999,42.90083,Nathan Mieth,198313235,2020-03-16 15:20:38,Buffalo New York,city,"Buffalo, NY",United States
119,-101.2359675,25.921345,blur ,198313540,2020-05-18 15:22:46,,city,"Ramos Arizpe, Coahuila de Zaragoza",Mxico
9,145.0531355,-37.9725665,Daniel  Spiteri,198313890,2020-04-24 23:01:27,,city,"Melbourne, Victoria",Australia
24,-79.27256949999999,43.629311,mon,198314039,2020-02-14 13:03:54,toronto,city,"Toronto, Ontario",Canada
119,-99.15234,19.328383,ricardo rios ramirez,198314233,2020-05-17 14:16:01,Mexico,city,"Coyoacn, Distrito Federal",Mxico
205,-1.90920623,52.47921746,Here Come the Girls,19831442,2020-02-18 20:25:30,West Midlands,city,"Birmingham, England",United Kingdom
21,-49.0571945,-25.647161999999998,  Csar ,198314584,2020-02-14 14:51:16,"So Jos dos Pinhais, Brasil",city,"So Jos dos Pinhais, Brasil",Brasil
119,-99.06009250000001,19.723233,Elias H. Cruz ,198315096,2020-05-22 16:53:03,Mxico DF,city,"Nextlalpan, Mxico",Mxico
45220,-84.278036,30.435931,Bryan Desloge,19831510,2020-02-22 22:07:48,"Tallahassee, Florida ",poi,Cascades Park - Capital City Amphitheater,United States
16740,-80.8467855,35.209059,Bryan Desloge,19831510,2020-02-28 19:23:05,"Tallahassee, Florida ",city,"Charlotte, NC",United States
47900,-77.0143985,38.898603,Bryan Desloge,19831510,2020-02-29 02:26:27,"Tallahassee, Florida ",city,"Washington, DC",United States
45220,-84.26617399999999,30.4762155,Bryan Desloge,19831510,2020-03-05 04:09:06,"Tallahassee, Florida ",city,"Tallahassee, FL",United States
35620,-73.9685415,40.780709,John King,19831530,2020-03-10 03:43:29,,city,"Manhattan, NY",United States
33460,-93.01814499999999,45.06747900000001,John King,19831530,2020-03-28 07:08:13,,city,"White Bear Lake, MN",United States
88,132.6350945,33.412702499999995,,198315800,2020-03-03 09:38:44,,city, ,
31080,-118.66260600000001,34.13726,Ciara Humphreys,19831615,2020-03-27 22:14:03,Ireland,city,"Calabasas, CA",United States
191,8.5367615,47.37746900000001,Roberto Lupi,19831669,2020-03-14 06:28:18,Switzerland,city,"Zurigo, Svizzera",Svizzera
21,-43.92141243,-19.92393333,anah herrera,198316748,2020-02-25 22:04:47,,city,"Belo Horizonte, Brasil",Brasil
39580,-78.7948597,35.8763643,Jason Hare,198317095,2020-03-01 18:47:52,"Wake Forest, NC",city,"Raleigh, NC",United States
24660,-79.7718287,36.0778493,Jason Hare,198317095,2020-03-09 13:43:53,"Wake Forest, NC",city,"Greensboro, NC",United States
39580,-78.510262,35.906773,Jason Hare,198317095,2020-04-13 20:28:32,"Wake Forest, NC",poi,Stonegate,United States
29460,-81.63166667,28.13333333,"Joseph Joseph, MBA",19831727,2020-02-14 02:34:04,"Fleming Island, FL",city,"Haines City, FL",United States
21,-48.42542034,-27.57468326,Jorge Lrio Junior,198317342,2020-02-16 18:42:16,Porto Alegre/RS,city,"Florianpolis, Brasil",Brasil
8,-60.778806,-31.6753875,#Adelina #MeGusta,198317450,2020-02-14 04:06:01,En Santa fe- Argentina,city,"Santo Tom, Argentina",Argentina
21,-51.62,-24.67,Jaqueline Galvo,198317978,2020-04-25 16:58:43,Paran,city,"Pitanga, Brasil",Brasil
35620,-73.8311875,40.6708795,Jordan Carmon,19831800,2020-02-24 04:02:14,"New York, USA",city,"Queens, NY",United States
205,1.338054,51.965817,Andy Proctor,198318054,2020-02-17 08:09:21,Ipswich,city,"Felixstowe, England",United Kingdom
205,-0.4675695,51.7522795,Lauren Fitzgerald,198318449,2020-02-15 23:34:10,Hertfordshire,city,"Hemel Hempstead, East",United Kingdom
205,-0.1094,51.5141,Phillip Thomas,198318751,2020-06-09 14:41:13,England,city,"City of London, London",United Kingdom
40900,-121.28137350000002,38.875304,Angelica Balderas,19831887,2020-02-14 03:46:04,Lincoln CA,city,"Lincoln, CA",United States
33700,-121.083574,37.71110450000001,Angelica Balderas,19831887,2020-02-19 02:53:42,Lincoln CA,city,"Salida, CA",United States
40900,-121.28137350000002,38.875304,Angelica Balderas,19831887,2020-02-20 04:19:25,Lincoln CA,city,"Lincoln, CA",United States
31080,-118.32514499999999,34.18216,Angelica Balderas,19831887,2020-03-05 04:27:18,Lincoln CA,city,"Burbank, CA",United States
40900,-121.469664,38.561721999999996,Angelica Balderas,19831887,2020-03-05 20:16:45,Lincoln CA,city,"Sacramento, CA",United States
44700,-121.3004255,37.980826,Angelica Balderas,19831887,2020-03-11 22:13:56,Lincoln CA,city,"Stockton, CA",United States
40900,-121.469664,38.561721999999996,Angelica Balderas,19831887,2020-03-11 23:34:32,Lincoln CA,city,"Sacramento, CA",United States
44700,-121.3004255,37.980826,Angelica Balderas,19831887,2020-04-23 22:40:46,Lincoln CA,city,"Stockton, CA",United States
40900,-121.28137350000002,38.875304,Angelica Balderas,19831887,2020-04-25 21:17:32,Lincoln CA,city,"Lincoln, CA",United States
12060,-84.373762,33.786519,A.VS,198318896,2020-06-07 23:14:53,"Atlanta, GA",city,"Atlanta, GA",United States
205,-2.4837505,53.728524,Mohamed-Yusuf Lorgat,198319107,2020-02-28 22:01:15,"Lancashire, UK",city,"Blackburn, England",United Kingdom
175,46.685077,24.7219435,M.m.s,198319152,2020-02-29 05:13:23,,city,",   ",  
65,-1.5399325000000001,46.235740500000006,Nathalie COLLETTE,19831925,2020-02-24 00:21:53,FRANCE,city,"Saint-Clment-des-Baleines, France",France
85,8.827821,45.672442499999995,Nathalie COLLETTE,19831925,2020-04-20 21:34:35,FRANCE,city,"Cassano Magnago, Lombardia",Italie
65,3.0219205,49.2862935,Nathalie COLLETTE,19831925,2020-04-24 14:21:21,FRANCE,city,"Haramont, France",France
21,-43.959822499999994,-19.918692,Marcela,198319325,2020-02-26 22:15:16,"Belo Horizonte, Brasil",city,"Belo Horizonte, Brasil",Brasil
119,-100.2935915,25.6417185,Jos Luis Manrique,198319559,2020-02-21 01:50:03,"Monterrey, Nuevo Len",city,"Monterrey, Nuevo Len",Mxico
119,-99.172326,19.414973,jav y ya,198319750,2020-03-21 00:38:11,"Estado de Mxico, Nezahualcyotl",poi,Rococ Caf Espresso,Mxico
119,-98.2613415,19.119304500000002,juan carlos bentez,198319757,2020-02-25 18:30:30,"puebla, mexico",city,"Cuautlancingo, Puebla",Mxico
119,-97.40126801,18.46290779,Jadid Gomez Martinez,198320005,2020-03-17 20:40:51,"Tehuacn, Puebla",city,"Tehuacn, Puebla",Mxico
119,-97.895908,20.329626,-Jonatan-,198320491,2020-05-20 14:37:10,,city,"Xicotepec, Puebla",Mxico
21,-46.815946999999994,-24.095754,Roseneri,198320507,2020-02-20 19:21:21,,city,"Itanham, Brasil",Brasil
205,-1.9942065,52.9872045,Dan Marson,19832100,2020-02-14 14:01:00,"Cheadle, Staffordshire",city,"Cheadle, England",United Kingdom
160,-77.089605,-12.079635499999998,Luis Snchez S.,198321055,2020-02-14 05:35:47,"Lima, Per",city,"San Miguel, Peru",Peru
8,-64.1980255,-31.4154565,b ,198321484,2020-03-14 16:19:00,"Crdoba, Argentina",city,"Crdoba, Argentina",Argentina
21340,-106.4174305,31.793368,SillehMermaid,198321539,2020-02-14 15:47:24,"El Paso, TX",city,"El Paso, TX",United States
205,-0.26942619,51.65766376,Upside UK,198321751,2020-05-17 11:29:35,London,city,"Borehamwood, East",United Kingdom
33,-70.60265749999998,-33.454414,Soy anticomunista.,198321965,2020-04-03 11:54:20,,city,"uoa, Chile",Chile
24,-80.4661495,43.566471500000006,O  p SWH,198322119,2020-02-16 01:55:23,"Waterloo, On. Canada",city,"Woolwich, Ontario",Canada
21,-42.7812,-5.0947,Talita Sousa,198322149,2020-04-05 23:27:31,Teresina,city,"Teresina, Brasil",Brasil
8,-57.5814305,-38.01158750000001,Jenux,198322413,2020-02-17 06:49:16,Mardelplata,city,"Mar del Plata, Argentina",Argentina
205,-1.54432535,53.13474032,Jacky Swift,19832297,2020-04-08 22:05:45,,city,"Matlock, England",United Kingdom
119,-102.957134,20.050489000000002,Alex ,198323228,2020-02-26 00:34:46,"Guadalajara, Jalisco",city,"Marcos Castellanos, Michoacn de Ocampo",Mxico
16740,-80.84333333,35.22694444,Corey Stitch Witch Queen of Depression,19832323,2020-02-20 22:38:28,"T: 35.335411,-80.778072",city,"Charlotte, NC",United States
205,-4.4251495,55.910873,joanne macdonald,19832376,2020-02-15 02:24:31,"Clydebank, Scotland",city,"Clydebank, Scotland",United Kingdom
8,-65.2231375,-26.844098499999998,rochy ,198324116,2020-03-22 00:52:25,"Tucumn, Argentina",city,"San Miguel de Tucumn, Argentina",Argentina
41860,-122.43597849999999,37.7706565,Cory Weinberg,198324177,2020-03-25 15:21:45,San Francisco,city,"San Francisco, CA",United States
9,145.0531355,-37.9725665,Grant Hardy,198324295,2020-02-14 10:09:13,Melbourne,city,"Melbourne, Victoria",Australia
205,0.127886,51.554019,caroline powell,19832446,2020-03-26 10:59:50,,city,"Barking, London",United Kingdom
9,145.0531355,-37.9725665,gurdip,19832452,2020-04-12 12:14:19,,city,"Melbourne, Victoria",Australia
24,-73.723025,45.5578305,Jean Enorc Osne,198324611,2020-05-13 14:57:49,"Montral, Qubec",city,"Montral, Qubec",Canada
45300,-82.7011465,28.1095625,Cindy Dick,19832482,2020-03-16 02:12:43,https://cynthiadick.wordpress.,city,"East Lake, FL",United States
26900,-85.9500505,39.96376100000001,Julie,198324906,2020-03-18 18:40:21,All over North America,city,"Fishers, IN",Etats-Unis
24,-81.958201,42.163991,Julie,198324906,2020-03-23 14:01:38,All over North America,city,"Chatham-Kent, Ontario",Canada
40140,-117.39761599999999,33.935821999999995,Julie,198324906,2020-03-31 12:50:22,All over North America,city,"Riverside, CA",Etats-Unis
20940,-115.5480365,32.774584499999996,Julie,198324906,2020-03-31 21:16:12,All over North America,city,"El Centro, CA",Etats-Unis
23060,-85.026794,41.057716,Julie,198324906,2020-04-02 22:42:41,All over North America,city,"New Haven, IN",Etats-Unis
24,-73.70958900000001,45.60556800000001,Julie,198324906,2020-04-03 15:20:39,All over North America,city,"Laval, Qubec",Canada
42100,-121.766255,36.917977,Julie,198324906,2020-04-07 21:30:00,All over North America,city,"Watsonville, CA",Etats-Unis
24,-73.70958900000001,45.60556800000001,Julie,198324906,2020-04-11 13:28:08,All over North America,city,"Laval, Qubec",Canada
12540,-119.025163,35.3469015,Julie,198324906,2020-06-11 14:50:29,All over North America,city,"Bakersfield, CA",Etats-Unis
21,-51.423472499999995,-23.577786,Luana P. Vida Leal,198325131,2020-03-19 01:34:36,"Apucarana, PR",city,"Apucarana, Brasil",Brasil
31080,-118.399639,34.082496500000005,Adam Gelvan,19832515,2020-02-14 07:37:55,"Los Angeles, CA",city,"Beverly Hills, CA",United States
42200,-120.13800400000001,34.595853999999996,Adam Gelvan,19832515,2020-02-28 22:29:39,"Los Angeles, CA",city,"Solvang, CA",United States
31080,-118.399639,34.082496500000005,Adam Gelvan,19832515,2020-03-03 03:13:38,"Los Angeles, CA",city,"Beverly Hills, CA",United States
88,136.94735867,35.18596472,,198325296,2020-02-23 07:48:28,,city,  ,
21,-49.30709,-16.707520000000002,Giovanni Baroni,19832534,2020-03-05 22:33:49,Goinia-Gois-Brasil,city,"Goinia, Brasil",Brasil
38,-75.619213,6.270883,mary patio,198325416,2020-02-20 12:39:58,colombia,city,"Medelln, Colombia",Colombia
35620,-74.0155,40.7881,Anis Attia,198325530,2020-03-23 17:45:46,,city,"West New York, NJ",United States
33100,-80.2454,25.941,Magnificent Beats,198325712,2020-06-10 19:56:15,"Miami,Fl. play beats now",city,"Carol City, FL",United States
46520,-157.799589,21.3199435,Cassadee Pope,19832580,2020-02-15 01:09:31,"Nashville, TN",city,"Honolulu, HI",United States
34980,-86.791549,36.200008000000004,Cassadee Pope,19832580,2020-02-19 03:22:39,"Nashville, TN",city,"Nashville, TN",United States
119,-87.439468,20.193098000000003,Ferpanda,198325923,2020-02-16 18:12:05,,poi,Tulum,Mxico
222,107.678881,-6.921403,NEDIRA ,198325927,2020-02-15 07:32:01,,city,"Arcamanik, Indonesia",Indonesia
42860,-83.0643,34.7673,Donna Hudson,19832594,2020-02-23 19:54:19,"Greenville, SC",city,"Walhalla, SC",United States
205,-5.6895615,54.593220499999994,Jonathan) AKA The Sloan Ranger ,19832619,2020-02-15 17:53:12,Co down NI ,city,"Newtownards, Northern Ireland",United Kingdom
55,-89.3158035,13.626873499999999,Dr. Pedro HG Interiano,198326333,2020-02-14 19:35:49,El Salvador,city,"Antiguo Cuscatlan, El Salvador",El Salvador
38,-74.24367099999999,4.2622835,Felipe Galeano,198326458,2020-03-26 21:21:48,"Bogota, Colombia",city,"Bogot, D.C., Colombia",Colombia
21,-46.225711,-23.9548165,Desso,198326704,2020-02-22 00:57:44,"Guaruj, So Paulo",city,"Guaruj, Brasil",Brasil
46220,-87.539682,33.202954,Paul T. Graham,19832680,2020-03-01 01:41:50,"Mountain Brook, AL",poi,Coleman Coliseum,United States
21,-48.6231815,-27.0077815,Ca.,198326822,2020-02-14 02:38:59,"Balnerio Cambori, Brasil",city,"Balnerio Cambori, Brasil",Brasil
55,-88.16662600000002,13.454134,alx crz,198327531,2020-02-25 02:12:26,,city,"Carolina, El Salvador",El Salvador
33,-70.6667,-33.45,Kirios,198327692,2020-02-27 14:28:56,"Santiago, Chile",city,"Santiago, Chile",Chile
24700,-85.48876899999999,39.3372995,Ben Wilkerson,198327801,2020-02-17 15:32:01,"Greensburg, IN",city,"Greensburg, IN",United States
205,1.388754,52.820964,Rich Brown,19832794,2020-04-01 21:35:30,"Norwich, UK",city,"North Walsham, England",United Kingdom
21,-46.73234174,-23.61011974,Kembo Ganem,198328153,2020-02-22 03:41:20,sp,city,"Sao Paulo, Brazil",Brazil
21,-51.5856695,-27.141576,Srgio Mayer Dias,198328187,2020-02-23 19:35:59,Rio do Sul - SC,city,"Joaaba, Brasil",Brasil
95,126.85346299999999,37.518966,Lucas,198328264,2020-03-31 09:35:22,"Seoul, Korea",city, ,
119,-89.62361100000003,20.941035,Lesbiana sin memoria,198328536,2020-03-16 23:00:19,Dnde mand el lesbianismo!!,city,"Mrida, Yucatn",Mxico
205,-3.9335910000000003,56.107648,Brian James Russell,19832855,2020-03-30 15:47:38,Glasgow!,city,"Stirling, Scotland",United Kingdom
205,-0.130712,51.594064,Stewart Grint,19832878,2020-03-09 10:32:08,North London,poi,Alexandra Palace,United Kingdom
175,46.685077,24.7219435,Abu Ali Aljarif,198328860,2020-02-22 19:57:19,,city,"Riyadh, Kingdom of Saudi Arabia",Kingdom of Saudi Arabia
33,-70.62890469,-33.43251023,German Valenzuela,198329192,2020-02-15 12:12:30,Santiago,city,"Providencia, Chile",Chile
12060,-84.3262175,33.820161,Beth Ray,198329472,2020-02-24 13:44:26,,city,"North Druid Hills, GA",United States
159,-57.60601750000001,-25.300264000000002,Alejandro #29592,198329506,2020-02-27 12:58:24,Rockinin the free world,city,"Asuncion, Paraguay",Paraguay
18820,-86.91162800000002,40.04755,Dan Rogers,198329603,2020-02-28 18:23:19,wabash college,city,"Crawfordsville, IN",United States
31080,-118.2445,34.0564,shoeloungela,198329904,2020-06-06 05:13:04,"1251 Maple Ave.Los Angeles, CA",city,"Los Angeles, CA",United States
8,-58.37395053,-34.78898022,Cintia Flores,198329927,2020-02-18 01:45:19,Bs. As.,city,"Almirante Brown, Argentina",Argentina
205,-4.0662275,55.778186,SHAUN TALLAMY,19833001,2020-06-09 22:29:41,LaNaRkShIrE,city,"Hamilton, Scotland",United Kingdom
21,-46.407732,-23.8593995,humilhada,198330089,2020-04-03 02:25:04,,city,"Cubato, Brasil",Brasil
160,-77.08517950000001,-11.988273,Roberto Tuesta,19833084,2020-05-18 15:19:40,LIMA PERU,city,"San Martin de Porres, Peru",Peru
33,-70.5672895,-33.3801245,BAU Accesibilidad,198330921,2020-04-29 19:35:24,"Santiago, Chile.",city,"Vitacura, Chile",Chile
41860,-122.04481399999999,37.592159,zichard runiga,198331107,2020-02-14 01:28:06,,city,"Union City, CA",United States
29820,-115.12884650000001,36.1364125,zichard runiga,198331107,2020-03-08 20:08:24,,city,"Winchester, NV",United States
9,150.91585072,-33.72780664,Brendan Spencer,198331386,2020-04-10 08:14:30,,city,"Sydney, New South Wales",Australia
205,-2.21187,52.194918,Scienceman,19833147,2020-03-18 21:18:59,,city,"Worcester, England",United Kingdom
8,-58.442643,-34.604315,Henry Herrera,198331590,2020-04-05 15:27:23,"Buenos Aires, Argentina",city,"Ciudad Autnoma de Buenos Aires, Argentina",Argentina
19740,-105.00971000000001,39.7119799,B.A.N.G,198331717,2020-05-28 16:03:48,FinagoPark ,city,"Denver, CO",United States
8,-58.64224848,-34.65098628,Carlos Godoy,198331913,2020-06-06 03:10:01,Argentina,city,"Morn, Argentina",Argentina
21,-48.783445,-28.483046999999996,Geyson 'Smilin Samurai' Rodrigues,198332189,2020-03-09 23:19:22,"Laguna, SC",poi,Mercado Pblico de Laguna,Brasil
200,28.86014,41.0342,Duygu zsyler,198332607,2020-02-22 10:30:00,London,city,"stanbul, Trkiye",Turkey
31080,-117.85108899999999,33.842863,Chaka,198332649,2020-02-19 00:26:21,Orange Co.,city,"Anaheim, CA",United States
31180,-101.897173,33.5705265,Justin,198332851,2020-02-14 05:18:13,"Lubbock, TX",city,"Lubbock, TX",United States
37780,-103.508777,31.415203,Justin,198332851,2020-02-23 09:27:07,"Lubbock, TX",city,"Pecos, TX",United States
31180,-101.897173,33.5705265,Justin,198332851,2020-02-25 10:05:35,"Lubbock, TX",city,"Lubbock, TX",United States
37780,-103.508777,31.415203,Justin,198332851,2020-03-22 07:23:15,"Lubbock, TX",city,"Pecos, TX",United States
205,-1.746066,50.743913,david vines,19833304,2020-02-22 16:22:14,Bournemouth,city,"Christchurch, England",United Kingdom
46140,-95.913642,36.1093915,Justin Schuffert,198333207,2020-05-08 15:55:40,United States,city,"Tulsa, OK",United States
34420,-94.98268900000001,33.1689075,Justin Schuffert,198333207,2020-05-23 16:21:32,United States,city,"Mount Pleasant, TX",United States
46140,-95.913642,36.1093915,Justin Schuffert,198333207,2020-05-28 03:52:54,United States,city,"Tulsa, OK",United States
57,15.441908499999998,47.0732385,Janko Habjan,198333694,2020-03-17 13:02:59,ST.EIERMARK,city,"Graz, sterreich",sterreich
19740,-104.673982,39.849733,HaveOpinions,198333835,2020-02-18 02:11:50,United States,poi,Denver International Airport (DEN),United States
31080,-117.7063095,33.529449,HaveOpinions,198333835,2020-02-22 14:26:34,United States,city,"Laguna Niguel, CA",United States
45940,-74.62279749999998,40.3009395,mariauxiliadora code,198333999,2020-02-14 04:34:18,Viviendo,city,"Princeton Junction, NJ",Estados Unidos
28940,-84.26247099999999,35.683903,Barbie Hintz = SOLD,198334065,2020-02-25 19:13:28,Tellico Village Resident Loudon TN,city,"Tellico Village, TN",United States
205,-1.8906405,52.493966500000006,Sophie Jones,19833453,2020-02-16 19:44:31,"Birmingham,England",city,"Birmingham, England",United Kingdom
152,6.56398773,53.21357592,Musetta Blaauw,19833487,2020-04-03 07:50:13,recht uit het hart,city,"Groningen, Nederland",Nederland
8,-64.1980255,-31.4154565,ivi,198334918,2020-02-17 07:17:51,,city,"Crdoba, Argentina",Argentina
152,4.493029,52.061182,TV Zoetermeer '77,19833502,2020-05-07 14:05:02,"Zoetermeer, NL",city,"Zoetermeer, Nederland",Nederland
12580,-76.61399999999999,39.2944,Mike Moore,19833516,2020-03-28 18:44:23,"Baltimore, MD",city,"Baltimore, MD",United States
21,-51.099898,-23.5130215,Ma Filho ,198335596,2020-02-18 21:20:04,"Londrina, Brasil",city,"Londrina, Brasil",Brasil
222,112.833,-8.2,kopiencer,198335612,2020-05-08 02:54:21,,city,"Tirto Yudo, Indonesia",Indonesia
21,-43.3151,-21.50636,teonogueira,198335804,2020-02-14 13:59:27,"Juiz de Fora, Brasil",city,"Juiz de Fora, Brasil",Brazil
37980,-75.0398505,39.931071,Claire Bailey Dixon,198335977,2020-02-16 03:56:42,"Detroit, MI",city,"Cherry Hill, NJ",United States
19820,-83.099288,42.3527865,Claire Bailey Dixon,198335977,2020-02-18 01:28:57,"Detroit, MI",city,"Detroit, MI",United States
172,-65.885609,17.989874,GILBERT TORRES,198336499,2020-04-02 12:10:48,,poi,Faro De Maunabo,United States
160,-72.52491955,-13.15476474,Mara Jardn,198336504,2020-03-04 07:01:22,CDMX,city,"Machupicchu, Peru",Peru
21,-52.3425,-31.7719,W  B ,198336975,2020-03-17 14:35:18,"Pelotas, Brasil",city,"Pelotas, Brasil",Brasil
164,-9.3605895,38.835553999999995,Joo Tom,19833718,2020-02-14 19:16:22,"Sintra,Portugal",city,"Sintra, Portugal",Portugal
171,120.871999,14.2797435,Lester Marquez,198337226,2020-02-23 12:15:24,,city,"Trece Martires City, Calabarzon",Republic of the Philippines
34980,-86.520209,36.221709,Gaye Lynn Wilson,198337286,2020-02-22 18:44:48,"Nashville, TN",city,"Mount Juliet, TN",United States
119,-101.0150204,22.1392867,Den Serrano,198337291,2020-02-17 23:22:38,"Puebla, Mxico",city,"San Luis Potos, Mxico",Mxico
82,77.550599,28.499759,Vikram Gaur,198337446,2020-04-05 16:30:49,Delhi,city,"Greater Noida, India",India
205,-2.915427,53.4198785,JR,198337615,2020-03-07 09:26:33,"Glasgow, Scotland",city,"Liverpool, England",United Kingdom
35620,-74.0647,40.7114,The Brickerati Group,19833784,2020-06-05 12:10:40,"Newark, NJ - Washington, DC",city,"Jersey City, NJ",United States
205,-0.1094,51.5141,canda hanta,198337854,2020-06-02 11:01:02,"London, England",city,"City of London, London",United Kingdom
200,28.978540000000002,41.025909999999996,canda hanta,198337854,2020-06-04 16:47:37,"London, England",city,"stanbul, Trkiye",Turkey
21,-43.296872,-22.644558,Mussauer,198338004,2020-02-15 00:13:16,,city,"Duque de Caxias, Brasil",Brasil
222,106.58972765,-6.19197587,Hendra Winata,198338082,2020-02-15 14:36:00,Indonesia,city,"Jati Uwung, Indonesia",Indonesia
88,139.745379,35.652789,,198338296,2020-03-01 10:54:47," 
",city,"Minato-ku, Tokyo",Japan
47900,-77.0143985,38.898603,Lady Tre',19833833,2020-02-16 18:26:03,"iPhone: 38.933800,-76.976669",city,"Washington, DC",United States
20260,-92.12284,46.7583345,Momma Billie,198338580,2020-04-19 17:12:10,Minnesota,city,"Duluth, MN",United States
22260,-95.05456099999999,46.9223445,Billie ONiel,198338580,2020-05-08 22:54:38,Minnesota,city,"Park Rapids, MN",United States
29820,-115.2344355,36.0188045,Kristy Ralicki,198338610,2020-03-25 19:07:52,Steel CitySin City,city,"Enterprise, NV",United States
51,-6.247621499999999,53.3549025,Praic Gallagher,19833863,2020-02-14 10:31:59,Dublin - Ireland,city,"Dublin City, Ireland",Ireland
24,-79.27256949999999,43.629311,Ross Murray,198338766,2020-03-07 00:54:09,"Toronto, Canada ",city,"Toronto, Ontario",Canada
205,-3.002217,53.646944,  ,198338820,2020-03-05 08:33:36,"Liverpool, England",poi,Southport Railway Station (SOP),United Kingdom
45300,-82.53435400000002,28.483847499999996,Kenzie,198338880,2020-04-13 03:43:06,"Pittsburgh, PA",city,"Spring Hill, FL",United States
33100,-80.1698025,25.9356415,Rodd,198338909,2020-03-19 01:57:32,"PG County, MD",city,"North Miami Beach, FL",United States
12580,-76.62048200000002,39.284713,Rodd,198338909,2020-03-23 19:54:29,"PG County, MD",city,"Baltimore, MD",United States
33,-70.63538700000002,-33.405859,VICTOR OROS M.,198338985,2020-02-22 14:52:28,"Recoleta, Chile",city,"Recoleta, Chile",Chile
45300,-82.80291933,27.96748844,Veeh Lil'Monsterpull,198339194,2020-03-08 17:02:15,,city,"Clearwater, FL",United States
29460,-81.8396,27.8926,Veeh Lil'Monsterpull,198339194,2020-03-24 22:12:58,,city,"Bartow, FL",United States
45300,-82.7643,27.9736,Veeh Lil'Monsterpull,198339194,2020-03-31 12:46:10,,city,"Clearwater, FL",United States
33100,-80.1936,25.7751,Veeh Lil'Monsterpull,198339194,2020-05-03 20:25:32,,city,"Miami, FL",United States
8,-58.8023675,-34.60033,ESTEBAN,198339239,2020-02-28 22:36:08,PASO DEL REY,city,"Moreno, Argentina",Argentina
38,-74.24367099999999,4.2622835,Ann-Mar,198339828,2020-02-14 18:22:18,"Bogot, D.C., Colombia",city,"Bogot, D.C., Colombia",Colombia
16740,-80.8467855,35.209059,Cov,19834007,2020-02-20 03:25:34,,city,"Charlotte, NC",United States
21,-44.1978,-19.9678,@cantoraalicegoncalves,198340162,2020-05-19 22:29:54,Brasil- Belo Horizonte,city,"Betim, Brasil",Brasil
205,-0.0991635,51.645275500000004,Beth Wilson,19834029,2020-05-28 11:33:20,London,city,"Enfield, London",United Kingdom
21,-47.86814683,-15.81127389,Rodrigo Ferreira,198340348,2020-02-14 11:36:23,Brasilia - DF,city,"Braslia, Brasil",Brasil
35620,-74.1849,40.7352,Dana J.,19834039,2020-06-01 22:26:26,NJ | All Over ~ click that ,city,"Newark, NJ",United States
211,-69.24762249999999,10.022704,Fundacin EscuchArte,198340628,2020-02-18 12:08:10,"Lara, Venezuela",city,"Cabudare, Venezuela",Venezuela
24,-120.291526,50.741816,K.A.S.P,198340894,2020-02-14 20:29:06,"Kamloops, British Columbia",city,"Kamloops, British Columbia",Canada
39740,-75.9250215,40.3341185,Kal-El ,198341033,2020-03-11 20:31:23,Villa Juana... Sleepy Hollow NYC,city,"Reading, PA",United States
29820,-115.03833700000001,36.006256,Terry Whalen,19834143,2020-03-26 00:15:20,"Las Vegas, NV",city,"Henderson, NV",United States
30860,-111.93153424,41.62826915,Dan Artley,19834154,2020-06-02 22:47:59,"Bountiful, UT",city,"Wellsville, UT",United States
119,-103.23313,25.244223,Rolando Muoz,198341683,2020-02-14 14:35:42,"Mexico, Torreon",city,"Torren, Coahuila de Zaragoza",Mxico
21,-49.62276900000001,-27.185354999999998,Ramon Narloch,198341917,2020-02-28 17:46:41,Rio do Sul-SC,city,"Rio do Sul, Brasil",Brazil
205,-2.6590935,51.431072,matthew pink,19834193,2020-05-29 19:51:00,"the Mild Mild West, formerly The North",city,"Long Ashton, England",United Kingdom
38,-75.5496355,10.3904485,Kare,198342175,2020-04-14 04:16:56,,city,"Cartagena, Colombia",Colombia
18140,-82.985772,39.9946835,Death Eater ,19834224,2020-03-16 21:50:05,Ohio,city,"Columbus, OH",United States
88,135.47617353,34.669285200000004,,198342326,2020-02-15 06:56:10,,city,  ,
35620,-73.651313,40.856958,Gigi Wright,19834240,2020-03-22 13:13:04,"Glen Cove, New York",poi,Hempstead Harbour Club,United States
21,-43.1975,-22.908,Matheus Miranda,198342511,2020-05-10 00:08:17,"Rio de Janeiro, Brasil",city,"Rio de Janeiro, Brasil",Brasil
189,18.0605,59.3307,Lucas Vazzoler,198342565,2020-02-27 15:32:12,,city,"Estocolmo, Suecia",Suecia
152,4.684829,52.3004295,Lucas Vazzoler,198342565,2020-03-02 19:31:33,,city,"Haarlemmermeer, Nederland",Holanda
8,-58.442643,-34.604315,Lucas Vazzoler,198342565,2020-03-03 20:56:03,,city,"Ciudad Autnoma de Buenos Aires, Argentina",Argentina
16980,-87.632496,41.883221999999996,B Burrell,198342871,2020-02-16 01:31:13,"Chicago, USA",city,"Chicago, IL",United States
151,7.51664084,9.03241669,Chelsea Oni,198343146,2020-06-08 16:55:03,"Abuja, Nigeria",city,"Abuja, Nigeria",Nigeria
222,110.798787,-7.550511,IndraYana,198343426,2020-02-19 08:10:01,"Solo,Indonesia",poi,Mie ayam adek dewi purwosari,Indonesia
205,-0.075459,51.523324,,19834349,2020-04-05 21:00:32,London,poi,Shoreditch High Street London Overground Station,United Kingdom
24860,-82.3854,34.8443,Dr. Roger Harris,198343529,2020-03-03 13:24:56,"Greenville, SC",city,"Greenville, SC",United States
33,-70.53669049999998,-33.4471385,Carlos Gutirrez,198343731,2020-02-19 04:08:34,"Santiago, Chile",city,"La Reina, Chile",Chile
35620,-73.86085700000002,40.94456750000001,TheWatcher,198343742,2020-02-15 03:08:53,"New York, USA",city,"Yonkers, NY",United States
21,-47.20627,-15.286283,Petry,198343861,2020-02-14 05:27:23,,city,"Formosa, Brasil",Brasil
222,106.788068,-6.2498520000000015,Septo Sudiro,198343911,2020-03-04 04:44:16,,city,"Kebayoran Lama, Indonesia",Indonesia
160,-77.04758100000002,-12.061413,Luis Felipe,198343943,2020-03-05 11:41:51,Lima,city,"Brea, Peru",Peru
21,-48.0603,-16.018,Marcos Cunha,198344049,2020-04-10 18:50:43,Gama-DF,city,"Braslia, Brasil",Brasil
49,-80.091193,-2.512995,Karim Manzur,198344099,2020-02-17 01:09:28,Guayaquil. Ecuador,city,"Guayaquil, Ecuador",Ecuador
119,-98.308599,19.022994,Mon,198344195,2020-02-16 15:34:21,Puebla,city,"San Andrs Cholula, Puebla",Mexico
17820,-104.7757665,38.7415865,Karl Everett,198344225,2020-03-25 19:02:48,Colorado Springs,city,"Fort Carson, CO",United States
21,-54.60862554,-20.46549218,Irmo chato,198344238,2020-06-10 19:35:32,Campo Grande MS,city,"Campo Grande, Brasil",Brasil
205,-0.120806,51.530569,MASH.,198344306,2020-02-17 18:05:02,"London, Peckham",poi,Scala,United Kingdom
8,-58.19178126,-26.18375351,Guille Aguirre,198344314,2020-05-02 21:08:14,"28 de Noviembre, Santa Cruz",city,"Formosa, Argentina",Argentina
21,-47.796623,-15.776254000000002,Risadinha,198344537,2020-04-05 01:10:56,"Distrito Federal, Brasil",city,"Braslia, Brasil",Brasil
119,-87.0316645,21.048719000000002,Maybe: Alan,19834487,2020-02-17 21:53:35,"Toronto, Ontario",city,"Benito Jurez, Quintana Roo",Mexico
24,-79.27256949999999,43.629311,Maybe: Alan,19834487,2020-02-18 05:02:43,"Toronto, Ontario",city,"Toronto, Ontario",Canada
88,139.75636450000002,35.68688450000001,,198344940,2020-02-14 03:04:12, ,city, ,
8,-60.69740600000001,-32.9516155,Luciano,198345007,2020-02-14 21:42:27,"Joo Pessoa, Brasil",city,"Rosario, Argentina",Argentina
21,-38.9020425,-12.673303500000001,Luciano,198345007,2020-02-23 19:49:01,"Joo Pessoa, Brasil",city,"Cachoeira, Brasil",Brasil
8,-60.69740600000001,-32.9516155,Luciano,198345007,2020-02-27 18:39:42,"Joo Pessoa, Brasil",city,"Rosario, Argentina",Argentina
24,-80.20109649999999,44.08075700000001,Popo Amillion,198345025,2020-04-05 23:54:33,"Toronto, Ontario",city,"Shelburne, Ontario",Canada
8,-58.61175550000001,-34.646236,Daianita ,198345080,2020-02-14 22:05:12,"Haedo, Buenos Aires",city,"Morn, Argentina",Argentina
205,-1.489789,51.8724,Matthew Greenfield,19834530,2020-04-27 15:31:05,"Charlbury, Oxfordshire, UK",poi,Charlbury Railway Station (CBY),United Kingdom
82,73.936462,18.518854,SAMEER AHMED,198345415,2020-02-23 10:09:59,"Pune, India",city,"Pune, India",India
38900,-122.630908,45.536402,Alison Anderson,19834542,2020-02-21 02:51:18,"Portland, OR",city,"Portland, OR",United States
16980,-87.732013,41.8335845,Alison Anderson,19834542,2020-03-16 23:53:05,"Portland, OR",city,"Chicago, IL",United States
38900,-122.630908,45.536402,Alison Anderson,19834542,2020-03-17 23:57:45,"Portland, OR",city,"Portland, OR",United States
47900,-77.3141525,39.395430499999996,Alison Anderson,19834542,2020-04-20 02:46:28,"Portland, OR",city,"Linganore, MD",United States
38900,-122.630908,45.536402,Alison Anderson,19834542,2020-04-27 02:39:16,"Portland, OR",city,"Portland, OR",United States
71,11.58730388,50.93746568,Brian Bixby,19834565,2020-03-02 01:59:58,Germany,city,"Jena, Germany",Germany
171,121.0627355,14.683012,Analiza Limson,198345886,2020-02-27 04:33:39,"Valenzuela City, Philippines",city,"Quezon City, National Capital Region",Republic of the Philippines
38060,-111.7375655,33.4057545,Karen Nichols,19834624,2020-02-21 02:45:25,,city,"Mesa, AZ",United States
41740,-117.10498899999999,32.810012,Karen Nichols,19834624,2020-02-28 16:09:19,,city,"San Diego, CA",United States
38060,-111.7375655,33.4057545,Karen Nichols,19834624,2020-03-10 04:06:49,,city,"Mesa, AZ",United States
74,-90.545866,14.618494,Owlo xcyu,198346810,2020-03-01 02:32:16,Guatemala,poi,Baos Sauna Palace,
21,-52.36092567,-23.99166337,Gabriel Cordeiro,198346816,2020-02-18 17:33:00,"Campo Mouro, Brasil",city,"Peabiru, Brasil",Brasil
21,-43.5243665,-22.696528,Carla Andrade,198346843,2020-03-03 00:33:07,Rio de Janeiro,city,"Nueva Iguaz, Brasil",Brasil
49,-80.091193,-2.512995,Tulia Maria Escobar,198346871,2020-02-14 01:42:15,"Guayaquil, Ecuador",city,"Guayaquil, Ecuador",Ecuador
21,-46.1941,-23.5264,Reginaldo Marques Lima,198347308,2020-04-27 17:46:58,,city,"Mogi das Cruzes, Brasil",Brasil
31080,-118.4119065,34.0207895,Brian@$#:&,19834750,2020-02-14 20:57:41,"California, USA",city,"Los Angeles, CA",United States
26420,-95.562444,29.623471999999996,World Star Cuts,198347504,2020-04-28 04:29:50,"Houston, TX",city,"Stafford, TX",United States
12020,-83.39977950000001,33.9563835,Rob Melton,198347534,2020-02-29 12:52:51,"Bogart, GA",city,"Athens, GA",United States
25940,-80.748747,32.1898025,Rob Melton,198347534,2020-05-24 13:10:59,"Bogart, GA",city,"Hilton Head Island, SC",United States
119,-98.308599,19.022994,FRANCIS,198347602,2020-04-13 07:00:11,MEXICO,city,"San Andrs Cholula, Puebla",Mxico
26420,-95.4464865,29.838495,Alli Nauert,19834762,2020-02-17 17:10:41,"Houston, TX",city,"Houston, TX",United States
38,-74.24367099999999,4.2622835,jose m thiriat q,198347777,2020-03-13 01:24:59,bogota,city,"Bogot, D.C., Colombia",Colombia
35620,-74.177373,40.696517,Suzanne Neufang,19834784,2020-03-17 21:43:56,"new york, ny, USA",poi,United Polaris Lounge,United States
205,-2.4837505,53.728524,matilde tomat,19834820,2020-03-20 23:33:04,"lancashire, uk",city,"Blackburn, England",United Kingdom
21500,-79.6405,41.9249,Ke,198348237,2020-04-14 21:07:58,On The Edge,city,"Corry, PA",United States
8,-58.5167,-34.6,Space Cowboy,198348259,2020-04-14 03:56:04,"Buenos Aires, Argentina",city,"Ciudad Autnoma de Buenos Aires, Argentina",Argentina
186,2.1412275000000003,41.392657,EL MOTTIvado,198348595,2020-02-22 22:29:21,,city,"Barcelona, Espaa",Espaa
113,-8.046538499999999,31.6389545,EL MOTTIvado,198348595,2020-03-13 12:35:37,,city,"Mnara, Royaume du Maroc",Reino de Marruecos
65,2.3575600000000003,48.723971999999996,EL MOTTIvado,198348595,2020-03-14 16:11:41,,city,"Paray-Vieille-Poste, France",Francia
186,2.1021375,41.31253,EL MOTTIvado,198348595,2020-03-16 08:17:00,,city,"El Prat de Llobregat, Espaa",Espaa
119,-99.2115105,19.4299345,EL MOTTIvado,198348595,2020-03-17 00:57:31,,city,"Miguel Hidalgo, Distrito Federal",Mxico
21,-51.1593095,-30.099836,Jssica com J,19834861,2020-03-17 12:11:24,RS,city,"Porto Alegre, Brasil",Brasil
21,-52.333895500000004,-31.561389000000002,Nathi Nunes ,198348629,2020-02-14 02:23:49,Pelotas,city,"Pelotas, Brasil",Brasil
119,-99.5438265,19.262104,Arlen Rangel ,198348763,2020-02-14 22:45:26,Mxico ,city,"San Mateo Atenco, Mxico",Mxico
16740,-80.84333333,35.22694444,Christos Teis,198348948,2020-02-20 18:34:27,Cornelius,city,"Charlotte, NC",United States
12420,-97.82100815,30.23518567,Damon Lowe,198349025,2020-02-29 23:47:04,"Austin, TX",city,"Austin, TX",United States
28660,-97.3622,31.0937,Damon Lowe,198349025,2020-04-24 11:44:36,"Austin, TX",city,"Temple, TX",United States
12420,-97.7475,30.2677,Damon Lowe,198349025,2020-05-05 17:55:12,"Austin, TX",city,"Austin, TX",United States
19100,-96.9254,32.6474,Damon Lowe,198349025,2020-05-09 07:59:09,"Austin, TX",city,"Duncanville, TX",United States
28660,-97.3622,31.0937,Damon Lowe,198349025,2020-05-15 20:03:09,"Austin, TX",city,"Temple, TX",United States
12420,-97.6711,30.422009999999997,Damon Lowe,198349025,2020-06-02 21:59:41,"Austin, TX",city,"Austin, TX",United States
28660,-97.3622,31.0937,Damon Lowe,198349025,2020-06-04 17:09:34,"Austin, TX",city,"Temple, TX",United States
19100,-96.87873990000001,32.662729999999996,Damon Lowe,198349025,2020-06-06 21:18:51,"Austin, TX",city,"Dallas, TX",United States
28660,-97.3622,31.0937,Damon Lowe,198349025,2020-06-09 01:14:59,"Austin, TX",city,"Temple, TX",United States
14460,-71.0899345,42.672666,Carolina Covfefe,198349082,2020-02-14 07:23:31,"Boston, MA",city,"North Andover, MA",United States
21,-43.959822499999994,-19.918692,nathtafner,198349414,2020-02-17 08:04:40,MG - Belo Horizonte.,city,"Belo Horizonte, Brasil",Brasil
21,-44.35458433,-23.0640876,Mariana Chagas,198349487,2020-03-14 17:08:56,"RJ,Brazil",city,"Angra dos Reis, Brasil",Brasil
15180,-97.66006697,26.16836798,gets5569,198349495,2020-02-14 22:43:07,TEXAS,city,"Harlingen, TX",United States
186,-3.7035075,40.4777945, ,198349825,2020-04-11 12:15:23,"Madrid, Comunidad de Madrid",city,"Madrid, Espaa",Espaa
151,3.39583,6.45306,Quality Picks Jewelry,198350104,2020-03-30 11:19:13,"Akure, Nigeria",city,"Lagos, Nigeria",Nigeria
21,-45.0008355,-23.3985665,Sr. Reis,198350171,2020-02-14 01:00:18,,city,"Ubatuba, Brasil",Brasil
31080,-117.85108899999999,33.842863,Anaheim Ducks,19835035,2020-02-14 02:18:38,"Anaheim, CA",city,"Anaheim, CA",United States
21,-60.9694365,4.166601,Ruben Manuel Maestre,198350595,2020-03-26 11:19:17,"Tumeremo, Edo. Bolivar, Vnzla.",city,"Pacaraima, Brasil",Brasil
88,132.6326315,33.5788065,,198350600,2020-03-17 03:33:25,618-1 ,city, ,
31080,-118.4119065,34.0207895,Kevin Meyer,198350617,2020-03-17 20:06:03,Los Angeles,city,"Los Angeles, CA",United States
49660,-80.63954050000002,41.105271,Eric Rupe,198350788,2020-03-13 00:21:57,"Youngstown, Ohio",city,"Youngstown, OH",United States
10420,-81.552273,41.3175885,Eric Rupe,198350788,2020-03-26 18:49:26,"Youngstown, Ohio",city,"Sagamore Hills, OH",United States
49660,-80.63954050000002,41.105271,Eric Rupe,198350788,2020-04-04 19:23:59,"Youngstown, Ohio",city,"Youngstown, OH",United States
78,-88.040243,15.499726,CRosales #FueraJOH,198350910,2020-03-07 21:21:18,"San Pedro Sula, Honduras",poi,Epicure,Honduras
29820,-115.223125,36.232915000000006,Robine,198350926,2020-03-13 02:01:59,,city,"Las Vegas, NV",United States
31080,-117.9056455,33.6636085,Kristen Howerton,19835106,2020-02-15 05:06:06,"Orange County, CA",city,"Costa Mesa, CA",United States
88,138.1142725,36.6482925,,198351111,2020-02-14 01:32:22, ,city, ,
8,-58.200629000000006,-34.797540500000004,Yackie,198351386,2020-03-22 03:12:13,Ranelagh,city,"Berazategui, Argentina",Argentina
31080,-118.4119065,34.0207895,LOVELYBAMBY,198351390,2020-05-03 05:43:44,"Los Angeles, Ca.",city,"Los Angeles, CA",United States
21,-47.49815973,-23.53926783,Wandeson Faustino,198351445,2020-03-16 19:28:43,"So Paulo, So Paulo",city,"Votorantim, Brasil",Brasil
24,-119.48200000000001,49.911,Geoffo0,19835149,2020-02-14 20:55:03,South wales,city,"Kelowna, British Columbia",Canada
205,-3.0121375,51.6928065,Geoffo0,19835149,2020-03-13 07:14:57,South wales,city,"New Inn, Wales",United Kingdom
21,-60.004962,-3.125516,Anderson Bruno,198351589,2020-04-23 17:28:02,,neighborhood,"Cachoeirinha, Manaus",Brasil
88,139.619157,35.483002500000005,,198351614,2020-04-12 02:33:41,,city,  ,
38300,-79.90974212,40.45744928,Maples' union organizer,198351663,2020-02-20 00:38:50,,city,"Pittsburgh, PA",United States
13820,-86.83222147,33.38579357,Courtney Bavar,198351895,2020-05-31 21:16:27,"Birmingham, AL",city,"Hoover, AL",United States
96,48.0129795,29.297036, ,198351962,2020-02-26 16:09:25,,city,"Al Salam, Kuwait",Kuwait
21,-46.9529,-22.4337,Ev. Fernando Caputo,198352153,2020-05-11 06:45:50,,city,"Mogi Mirim, Brasil",Brasil
205,-2.9794,53.4078,Yeison (Ja-s-on) Ospina,19835239,2020-05-31 20:33:04,"Liverpool, England",city,"Liverpool, England",United Kingdom
35620,-73.993483,40.657747,  ,19835250,2020-02-16 17:03:01,"Brooklyn, New York City",neighborhood,"Windsor Terrace, Brooklyn",United States
33100,-80.17540496,26.29246851,Victory Church,198352547,2020-04-26 11:00:29,"1973 Dade Ave. Boca Raton, FL",city,"Coconut Creek, FL",United States
205,-3.187173,55.947433,Julie Newton,19835318,2020-03-01 16:11:30,"Berwick-upon-Tweed, England",poi,"Old College, The University Of Edinburgh",United Kingdom
88,133.331516,36.202555,,198353250,2020-03-12 00:27:08,,poi,,
21,-37.2376815,-7.528365000000001, ,198353360,2020-03-13 01:54:49,Brasil,city,"So Jos do Egito, Brasil",Brasil
21,-43.1975,-22.908,Lion,198353403,2020-03-12 22:55:34,"Niteri, rj",city,"Rio de Janeiro, Brasil",Brasil
18140,-82.809551,40.083203999999995,Vincent Van Goku,198353422,2020-02-24 23:41:39,Alagaesia,city,"New Albany, OH",United States
151,7.42625,9.076214,Mr. Fony,198353440,2020-02-16 17:21:41,"Los+Chicago, IL",poi,Jabi Lake Mall,Nigeria
119,-99.096496,19.399101,Nizarindandi Picasso,198353982,2020-05-04 01:17:00,Ciudad de Mxico,city,"Iztacalco, Distrito Federal",Mxico
205,-5.928413,54.59586899999999,Ryan Mc Gurk,19835407,2020-02-27 07:20:12,Ireland,city,"Belfast, Northern Ireland",United Kingdom
178,28.103551,-25.988404,Pheladi,198354117,2020-02-22 11:06:07,"Boksburg, South Africa",city,"Midrand, South Africa",South Africa
205,-0.12515135,51.53368162,Ruth Miller,19835415,2020-02-27 18:02:48,"Amersham, Greater London",city,"Camden Town, London",United Kingdom
12580,-76.58264751,39.34907605,Strictly Hip Hop,19835420,2020-02-14 13:05:10,"Baltimore, MD",city,"Baltimore, MD",United States
38,-75.52527778,10.42361111,luis pineda portacio,198354275,2020-05-02 00:58:38,Colombia,city,"Cartagena, Colombia",Colombia
172,-65.32977401,18.32584573,luis pineda portacio,198354275,2020-05-15 22:50:13,Colombia,city,"Flamenco, USA",Estados Unidos
21,-46.5955455,-23.682803,Samuel Felicio,198354573,2020-02-27 16:03:11,Brasil,city,"Sao Paulo, Brazil",Brazil
41860,-121.933494,37.575353,Bronson,198354682,2020-04-30 05:32:22,,poi,Vargas Plateau Regional Park,United States
193,100.530488,14.0226715,Aoffy_Liberty,198354718,2020-03-12 13:28:28,,city,"Pathum Thani, Thailand",Thailand
21,-38.489433,-3.731614,JONATH SILVA,198354838,2020-03-08 23:21:36,FORTALEZA,poi,Cervejaria Turatti,Brasil
242,121.561476,25.085756,@,198354845,2020-04-08 00:50:06,,city,", ",
12580,-76.4137965,39.4480385,Jim Piergrossi,19835490,2020-02-17 10:07:28,"Abingdon, MD",city,"Kingsville, MD",United States
