currentGEOID,lon,lat,name,author_Id,created_at,location,place_type,place_full_name,place_country
36420,-97.948281,35.0329435,Brad Gray-Lubinski,946934748,2020-06-10 21:36:03,"Norman, OK",city,"Chickasha, OK",United States
21,-44.19287,-19.942007500000006,Victor Aleixo,946935011126673408,2020-02-14 02:12:34,"Belo Horizonte, Brasil",city,"Betim, Brasil",Brasil
89,-76.56430300000001,17.872757999999997,PJ,946935014,2020-05-26 23:31:19,Jamaica,poi,Yallahs,Jamaica
21,-43.387181,-22.818296,dig,946935157830881280,2020-06-07 15:58:34,"Taubat, SP - Himalaia, RJ",poi,Rua Himalaia,Brasil
35620,-73.047,40.8709,Jennifer Kampel,946935516,2020-04-22 00:24:39,NY,city,"Selden, NY",United States
38,-74.849933,10.958072999999999,oskar ,946935563491467264,2020-06-10 13:53:55,"Barranquilla, Colombia",city,"Barranquilla, Colombia",Colombia
82,84.98814899999998,25.2131165,Akshay Kumar Keshri,946935655904325638,2020-04-21 09:29:37,"Jehanabad, India",city,"Jehanabad, India",India
14860,-73.47297850000002,41.4081195,LiL chris of world,946935808816242688,2020-05-29 17:05:05, New York  ,city,"Danbury, CT",United States
24,-80.73379399999999,43.115373999999996,donna .,946935864206221314,2020-02-28 22:09:57,   ,poi,Walmart,Canada
171,125.4432615,7.317582499999999,Jil,946936073959104513,2020-02-14 09:55:46,Dvo,city,"Davao City, Davao Region",Republic of the Philippines
35620,-74.27120350000001,40.5214625,Rosario Pena,946936302,2020-02-15 00:11:41,New Jersey,city,"Perth Amboy, NJ",Estados Unidos
35620,-74.15394699999997,40.57237600000001,Jgickalbert Brown,946936544,2020-03-06 06:28:21,,city,"Staten Island, NY",United States
49,-78.494046,-0.199621,sam,946936578080935936,2020-05-10 20:36:18,"Barcelona, Spain",poi,Hotel Ambassador,Ecuador
40900,-121.469664,38.561721999999996,Murm,946936801121337344,2020-02-14 00:32:33,559//916,city,"Sacramento, CA",United States
47300,-119.2868675,36.544726000000004,Murm,946936801121337344,2020-03-18 04:54:24,559//916,city,"Orosi, CA",United States
23420,-119.31381299999998,36.624751,Murm,946936801121337344,2020-05-23 20:39:23,559//916,poi,"Orange Cove, Ca",United States
47300,-119.2868675,36.544726000000004,Murm,946936801121337344,2020-05-28 04:46:31,559//916,city,"Orosi, CA",United States
42020,-120.6597175,35.154725,Murm,946936801121337344,2020-06-01 05:22:22,559//916,city,"Pismo Beach, CA",United States
47300,-119.14984299999999,36.2990645,Murm,946936801121337344,2020-06-04 04:03:01,559//916,city,"Exeter, CA",United States
23420,-119.3177905,36.624142,Murm,946936801121337344,2020-06-10 18:20:05,559//916,city,"Orange Cove, CA",United States
88,139.734723,35.61306000000001,_(),94693687,2020-02-14 08:50:20,,city, ,
24,-64.80061649999999,46.114532000000004,Anna ,946936935477428224,2020-04-18 07:10:15,Canada,city,"Moncton, New Brunswick",Canada
82,77.272384,28.735283000000003,Amit Sharma,946937025873174529,2020-03-14 00:21:17,,poi,Karawal Nagar Chowk,India
35620,-73.9685415,40.780709,Intense Brown,946937076,2020-03-03 19:18:53,"New York, NY",city,"Manhattan, NY",United States
34820,-78.976213,33.7661365,Spence,946937244,2020-03-16 06:37:41,"Myrtle Beach, SC",city,"Red Hill, SC",United States
222,106.90872,-6.2725095,Matdunk 1928/1894,946937310880206848,2020-04-26 04:50:30,"Jakarta Timur, DKI Jakarta",city,"Makasar, Indonesia",Indonesia
205,-2.23348,53.4569525,Dr.,946937635116896256,2020-03-04 19:22:26,,city,"Manchester, England",United Kingdom
42660,-122.3306025,47.614816999999995,/,946937770622181377,2020-06-05 07:47:09,Astral Abyss,city,"Seattle, WA",United States
82,82.227213,27.039307,Arvind Kumar Yadav,946937803094466560,2020-05-07 16:53:12,"Gonda, India",poi,Mankapur,India
222,106.82517800000001,-6.361388,Mervin Manurung,94693784,2020-02-27 05:03:58,"Kebayoran Lama, Indonesia",poi,Gedung Pascasarjana FEUI,Indonesia
42540,-75.87577999999998,41.2442045,Queen Bean,946937858,2020-04-24 14:08:12,"Drums, PA",city,"Wilkes-Barre, PA",United States
82,78.78600750000003,28.452751,Boby Sharma,946937995315224576,2020-05-31 17:25:45,"Faizganj, India",city,"Chandausi, India",India
21,-40.764876,-20.8384625, ,946937999627087872,2020-02-14 00:19:23,Pima -Esprito Santo,city,"Pima, Brasil",Brazil
88,139.695576,35.658944,() #SPAWN,94693809,2020-02-22 02:28:45,,poi,Glad,
33,-70.527119,-33.531122499999995,sxto.ry,946938283505971200,2020-04-30 07:27:52,,city,"La Florida, Chile",Chile
21,-46.2900965,-23.86332,Delfina Marques,946938744,2020-05-10 20:38:43,"Albufeira, Portugal",city,"Santos, Brasil",Brasil
88,134.51514650000001,34.04320850000001,,946938882959933440,2020-03-11 00:46:11,,city, ,
31080,-118.374351,33.995628499999995,meklit,946938985993027584,2020-03-23 09:01:37,"Los Angeles, CA",city,"Ladera Heights, CA",United States
88,133.518095,34.48786,,946939196643581952,2020-03-19 07:00:34,,poi, ,
35300,-72.78050503,41.29885494,  ,9469392,2020-05-09 17:58:41,"Bridgeport, CT",city,"Branford, CT",United States
171,121.074431,14.809659,Camzjimenez,946939216151199744,2020-05-06 07:55:08,"San Jose Del Monte, Bulacan",poi,"Northridge, SJDM, Bulacan",Republic of the Philippines
14460,-71.24207150000002,42.394453000000006,Oliver Sawyer,946939351,2020-02-14 15:02:53,"Boston, MA",city,"Waltham, MA",United States
49340,-71.6298405,42.0602885,Oliver Sawyer,946939351,2020-02-15 00:54:32,"Boston, MA",city,"Uxbridge, MA",United States
14460,-71.24207150000002,42.394453000000006,Oliver Sawyer,946939351,2020-02-16 21:51:52,"Boston, MA",city,"Waltham, MA",United States
49340,-71.6298405,42.0602885,Oliver Sawyer,946939351,2020-03-07 21:05:04,"Boston, MA",city,"Uxbridge, MA",United States
14460,-71.24207150000002,42.394453000000006,Oliver Sawyer,946939351,2020-03-12 15:06:45,"Boston, MA",city,"Waltham, MA",United States
49340,-71.6298405,42.0602885,Oliver Sawyer,946939351,2020-03-13 04:30:12,"Boston, MA",city,"Uxbridge, MA",United States
12700,-70.66115499,41.54233289,Oliver Sawyer,946939351,2020-05-10 21:40:59,"Boston, MA",city,"Woods Hole, MA",United States
49340,-71.6298405,42.0602885,Oliver Sawyer,946939351,2020-05-11 14:47:46,"Boston, MA",city,"Uxbridge, MA",United States
39300,-71.44218699999998,41.926115,Oliver Sawyer,946939351,2020-05-24 17:08:00,"Boston, MA",city,"Lincoln, RI",United States
49340,-71.6298405,42.0602885,Oliver Sawyer,946939351,2020-05-25 22:36:26,"Boston, MA",city,"Uxbridge, MA",United States
193,100.723061,13.806602499999999,,946939438147411968,2020-02-14 22:49:34,"., .",city,", ",
88,139.61335300000002,36.143075,H,946939468484788224,2020-03-11 22:13:45,,city,"Kazo-shi, Saitama",Japan
205,-0.14054775,51.51460499,Mark Perry,946939513,2020-02-19 17:21:43,"Milton Keynes, England",city,"London, England",United Kingdom
22580,-81.8583395,35.331418,Carmen Pruett,946939535262437377,2020-03-08 23:50:48,"Rutherfordton, NC",city,"Forest City, NC",United States
8,-64.1980255,-31.4154565,Igna,946939574,2020-04-14 15:28:00,"Crdoba, Argentina",city,"Crdoba, Argentina",Argentina
171,121.0627355,14.683012,KIM ,946939647942279169,2020-02-20 02:43:16,"Quezon City, National Capital ",city,"Quezon City, National Capital Region",Republic of the Philippines
21,-48.1081725,-23.6348825,bruna,946939714006904832,2020-02-14 03:22:06,"Itapetininga, Brasil",city,"Itapetininga, Brasil",Brasil
88,139.928664,35.720205,customx05,94694020,2020-02-14 07:37:01,,poi, ,
8,-56.67974399999999,-27.583797999999998,Eric Martinez,946940328178790402,2020-03-20 22:10:11,Ituzaing/Corrientes,poi,"Ituzaingo, Corrientes",Argentina
88,138.1142725,36.6482925,,946940333232873473,2020-05-22 22:39:56, ,city,"Nagano-shi, Nagano",Japan
8,-66.25613349999999,-33.2863225,Gerardo Garro,946940449645846528,2020-06-03 23:56:43,,city,"Juana Koslay, Argentina",Argentina
21,-47.796623,-15.776254000000002,Ohjulio ,946940460161003520,2020-02-14 08:16:58,Bsb,city,"Braslia, Brasil",Brasil
88,141.4863455,43.032165,,946940587973918720,2020-03-06 17:56:47, ,city,"Sapporo City Atsubetsu Ward, Hokkaido",Japan
18140,-82.985772,39.9946835,Scott Pinkerton,946940616189120512,2020-04-22 01:53:41,"Columbus, OH",city,"Columbus, OH",United States
205,-0.018734,51.5992555, - BOTTOM - ,946940750159339520,2020-02-26 13:49:02,"London, England",city,"Walthamstow, London",Reino Unido
8,-58.59778757,-34.64408838,Cristian Ariel  ,94694077,2020-02-14 04:31:15,Haedo - Bs.As. - Argentina,city,"Morn, Argentina",Argentina
120,101.7109,3.1581,Cristian Ariel  ,94694077,2020-03-10 19:54:00,Haedo - Bs.As. - Argentina,city,"Ciudad de Kuala Lumpur, Kuala Lumpur",Malasia
8,-58.55931223,-34.631904,Cristian Ariel  ,94694077,2020-03-13 16:34:45,Haedo - Bs.As. - Argentina,city,"Caseros, Argentina",Argentina
24,-79.9437475,43.523123,George Doukogiannis,946940918,2020-05-01 20:35:19,,city,"Milton, Ontario",Canada
41740,-117.23726,32.88113,andrea celeste,946941133,2020-02-20 08:15:15,,poi,Geisel East,United States
200,28.1366245,38.4837175,Erdal Efe Basmac,94694143,2020-02-16 17:05:37,"Manisa, Trkiye",city,"Salihli, Trkiye",Trkiye
82,77.095086,28.638489500000002,Sanjeev Sabharwal,946941566802829317,2020-02-14 06:41:36,"New Delhi, India",city," , ",
24,-80.240128,43.534199,just julian,946941664123281408,2020-04-16 16:54:58,none giving,city,"Guelph, Ontario",Canada
21,-49.2903869,-25.4943735,Marcia Elizabete,94694257,2020-04-15 11:20:10,Curitiba/PR,city,"Curitiba, Brazil",Brazil
41860,-122.44785049999999,37.474667499999995,Arianna Cunha,946942586,2020-04-24 06:47:43,"Hayward, CA ",city,"Half Moon Bay, CA",United States
40140,-117.39761599999999,33.935821999999995,Arianna Cunha,946942586,2020-04-30 23:46:21,"Hayward, CA ",city,"Riverside, CA",United States
41860,-122.27029750000001,37.4979385,Arianna Cunha,946942586,2020-05-03 22:45:50,"Hayward, CA ",city,"San Carlos, CA",United States
38300,-80.28430900000002,40.7041255,Rose St John,94694259,2020-04-26 23:21:13,Western Pennsylvania,city,"Rochester, PA",United States
175,49.9945455,26.353591499999997,  ,946943083,2020-02-27 17:02:14,  ,city,",   ",  
21,-43.441578,-22.911421500000003,Carol Barbieri ,946943104665505792,2020-02-14 10:52:23,,city,"Rio de Janeiro, Brasil",Brasil
175,39.2541285,21.5857105,Hanoood',946943173,2020-02-20 13:39:24,,city,",   ",  
88,139.744876,35.71770150000001,,94694321,2020-02-19 14:03:36, ,city, ,
12420,-97.754724,30.3233455,female reptilian monster,946943594,2020-03-05 19:01:58,i heart my gf,city,"Austin, TX",United States
19100,-96.7617535,32.819858499999995,female reptilian monster,946943594,2020-03-09 02:45:46,i heart my gf,city,"Dallas, TX",United States
51,-9.0333065,51.903863,Macau Sporting Club,946943898,2020-02-14 12:15:00,"Cork, Ireland",city,"Cork, Ireland",Ireland
88,135.155847,35.567474,,946944226394120192,2020-04-10 07:58:53,EFI System Partition,poi,,
37980,-75.117998,40.0048655,Justino Griggs,946944312255959040,2020-02-21 01:22:48,"Philadelphia, PA",city,"Philadelphia, PA",United States
120,101.46253399999999,3.20249,Fakhrul Illusionz,94694434,2020-02-20 05:25:12,Kuala Lumpur City,poi,UiTM Puncak Alam,
23420,-119.7824645,36.786042,baby kay,946944593618092032,2020-02-14 04:51:05,,city,"Fresno, CA",United States
88,134.51250349999998,34.881839500000005,,94694518,2020-03-26 05:19:39,Japan,city, ,
21,-38.5266,-3.7293,Gardenia Viana,94694559,2020-02-20 12:09:47,Brasil,city,"Fortaleza, Brazil",Brazil
200,29.0052225,41.0213205,ENES KOLUKIRIK,946945880,2020-03-28 09:21:15,"Beylikdz, stanbul",city,"stanbul, Trkiye",Trkiye
88,131.621454,33.028585,riry_orange,946945984256290818,2020-02-14 09:30:07,,poi, ,
21,-43.296872,-22.644558,J.,946946732260282370,2020-05-28 02:04:52,RJ,city,"Duque de Caxias, Brasil",Brasil
171,121.0627355,14.683012,Maraaaaa,946946937525125120,2020-03-28 14:42:31,,city,"Quezon City, National Capital Region",Republic of the Philippines
36740,-81.56178,28.353737,Mya Bragdon,946946965685796864,2020-02-25 18:06:34,,poi,Millennium Falcon: Smugglers Run,United States
171,125.441367,11.342723,Boracium28,946947019586748416,2020-05-24 11:39:09,"Llorente, Eastern Samar",city,"Llorente, Eastern Visayas",Republic of the Philippines
175,39.2541285,21.5857105, ,946947077237506048,2020-05-18 20:51:15,",   ",city,"Jeddah, Kingdom of Saudi Arabia",Kingdom of Saudi Arabia
31080,-118.02789550000001,33.936153000000004, gabriel ,946947098347323392,2020-02-16 03:38:13,United States,city,"South Whittier, CA",United States
120,102.086876,2.3729535,jiha,946947636623376384,2020-02-25 15:32:46,"Alor Gajah, Melaka",city,"Sungei Baru Ilir, Melaka",Malaysia
171,121.0069495,14.5328815,,946947809344765952,2020-03-06 11:00:01,Manila City,city,"Pasay City, National Capital Region",Republic of the Philippines
82,73.88438199999999,18.520764,Harish Timbole-Pawar,946947871491874816,2020-03-19 07:00:41,"Pune, India",city,"Pune, India",India
171,120.899548,14.329444,MattJZ,946947887673491456,2020-02-14 06:13:41,"General Trias, Rehiyon ng CALA",city,"General Trias, Calabarzon",Republic of the Philippines
31020,-122.98936299999998,46.167379,Jovan Adrian Alvarez,946948038546698245,2020-02-21 07:43:11,"Longview, WA",city,"West Longview, WA",United States
33700,-121.1358805,37.48521,jared campbell,946948117,2020-03-14 07:31:17,"California, USA",city,"Patterson, CA",United States
21,-49.2884605,-25.4952495,gustavo,946948183564963840,2020-03-31 14:00:35,"Curitiba, Brasil",city,"Curitiba, Brasil",Brasil
171,120.54335,15.7503185,,946948454890094592,2020-04-27 10:30:31,"Moncada, Central Luzon",city,"Moncada, Central Luzon",Republic of the Philippines
171,120.899548,14.329444,s pi c y,946948554400063489,2020-02-17 10:51:59,"Cavite City, Calabarzon",city,"General Trias, Calabarzon",Republic of the Philippines
82,77.095086,28.638489500000002,MD. SAHID AHMED,946948586041876480,2020-02-26 18:42:04,"New Delhi, India",city,"New Delhi, India",India
44220,-83.835642,39.945254999999996,carter,946948629167792129,2020-05-15 21:26:42,yellow springs ohio ,poi,Lowe's,United States
22020,-96.8300925,46.8648825,Dustin Sjaaheim,946948747833102336,2020-04-08 05:59:35,"Fargo, ND",city,"Fargo, ND",United States
82,77.305145,28.589815,Kumar arnav,946949223047512066,2020-05-08 08:07:28,", ",poi,New Ashok Nagar Metro Station,India
88,140.354965,38.247776,,94694972,2020-02-16 08:13:13,,city, ,
21,-43.961616,-19.866533,Jac de Paula ,94695004,2020-03-05 20:21:52,Brasil,poi,Fafich - Faculdade de Filosofia e Cincias Humanas,Brazil
24,-97.1526765,49.8538055,H,946950040865697792,2020-05-09 02:57:05,,city,"Winnipeg, Manitoba",Canada
242,121.23213999999999,24.854815, TDD,946950859136540672,2020-03-07 14:11:40,Taiwan,city,", ",
36540,-96.053431,41.275721,Bo Harstine,946951332,2020-03-02 18:11:43,"Columbus, Ohio",city,"Omaha, NE",United States
16980,-87.732013,41.8335845,Bo Harstine,946951332,2020-03-04 23:01:38,"Columbus, Ohio",city,"Chicago, IL",United States
18140,-82.985772,39.9946835,Bo Harstine,946951332,2020-03-17 02:08:11,"Columbus, Ohio",city,"Columbus, OH",United States
83,51.363733,35.700699, ,946951349584965632,2020-04-04 21:18:53,,poi,Shadman Metro Station |   ,Islamic Republic of Iran
242,121.23213999999999,24.854815,chon rosas ,946951552551436289,2020-02-15 04:35:11,"Taoyuan County, Taiwan",city,"Taoyuan County, Taiwan",Taiwan
88,139.78598799999997,35.713206,sou3,94695173,2020-02-14 07:41:36,TOKYO,city, ,
38,-75.619213,6.270883,RICHI PREZ GUA,946951825,2020-02-14 03:50:32,"Medelln, Colombia",city,"Medelln, Colombia",Colombia
205,-0.0601675,51.5476445,Candela Urrutia,9469522,2020-02-14 23:03:12,"London, England",city,"Hackney, London",United Kingdom
21,-43.197340999999994,-22.987454,Lt,946952562116317184,2020-02-23 15:05:56,,poi,Posto 8,Brasil
33100,-80.34711999999998,25.671985999999997,Chris Brun,946952822406438914,2020-05-02 02:40:50,"Miami Beach, FL",city,"Kendall, FL",United States
160,-76.9814185,-12.1265765,Mario Arboleda Olivares,946952914735697920,2020-03-17 21:24:25,,city,"Santiago de Surco, Peru",Peru
82,77.22983599999999,28.515321000000004,Shahenigam saifi,946953222886789120,2020-04-05 08:14:27,"New Delhi, India",poi,Khanpur,India
15380,-78.6816715,43.171602500000006,Queen Kim ,946953254004580352,2020-02-19 06:21:44,"Buffalo, NY",city,"Lockport, NY",United States
175,46.685077,24.7219435,Dr.3iz,946953464822878208,2020-05-23 23:55:18,,city,",   ",  
31080,-118.32181499999999,34.133503000000005,Nick Dat Le (Building up mana),946953538503974912,2020-03-22 14:45:54,"Los Angeles, CA, United States",poi,Hollywood Sign,United States
33100,-80.19932,25.80114,Eddy Marin,946953780,2020-02-17 23:32:30,,city,"Miami, FL",Estados Unidos
82,72.87424399999999,19.174139999999998,Ekta Agarwal,946954045704495104,2020-02-21 16:42:32,"Mumbai, India",city,"Mumbai, India",India
21340,-106.4174305,31.793368,Ana,946954330627825664,2020-02-17 21:20:44,,city,"El Paso, TX",United States
120,101.66361111,3.16138889,Shafiqah ,946954746,2020-02-23 16:14:34,TERENGGANU,city,"Kuala Lumpur, Wilayah Persekutuan Kuala Lumpur",Malaysia
26420,-95.42254100000001,29.156096500000004,Brandon DeBerry,946954789,2020-05-07 23:35:23,,city,"Angleton, TX",United States
32580,-98.474523,26.243049,Judy Rae Hovey,946954807,2020-02-15 16:47:17,"RGV, texas",city,"La Joya, TX",United States
41700,-98.5406515,29.417501,Judy Rae Hovey,946954807,2020-03-18 04:15:59,"RGV, texas",city,"San Antonio, TX",United States
32580,-98.474523,26.243049,Judy Rae Hovey,946954807,2020-03-25 04:30:42,"RGV, texas",city,"La Joya, TX",United States
82,77.7023815,29.057153999999997,Umesh Pal,946955014848647168,2020-04-05 13:28:13,"Greater Noida, India",neighborhood,"Modipuram, Sardhana",India
82,72.87424399999999,19.174139999999998,Ivanshi,946955183891861504,2020-04-07 15:16:01,"Mumbai, India",city,"Mumbai, India",India
21,-48.69968,-26.894554,Gustavo,946955243497119744,2020-04-21 21:59:26,Itaquera,poi,Costa Cavalcante,Brasil
29340,-93.1592072,30.235829,Am somebodies ,946956206203052032,2020-03-07 09:29:10,"Lake Charles, LA",city,"Lake Charles, LA",United States
26420,-95.47369,29.884264,Am somebodies ,946956206203052032,2020-03-19 04:13:08,"Lake Charles, LA",poi,Antoine @ West Gulfbank,United States
29340,-93.1977235,30.202771000000002,Am somebodies ,946956206203052032,2020-04-02 09:40:17,"Lake Charles, LA",city,"Lake Charles, LA",United States
21,-43.376828,-22.728707999999997,dinda do Davi Lucas ,946956604515213313,2020-02-14 19:54:06,"Belford Roxo, Brasil",city,"Belford Roxo, Brasil",Brasil
88,132.46373799999998,34.390567,,94695663,2020-03-21 14:02:40,,poi, ,
82,79.43674100000001,23.827471000000006,Aman Rawat,946957244872011777,2020-04-21 04:09:17,"Damoh, India",city,"Damoh, India",India
21,-48.101460499999995,-10.115636,locadacatuaba,946957389995151360,2020-05-16 02:15:37,"Palmas, Brasil",city,"Palmas, Brazil",Brazil
88,130.413809,33.141358999999994,cenebral,946957658992427008,2020-06-06 22:21:17,,city,"Yanagawa-shi, Fukuoka",Japan
88,139.734723,35.61306000000001,,946957690722443264,2020-04-05 08:05:45, ,city,"Shinagawa-ku, Tokyo",Japan
222,110.350594,-7.8023095,Leoni,946957940,2020-05-25 06:26:45,"West Sumatra, Indonesia",city,"Wirobrajan, Indonesia",Indonesia
171,121.7674675,17.599867500000006,cho,946958233251471360,2020-02-16 12:25:11,,city,"Tuguegarao City, Cagayan Valley",Republic of the Philippines
88,139.646622,35.70378,,94695834,2020-02-16 11:20:00,,poi,,
21,-48.667588,-27.7689385,Thiago Natal,946958364558454784,2020-02-16 17:10:00,"Cidade Jardim de Florianopolis, So Jos",city,"Palhoa, Brasil",Brasil
171,121.0627355,14.683012,Raven Lachica,946958432522813440,2020-02-29 11:57:48,,city,"Quezon City, National Capital Region",Republic of the Philippines
88,140.39626,35.592663,,946958547828346880,2020-03-26 10:35:56, ,poi, ,Japan
205,-0.094273,51.483196,BIG little LDN,946958621140815872,2020-03-17 08:22:49,"London, England",poi,Golazio,United Kingdom
222,107.74961,-6.56123,ig:berkataindaah,946958734332346368,2020-05-16 05:59:15,my wattpad acc,city,"Subang, Indonesia",Indonesia
82,75.96818400000002,22.6714825,Monu Singh Mann,946958870504599553,2020-03-30 10:52:18,"Indore, India",city,"Indore, India",India
222,111.52198,-7.626125,nyarijodohpadahaljodohtakdir,946958914246942720,2020-03-16 14:32:37,"Malang, Jawa Timur",city,"Mangunharjo, Indonesia",Indonesia
38060,-112.378258,33.628186,Peter Soeth,9469592,2020-02-21 20:48:05,"Westminster, CO, USA",poi,Surprise Stadium,United States
14500,-105.072231,39.9472495,Peter Soeth,9469592,2020-02-29 23:32:06,"Westminster, CO, USA",city,"Broomfield, CO",United States
19740,-105.068348,39.8992865,Peter Soeth,9469592,2020-03-01 17:18:28,"Westminster, CO, USA",city,"Westminster, CO",United States
119,-96.7250025,17.090319,M i s h e l l ,94696007,2020-03-04 05:36:56,Mexico T: 17.070236,city,"Oaxaca de Jurez, Oaxaca",Mxico
222,106.94990800000001,-6.295911,F. Ray,946960122,2020-02-17 05:33:29,,city,"Jatiasih, Indonesia",Indonesia
119,-100.44059449999999,20.7152745,Eloy Diaz Arias,946960235356409856,2020-03-20 03:45:13,"Quertaro, Quertaro Arteaga",city,"Quertaro, Quertaro Arteaga",Mxico
171,121.424622,13.946010500000002,Clarissa Mae ,946960262665404418,2020-04-13 14:26:01,"Candelaria, Calabarzon",city,"Candelaria, Calabarzon",Republic of the Philippines
42020,-120.587,35.1209,The Blended Life,946960579658256384,2020-02-14 06:28:36,"California, USA",city,"Arroyo Grande, CA",United States
31080,-117.89,33.8362,The Blended Life,946960579658256384,2020-02-16 07:24:35,"California, USA",city,"Anaheim, CA",United States
42020,-120.587,35.1209,The Blended Life,946960579658256384,2020-02-19 04:24:32,"California, USA",city,"Arroyo Grande, CA",United States
42200,-119.714,34.4258,The Blended Life,946960579658256384,2020-03-10 04:21:48,"California, USA",city,"Santa Barbara, CA",United States
42020,-120.587,35.1209,The Blended Life,946960579658256384,2020-03-11 05:30:49,"California, USA",city,"Arroyo Grande, CA",United States
42200,-119.714,34.4258,The Blended Life,946960579658256384,2020-03-18 01:31:58,"California, USA",city,"Santa Barbara, CA",United States
42020,-120.663,35.2743,The Blended Life,946960579658256384,2020-03-19 02:36:30,"California, USA",city,"San Luis Obispo, CA",United States
42200,-119.714,34.4258,The Blended Life,946960579658256384,2020-04-02 16:36:31,"California, USA",city,"Santa Barbara, CA",United States
42020,-120.587,35.1209,The Blended Life,946960579658256384,2020-04-03 14:21:26,"California, USA",city,"Arroyo Grande, CA",United States
186,-3.444793,40.3001525,,946960717378408448,2020-05-08 00:09:37,madrid ,city,"Arganda del Rey, Espaa",Espaa
82,85.48834649999999,26.1473595,VIVEK KUMAR CHAUDHARY,946960930193121280,2020-03-30 09:10:03,"Bihar, India",city,"Purba Muzaffarpur, India",India
171,121.01080300000001,14.483414000000002,r0i,946961248486244352,2020-02-14 13:45:12,,city,"Paranaque City, National Capital Region",Republic of the Philippines
88,130.33868950000002,33.510389,,946961648488550400,2020-03-26 10:13:28,,city,  ,
21,-43.441578,-22.911421500000003,mame do Luiz,946961648702681089,2020-06-10 02:36:57,Me,city,"Rio de Janeiro, Brasil",Brasil
18140,-82.985772,39.9946835,Maria/J,946961791954939906,2020-03-16 02:19:33,En Los Brazos de Joel,city,"Columbus, OH",United States
45460,-87.411448,39.467631,Tiara Jackson,946961828831166464,2020-02-20 18:33:09,"East Chicago, IN",poi,Indiana State University,United States
16980,-87.44867099999998,41.6497845,Tiara Jackson,946961828831166464,2020-03-14 22:53:41,"East Chicago, IN",city,"East Chicago, IN",United States
85,11.257492,43.772988,@Stella,946962215076167680,2020-02-23 17:00:41, ,poi,Museo dell'Opera del Duomo,Italy
211,-67.03814700000001,10.3423505,Pedro,94696225,2020-02-14 05:09:06,,city,"Los Teques, Venezuela",Venezuela
88,139.6735625,35.76839800000001,,946962692060807168,2020-02-15 09:56:28, ,city, ,
88,131.687724,33.175290000000004,kon,946962774,2020-02-17 04:27:20,,city, ,
96,47.90986326,29.29496161,,946963311324778501,2020-02-15 19:25:38,Kuwait,city," ,  ", 
88,130.631394,31.735590000000002, @,946963463070294016,2020-03-15 05:20:09,,poi,Chanaan,
119,-98.940823,19.282088,ESTHELLA R.,946963789,2020-04-22 00:39:17,D.F.,city,"Valle de Chalco Solidaridad, Mxico",Mxico
35620,-74.194771,39.956098,Steevo,946964424513990656,2020-04-28 16:21:37,"Portland, OR",poi,Biology,United States
175,49.6276765,25.458642,F6m,946964676,2020-04-18 13:34:15,k.s.a,city,",   ",  
82,78.7914475,28.9229935,Ajeet Singh Bhati,946965377686290432,2020-03-28 08:39:07,"Meerut, India",city,"Moradabad, India",India
88,139.72994350000002,35.76519000000001,,94696543,2020-04-17 09:34:32,,city, ,
40900,-121.469664,38.561721999999996,*^!princess z+**,946965533571801089,2020-05-24 20:46:41,Vegas ,city,"Sacramento, CA",United States
82,76.232265,16.917347,VITTAL G KOLLUR,946965749070831621,2020-05-23 17:36:33,"SINDAGI , VIJAYAPURA DISTRICT",city,"Sindgi, India",India
35620,-74.03031700000001,40.76662,Ms. Finesse,946965896140152832,2020-02-15 00:39:32,,city,"Union City, NJ",United States
19660,-81.22000849999999,28.9045905,Ms. Finesse,946965896140152832,2020-03-27 12:28:35,,city,"Deltona, FL",United States
12580,-76.794891,39.368037,Brian Short,946965924,2020-03-01 19:21:42,Randallstown,city,"Randallstown, MD",United States
82,72.357374,23.540346,Manish GarG,946966184754216961,2020-04-02 04:23:20,"Gujarat, India",city,"Mahesana, India",India
26420,-95.4464865,29.838495,marco flores,946966541098242048,2020-02-25 20:36:39,"Houston, TX",city,"Houston, TX",United States
117,58.4641695,23.549159000000003,samt,946966628,2020-02-14 10:27:48,,city,",  ", 
37980,-75.117998,40.0048655,"Maxi's Pizza, Subs & Bar",946966994,2020-02-14 15:53:20,1926 Liacouras Walk,city,"Philadelphia, PA",United States
119,-103.40758100000001,20.489709,Jos Luis Beltrn Aguilar,946967295213129728,2020-03-27 16:01:13,"Tlajomulco de Ziga, Jalisco",city,"Tlajomulco de Ziga, Jalisco",Mxico
8,-68.8666875,-32.8833425,Berto,94696753,2020-02-14 18:50:33,Medocity,city,"Mendoza, Argentina",Argentina
14460,-70.909193,42.177291,kels,946967639829766144,2020-04-15 05:13:00,joe mama,poi,BabyGap,United States
24,-75.80014150000001,45.248791,Beatrix,946967671114833922,2020-06-08 19:48:56,Canada,city,"Ottawa, Ontario",Canada
171,120.9839865,14.5914565,r o s i n,946967893438119937,2020-02-14 06:28:13,Marikina City,city,"Manila City, National Capital Region",Republic of the Philippines
36420,-97.4415095,35.4497225,Button,946969057,2020-02-14 22:27:38,,city,"Del City, OK",United States
49660,-80.63954050000002,41.105271,deena east,946969104178647042,2020-04-28 09:48:01,,city,"Youngstown, OH",United States
21,-44.1754915,-22.487255,bandida ,946969403979108352,2020-04-02 17:33:46,Barra Mansa,city,"Barra Mansa, Brasil",Brasil
69,-0.1842935,5.6231985,Irene,946969620715536384,2020-02-21 21:46:31,,city,"Accra, Ghana",Ghana
82,77.095086,28.638489500000002,Ram Prasad,946969813523374080,2020-04-24 11:57:27, ,city,"New Delhi, India",India
88,139.8539435,35.75395949999999,,94697020,2020-03-02 14:00:50,,city, ,
82,77.219672,28.631746999999997,Vinay Rajoriya,946970227295756288,2020-05-18 07:44:48,"Loni, Ghaziabad",city,"New Delhi, India",India
12580,-76.36197299999999,39.557284,Robert Merritt,946970269,2020-02-15 19:20:13,Baltimore Maryland,city,"Bel Air North, MD",United States
175,39.2541285,21.5857105,,946970366693576707,2020-02-14 13:48:35,,city,",   ",  
18140,-82.7410435,39.8902325,Paula,946970675390054400,2020-03-31 01:00:25,"Pickerington, OH",city,"Pickerington, OH",United States
45660,-83.18478350000002,41.1147845,Paula,946970675390054400,2020-05-02 02:02:57,"Pickerington, OH",city,"Tiffin, OH",United States
96,48.117319,28.599140999999996,Mubarak.H.R.Kh,946970675708923905,2020-02-14 10:05:26,"London, England",city,"Wafra Farms, Kuwait",Kuwait
128,3.2249,51.2085,Mubarak.H.R.Kh,946970675708923905,2020-02-25 13:04:30,"London, England",city,"Bruges, Belgium",Belgium
96,47.95448805,29.33629251,Mubarak.H.R.Kh,946970675708923905,2020-03-27 12:18:05,"London, England",city,"Kifan, Kuwait",Kuwait
175,48.092122499999995,28.538121999999998,Mubarak.H.R.Kh,946970675708923905,2020-03-29 09:00:14,"London, England",city,"Wafra Farms, Kuwait",Kuwait
96,47.95448805,29.33629251,Mubarak.H.R.Kh,946970675708923905,2020-04-16 15:58:55,"London, England",city,"Kifan, Kuwait",Kuwait
175,48.092122499999995,28.538121999999998,Mubarak.H.R.Kh,946970675708923905,2020-04-27 10:33:09,"London, England",city,"Wafra Farms, Kuwait",Kuwait
96,47.959307,29.340185499999997,Mubarak.H.R.Kh,946970675708923905,2020-04-27 14:17:32,"London, England",city,"Kifan, Kuwait",Kuwait
175,48.092122499999995,28.538121999999998,Mubarak.H.R.Kh,946970675708923905,2020-05-26 08:17:00,"London, England",city,"Wafra Farms, Kuwait",Kuwait
96,48.0878215,28.60718,Mubarak.H.R.Kh,946970675708923905,2020-05-26 09:59:41,"London, England",city,"Wafra Farms, Kuwait",Kuwait
175,48.092122499999995,28.538121999999998,Mubarak.H.R.Kh,946970675708923905,2020-05-30 08:31:11,"London, England",city,"Wafra Farms, Kuwait",Kuwait
96,47.959307,29.340185499999997,Mubarak.H.R.Kh,946970675708923905,2020-05-30 12:18:44,"London, England",city,"Kifan, Kuwait",Kuwait
33,-73.0475761,-36.822334000000005,Cotegut,946970917,2020-03-23 17:28:22,"Concepcin, Chile",city,"Concepcin, Chile",Chile
208,-55.86131999999999,-34.795252000000005,Lea ,946970978,2020-02-16 21:49:22,"Montevideo, Uruguay",poi,Playa Neptunia,Uruguay
37860,-87.2029615,30.521057,Jweldone,946971037375258624,2020-05-02 18:57:23,Flo2,city,"Ferry Pass, FL",United States
14500,-105.1122165,40.1659305,Dartanian,946971296356814849,2020-04-30 10:48:35,"Longmont, CO",city,"Longmont, CO",United States
8,-64.1980255,-31.4154565,AzuAvalos,946971330515173376,2020-02-16 22:09:23,"Crdoba, Argentina",city,"Crdoba, Argentina",Argentina
14,90.421947,23.81794,Shamanta Islam,946971465844269057,2020-04-28 19:25:18,"Dhaka, Bangladesh",poi,Kuril,Bangladesh
16980,-88.11324499999999,41.85174000000001,Andrew Wesley Hood,946972328,2020-02-20 14:15:02,,city,"Wheaton, IL",United States
20220,-90.7104695,42.510656,Andrew Wesley Hood,946972328,2020-03-22 22:07:33,,city,"Dubuque, IA",United States
16980,-88.41916549999998,41.638108,Andrew Wesley Hood,946972328,2020-03-26 13:10:52,,city,"Yorkville, IL",United States
39900,-119.82718200000001,39.512436,aqua,946972336925810688,2020-02-16 07:43:38,"Ewa Beach, HI",city,"Reno, NV",United States
191,7.501384,46.889749,stettler,946972735720382464,2020-03-16 19:47:20,"Belp, Schweiz",poi,Restaurant Frohsinn,Switzerland
38,-74.24367099999999,4.2622835,DIONISIO MORA OLARTE,94697283,2020-03-13 03:06:34,bogota colombia,city,"Bogot, D.C., Colombia",Colombia
21,-43.5243665,-22.696528,Pedro Roque,946972995825872901,2020-02-15 00:26:19,"Nova Iguau, Brasil",city,"Nova Iguau, Brasil",Brazil
151,3.41583333,6.43111111,The 'Debiyi,946973173,2020-02-17 15:14:52,Lagos Nigeria,city,"Victoria Island, Nigeria",Nigeria
21,-43.1079295,-22.1203545,loiraa,946973808514256896,2020-02-14 02:39:29,na sua que eu nao to,city,"Trs Rios, Brasil",Brasil
82,75.173271,33.771234,Tariq dar,946974071383719936,2020-03-28 16:14:46,,poi,"Nanil village, district Anantnag",
82,73.910077,18.5081615,Manishdubey,946974681579638785,2020-05-01 18:18:07,"Pune, India",city,"Haveli, India",India
151,3.3386055,6.4931125000000005,AMANA||SH-DESIGNZ,94697485,2020-03-06 12:59:16,evrigaddamncity,city,"Lagos, Nigeria",Nigeria
31080,-118.5032585,34.415631,Saeed Shahroki,946974892393512960,2020-02-14 14:37:56,"Santa Clarita, CA",city,"Santa Clarita, CA",United States
12700,-70.5002,41.7589,Sandwich Lodge,94697490,2020-03-05 21:53:17,"Sandwich, Cape Cod, MA USA",city,"Sandwich, MA",United States
222,122.589855,-5.4969945,Sinta Herawati,946974954934829056,2020-05-06 00:40:20,"Kota Baubau, Sulawesi Tenggara",city,"Betoambari, Indonesia",Indonesia
21,-43.441578,-22.911421500000003,Igor Gabriel,946974981451403270,2020-02-14 00:07:36,Morro do urubu ,city,"Rio de Janeiro, Brasil",Brasil
82,85.601673,21.6369585,Biraja Mishra,946975213001912320,2020-05-20 14:44:12,"Kendujhar, India",city,"Kendujhar, India",India
8,-60.69740600000001,-32.9516155,evelyn,946975308,2020-06-04 03:05:51,,city,"Rosario, Argentina",Argentina
82,74.736304,34.177133999999995,Wani Hameed,946975796958081025,2020-04-06 17:46:29, Jammu And Kashmir,city,"Baramula, Jammu And Kashmir",
200,29.4044435,38.664602,Ferhat Karaman,946975836,2020-02-17 19:58:51,"Usak, Turkey",city,"Uak, Trkiye",Turkey
65,2.0459425,49.0373965,frenchcali,946975962977234944,2020-03-27 23:37:22,"Saint-Ouen-l'Aumne, France",city,"Cergy, France",France
82,78.5982595,17.365102999999998,Brilliant Ravi babu,946976125955186689,2020-03-18 08:14:07,"Hyderabad, India",city,"Hayathnagar, India",India
21,-35.91645914,-7.20873721,Edinaldo Pontes (Jnior),946976818371932160,2020-03-11 17:54:31,"Guarabira, Brasil",city,"Campina Grande, Brasil",Brasil
200,29.0052225,41.0213205,mehmet.koyun,94697694,2020-03-31 20:16:39,"Beylikdz, Trkiye",city,"stanbul, Trkiye",Trkiye
21,-43.3697645,-22.7854705,Leandro ,946977028275884032,2020-06-08 10:47:59,"So Joo de Meriti, Brasil",city,"So Joo de Meriti, Brasil",Brasil
119,-97.922756,19.3343475,Diana Aline ,946977221540954113,2020-02-14 06:18:15,,city,"Huamantla, Tlaxcala",Mxico
88,135.71397222,34.99352778,guesthouse KYOTO COMPASS,94697725,2020-02-16 07:23:43,  115,city,  ,
222,107.77430600000001,-6.9220619999999995,,946977261718081536,2020-02-23 10:59:00,,city,"Cikeruh, Indonesia",Indonesia
222,110.373078,-7.085769,namanyayana,946977343834169344,2020-02-29 05:33:32,Indonesia,poi,SMIT BINA AMAL,Indonesia
88,136.62409729,34.96704321,yanahei,94697738,2020-02-15 02:31:01,,city, ,
82,72.846664,19.061392,Haridev,946977614,2020-03-23 06:09:42,,poi,Kherwadi,India
171,121.4726975,16.700847,Andy Hyner,946977731983446016,2020-05-31 18:54:30,"Cagayan Valley, Philippines",city,"Santiago City, Cagayan Valley",Republic of the Philippines
88,141.811746,45.346294,,946977971335610368,2020-02-15 00:20:35,,city, ,
151,8.340073,4.976338,ODOBI92,946978320721305600,2020-02-18 18:40:23,"Calabar, Nigeria",city,"Calabar, Nigeria",Nigeria
82,77.095086,28.638489500000002,Nidhi Raj Bindra,946978414983913472,2020-03-17 03:34:08,,city,"New Delhi, India",India
36740,-81.2664,28.8123,sir_andres,946978567,2020-02-18 04:00:21,via lactea,city,"Sanford, FL",Estados Unidos
49,-78.42130587,-1.39720497,sir_andres,946978567,2020-02-22 23:15:46,via lactea,city,"Baos De Agua Santa, Ecuador",Ecuador
41180,-90.247824,38.653771,dhampton44,946978623302627328,2020-04-21 02:30:41,,city,"St Louis, MO",United States
88,133.24315,35.529728000000006,,946978787652075521,2020-02-16 09:20:04,,poi, ,
171,121.06841899999999,14.706442000000001,pema,946978845701189632,2020-04-12 11:38:39,palawan,poi,West Fairview,Republic of the Philippines
171,120.980221,14.553575,denz,946978873723334656,2020-03-09 08:49:18,,poi,Sofitel Philippine Plaza Manila,
119,-98.20563608,19.03545216,HUGO VITAZ HERZ,94697892,2020-02-14 15:17:31,"Mxico, Puebla",city,"Puebla, Mxico",Mxico
19100,-97.3944605,32.368444000000004,Kirsten. ,946979063155118080,2020-04-01 12:50:17,,city,"Cleburne, TX",United States
43780,-86.290863,41.6796555,Peri Arnold,946979436,2020-04-10 14:46:54,University of Notre Dame,city,"South Bend, IN",United States
200,36.91702,40.586220000000004,Cihat,946979512532783104,2020-06-05 10:23:31,"Niksar, Tokat",poi,Niksar Sanayi,Trkiye
222,115.244529,-8.6334075,remahan rempeyek,946979773,2020-02-21 13:56:47,"Denpasar, Bali",city,"Denpasar Timur, Indonesia",Indonesia
193,100.68027099999999,13.646635999999999,'  ,94697990,2020-03-15 05:50:33,Your Heart,poi,Megabangna (),Thailand
171,120.54833300000001,15.662125,ela,946980052943609856,2020-05-22 15:10:49,ssob,city,"Paniqui, Central Luzon",Republic of the Philippines
65,2.347003,48.8588335, STARGIRL ,946980128755773445,2020-02-17 17:42:46,,city,"Paris, France",France
37980,-75.33749350000001,39.920854999999996,DeFran,9469802,2020-06-10 22:33:31,,city,"Springfield, PA",United States
41860,-122.43597849999999,37.7706565,Vanessa,946980823,2020-02-24 01:14:18,"Oakland, CA",city,"San Francisco, CA",United States
33,-70.5674,-33.409,Alejandro Beovic O,94698103,2020-06-02 16:35:25,"Santiago, Chile",city,"Las Condes, Chile",Chile
41940,-121.8737305,37.331159,M* ,946981519,2020-06-03 04:55:47,Silicon Valley - San GLOse,city,"San Jose, CA",United States
88,139.8539435,35.75395949999999,,946981585248665600,2020-02-17 09:52:48,,city,"Katsushika-ku, Tokyo",Japan
72,144.79363,13.503860999999999,,946981585248665600,2020-03-10 04:31:19,,poi,P. I. C. Beach,United States
88,139.7820505,35.739796500000004,,946981585248665600,2020-03-20 22:58:31,,city,"Arakawa-ku, Tokyo",Japan
82,72.87424399999999,19.174139999999998,Ankur Jha,946982013306671104,2020-02-28 13:06:01,"Mumbai, India",city,"Mumbai, India",India
222,110.4477,-6.986659,dewi nur rahmah,946982036090187778,2020-03-10 11:43:29,,city,"Gayam Sari, Indonesia",Indonesia
88,139.795028,35.626359,@,946982120,2020-04-30 22:14:57,,poi,,
69,-0.1842935,5.6231985,TOLANI,946982404606001153,2020-02-21 01:11:50,Lagos ,city,"Accra, Ghana",Ghana
14500,-105.1122165,40.1659305,Michael Sheridan,946982647,2020-02-29 00:39:03,"Denver, CO",city,"Longmont, CO",United States
88,139.68824949999998,36.34783450000001,au,946983086,2020-04-13 20:08:13,,city, ,
35620,-73.9685415,40.780709,Tom Osborne,94698372,2020-02-14 02:40:16,London,city,"Manhattan, NY",United States
205,-0.17311500000000002,51.5248355,Tom Osborne,94698372,2020-02-23 15:00:33,London,city,"Paddington, London",United Kingdom
222,107.71333899999999,-6.922609, aunk,946983744,2020-05-17 09:47:17,alam lelembutan,poi,Cilengkrang 2,Indonesia
222,110.344451,-7.696096499999999,iantz,94698386,2020-03-11 06:59:46,Yogyakarta,city,"Sleman, Indonesia",Indonesia
88,139.6735625,35.76839800000001,4,946984102296633344,2020-03-14 11:58:20, ,city, ,
24,-123.19147099999999,49.248765,Karyn Roberts,946984308979376128,2020-05-10 04:12:57,"Vancouver, British Columbia",poi,Chaldecott Park,Canada
41860,-121.979527,37.5236445,,946984317405630464,2020-02-14 02:26:08,ALEX,city,"Fremont, CA",United States
44700,-121.436217,37.72335,,946984317405630464,2020-03-27 23:18:52,ALEX,city,"Tracy, CA",United States
41860,-121.979527,37.5236445,,946984317405630464,2020-04-02 20:08:13,ALEX,city,"Fremont, CA",United States
44700,-121.436217,37.72335,,946984317405630464,2020-04-15 05:05:45,ALEX,city,"Tracy, CA",United States
41860,-121.979527,37.5236445,,946984317405630464,2020-04-17 19:49:17,ALEX,city,"Fremont, CA",United States
44700,-121.436217,37.72335,,946984317405630464,2020-05-23 03:47:43,ALEX,city,"Tracy, CA",United States
119,-98.84299,21.0139,H.,946984332987580416,2020-03-06 03:02:20,,city,"Tepehuacn de Guerrero, Hidalgo",Mxico
42660,-122.3306025,47.614816999999995,ginger spice ,946984501,2020-02-14 01:05:47,"Seattle, WA",city,"Seattle, WA",United States
88,139.595272,35.667869,,946984541415129088,2020-03-24 14:38:03,,poi, HANA,
38060,-111.7408895,33.6039105,Sophie Gaardsmoe,946984675,2020-03-23 05:51:31,"Scottsdale, AZ",city,"Fountain Hills, AZ",United States
37100,-119.16538899999999,34.181956,StevieMac59,94698485,2020-02-27 00:53:06,Ventura CA,city,"Oxnard, CA",United States
88,141.37527350000002,38.439192999999996,,94698519,2020-02-27 11:57:31,,city, ,
82,74.8861765,30.44879,Deepak Garg,946985663596961792,2020-05-02 12:15:30,"Jaitu, India",city,"Jaitu, India",India
171,123.94286100000001,10.3553425,E R I K A,946985752415440896,2020-02-16 06:42:20,"Tacloban City, Eastern Visayas",city,"Mandaue City, Central Visayas",Republic of the Philippines
82,75.789748,31.267471,Rohit Sutti Photography,946985800591220736,2020-03-18 18:07:30,"Phagwara, India",city,"Phagwara, India",India
82,73.7125,24.5854,Pankaj,946985873647607808,2020-03-09 21:46:31,"Rajasthan, India",city,"Udaipur, India",India
21,-41.9396195,-18.795445,marcuos3@hotmail.com,946985934414852096,2020-03-11 22:26:40,"Governador Valadares, Brasil",city,"Governador Valadares, Brasil",Brasil
88,139.7091805,35.701657, / cheenoo,946986062521425921,2020-02-28 05:53:05, ,city, ,
222,106.530864,-6.1692395,Sukarman Pbg,946986467363926016,2020-03-05 12:21:34,"Pasar Kemis, Indonesia",city,"Pasar Kemis, Indonesia",Indonesia
151,3.3180660000000004,6.590611,Iam_dj_dimo_official,946986622230376448,2020-04-27 14:33:58,Ayobo,city,"Ikeja, Nigeria",Nigeria
19100,-97.04442900000001,32.89777,the #1 car seat headrest hater,946986799783645184,2020-03-14 22:04:00,"Torrelodones, Espaa",poi,U.S. Customs and Border Protection,United States
82,78.3852855,17.3950375,Sridhar Gundlapally,946986825788276741,2020-04-01 04:33:28,"Hitech City, Rajendra Nagar",city,"Rajendra Nagar, India",India
88,139.2093965,36.3255965,,946986892687417345,2020-06-04 14:31:11, ,city, ,
31080,-118.29011984,34.09791103,Robin horak,946986916649431041,2020-06-04 18:03:40,"Los Angeles, CA",city,"Los Angeles, CA",United States
88,133.00512650000002,34.4553855,,94698719,2020-02-19 06:46:05,HIROSHIMA,city, ,
21,-43.018208,-22.821465,Rayna,946987260,2020-02-18 02:41:05,,city,"So Gonalo, Brasil",Brasil
96,47.938498,29.2728375, ,946987314114383873,2020-02-14 10:38:24,,city,"Ashbeliah, Kuwait",Kuwait
88,131.168441,33.951116,,946987331478630400,2020-05-31 12:55:28,,poi,,
82,77.69233050000001,14.126957999999998,Bhaskar Yadav,946987495861903360,2020-03-04 12:54:50,,city,"Puttaparthi, India",India
96,47.936147,29.337996999999998,,946987588300296192,2020-02-21 14:26:58, -   .,poi,Starbucks, 
21,-64.52161749999999,-8.984888,bi,946987801664507905,2020-02-25 23:25:15,Pvhell,city,"Porto Velho, Brasil",Brasil
42660,-122.3306025,47.614816999999995,Kevin Caravaggio,946987934569324544,2020-02-14 02:00:50,"Seattle, WA",city,"Seattle, WA",United States
119,-98.198326,19.086762,Lz ,94698814,2020-02-28 17:20:18,"Puebla, Mexico",poi,Hospital de Traumatologa y Ortopedia de Puebla,Mxico
15380,-78.85356300000002,42.8962295,Jenna,946988142,2020-02-16 21:50:34,"Buffalo, NY",city,"Buffalo, NY",United States
119,-98.787435,19.4685455,Darell Sison,9469882,2020-03-02 14:04:24,Mexico,city,"Texcoco, Mxico",Mexico
159,-57.60601750000001,-25.300264000000002,Mrcio Arajo,94698870,2020-02-15 17:07:32,"Asuncin, Paraguay",city,"Asuncion, Paraguay",Paraguay
31080,-118.4119065,34.0207895,,946988874,2020-02-15 02:14:52,,city,"Los Angeles, CA",United States
117,58.202659,23.650447,Shihab Badar,946988997951262720,2020-02-27 16:03:19,"23,Nov",poi,Masjid Awlad Tariq,Oman
88,139.5043461,35.312250799999994,,946989082030227456,2020-02-26 10:58:58, ,city, ,
33,-71.5486,-33.0249,Matas Arese,946989192348913665,2020-04-12 20:17:35,Ciudad Autnoma de Buenos Aire,city,"Via del Mar, Chile",Chile
88,139.5553615,35.78968000000001,.,946989402496016384,2020-05-05 11:57:19,Tokyo. Japan.,city,"Niiza-shi, Saitama",Japan
120,102.0051115,2.711097,heh,946989473400627201,2020-02-22 07:33:19,,city,"Ampangan, Negeri Sembilan",Malaysia
193,100.6864075,13.9462495,V,94698956,2020-02-14 09:44:41,,city,", ",
34980,-86.77972199999999,36.16449,Shreeti Amit,946989561820958721,2020-02-27 18:00:42,"Tennessee, USA",poi,Maggie's Arcade Grill,United States
40140,-116.2781615,33.668045500000005,Riley ,946989690363699201,2020-04-18 10:02:36,"La Quinta, CA",city,"La Quinta, CA",United States
24,-79.753237,42.789815000000004,Germania Club,946989751,2020-03-19 02:46:55,"Hamilton, ON",city,"Haldimand County, Ontario",Canada
171,120.305346,14.859929500000002,,946989778263773185,2020-05-02 11:09:14,"Subic, Central Luzon",city,"Subic, Central Luzon",Republic of the Philippines
10540,-123.095999,44.6311335,q,946989955422740480,2020-02-14 01:23:14,oregon | 16 | she/her,city,"Albany, OR",United States
38900,-122.6413875,45.3693065,q,946989955422740480,2020-02-20 21:21:57,oregon | 16 | she/her,city,"West Linn, OR",United States
29820,-115.12884650000001,36.1364125,q,946989955422740480,2020-02-21 23:59:03,oregon | 16 | she/her,city,"Winchester, NV",United States
10540,-122.9055245,44.534596,q,946989955422740480,2020-02-26 23:28:20,oregon | 16 | she/her,city,"Lebanon, OR",United States
38900,-122.69639099999999,45.411248,q,946989955422740480,2020-03-02 01:09:16,oregon | 16 | she/her,city,"Lake Oswego, OR",United States
10540,-122.9055245,44.534596,q,946989955422740480,2020-03-02 04:47:26,oregon | 16 | she/her,city,"Lebanon, OR",United States
222,107.0264315,-6.7167155,Sabrina pratiwi,946990128,2020-02-20 13:13:43,"puncak ciloto, bogor indonesia",city,"Pacet, Indonesia",Indonesia
82,82.93295549999998,25.3733755,Omkar Nishad,946990139217133568,2020-05-09 10:18:35,"Chandauli, India",city,"Varanasi, India",India
82,85.10203849999998,25.569474,sex_sex_sex,946990367890489344,2020-04-09 23:53:43,"Patna, India",city,"Patna, India",India
171,121.0392605,14.5847555,Luna,946990416070557702,2020-06-06 11:59:17,Yr,city,"Mandaluyong City, National Capital Region",Republic of the Philippines
171,120.96950149999999,14.430456499999998,Batang90s,946990439000707072,2020-02-15 03:13:30,"Cavite City, Calabarzon",city,"Bacoor, Calabarzon",Republic of the Philippines
200,30.381503,40.7592495,Taha Albayrak,946990678466355200,2020-02-15 08:26:13,"Serdivan, Sakarya",city,"Sakarya, Trkiye",Trkiye
40820,-92.63383449999999,32.5369,Courtney Marie ,946990736427364352,2020-02-18 17:39:43,"Ruston, LA",city,"Ruston, LA",United States
82,83.2677215,17.725196,Rajeev Kumar,946991703172329478,2020-03-28 07:02:19,"Vishakhapatnam, India",city,"Vishakhapatnam, India",India
211,-66.930644,10.483539,Orlando E Fernandez,946991804,2020-03-19 00:09:48,,city,"Caracas, Venezuela",Venezuela
65,2.481242,48.837133,RENARD,946991804087459840,2020-04-15 10:08:11,"Nogent-sur-Marne, France",city,"Nogent-sur-Marne, France",France
21,-43.441578,-22.911421500000003,Messi10,946991946886762496,2020-06-05 04:11:59,Sabino Areal,city,"Rio de Janeiro, Brasil",Brasil
88,139.11601000000002,36.439459,2020,946991968273383424,2020-02-16 14:39:33, ,city,"Maebashi-shi, Gunma",Japan
88,140.11430283,35.60889167,takeshi_bull,94699231,2020-02-15 12:31:19,"(Kochi,Japan)",city,  ,
88,140.3163915,38.27889326,reina,946992554,2020-03-06 10:47:41,,city, ,
35620,-73.04587099999999,40.87152,Steven Ruggiero,946993135,2020-03-28 00:24:22,,city,"Selden, NY",United States
88,139.815545,35.715131,,946993323184496641,2020-03-07 10:44:23, ,city,"Sumida-ku, Tokyo",Japan
41180,-90.54625920000001,38.58708628,Diane Breer,946993333,2020-02-22 20:04:53,,city,"Ballwin, MO",United States
88,138.5155475,35.0824005,Garo,946993504324001792,2020-02-14 03:44:54, ,city,"Shimizu-ku, Shizuoka",Japan
42660,-122.34096936,47.609232,.,946994458045792256,2020-05-31 20:18:34,,city,"Seattle, WA",United States
120,101.552669,3.0512200000000003,Jibby88,946994671,2020-02-18 06:48:43,,city,"Damansara, Selangor",Malaysia
21,-46.5955455,-23.682803,Victor Saraiva,946995255727017984,2020-02-15 06:23:23,"Penha, So Paulo",city,"So Paulo, Brasil",Brasil
173,132.882307,42.835803999999996,markha,946995329760743425,2020-02-16 01:48:53,"Vladivostok, Russia",poi,Hesburger,Russia
82,77.221724,28.686984999999996,Manish Kumar,946995371267334145,2020-02-17 08:05:37,"Azadpur, New Delhi",poi,Vidhan Sabha,India
24,-79.298614,43.683745,euphoria,946995443870912512,2020-02-25 05:20:23,Canada,neighborhood,"East End-Danforth, Toronto",Canada
37980,-74.85533249999999,40.157637,Jilly,946996123,2020-02-17 01:32:40,"Levittown, PA",city,"Levittown, PA",United States
35620,-74.01145,40.222272,Jilly,946996123,2020-05-15 00:24:32,"Levittown, PA",city,"Asbury Park, NJ",United States
37980,-74.85533249999999,40.157637,Jilly,946996123,2020-05-15 13:37:03,"Levittown, PA",city,"Levittown, PA",United States
41700,-98.3801845,29.518532500000003,snflwr,946996378177286144,2020-02-16 19:17:25,,city,"Windcrest, TX",United States
31180,-101.897173,33.5705265,snflwr,946996378177286144,2020-03-12 15:28:00,,city,"Lubbock, TX",United States
41700,-98.5406515,29.417501,snflwr,946996378177286144,2020-03-15 16:07:55,,city,"San Antonio, TX",United States
31180,-101.897173,33.5705265,snflwr,946996378177286144,2020-03-19 22:36:56,,city,"Lubbock, TX",United States
41700,-98.5406515,29.417501,snflwr,946996378177286144,2020-06-02 15:13:40,,city,"San Antonio, TX",United States
82,73.19787600000001,22.276424,Hrishikesh Shirke,946996612013817856,2020-05-26 02:30:39,", ",poi,kubereswar mahadev,India
16980,-87.7588005,41.843776,daKGma,946996766322421760,2020-04-10 20:01:10,"Chicago, IL",city,"Cicero, IL",United States
82,75.6796755,16.749633499999998,girish s satalagaon,946997172767113222,2020-02-28 04:16:40,,city,"Bijapur, India",India
171,123.42111799999999,13.4408395,,946997264655904768,2020-03-10 07:39:08,,city,"Iriga City, Bicol Region",Republic of the Philippines
173,36.1863695,51.7163395,sweet sugar,946997402178867200,2020-03-09 06:20:29,", ",city,", ",
16740,-81.01477600000003,34.915568500000006,Michael Hirvela,946997570,2020-03-07 23:44:11,"Apex, NC",city,"Rock Hill, SC",United States
20500,-79.01957800000001,35.732339,Michael Hirvela,946997570,2020-03-29 00:10:17,"Apex, NC",poi,Jordan Lake State Recreation Area,United States
39580,-78.85507799999998,35.7232,Michael Hirvela,946997570,2020-04-06 12:18:09,"Apex, NC",city,"Apex, NC",United States
200,27.006511,38.4079305,Mustafa Soylu,946997691845959681,2020-02-25 21:19:25,"zmir, Trkiye",city,"zmir, Trkiye",Trkiye
82,72.87424399999999,19.174139999999998,Dinanath Thakur,946997727866519552,2020-06-03 05:22:37,"Maharashtra, India",city,"Mumbai, India",India
10540,-123.1056185,44.548626, celestial naiad ,946997771160162304,2020-04-28 15:33:29,end of the world,city,"Tangent, OR",United States
18700,-123.27934350000001,44.5692455, celestial naiad ,946997771160162304,2020-04-28 15:52:22,end of the world,city,"Corvallis, OR",United States
10540,-123.095999,44.6311335, celestial naiad ,946997771160162304,2020-05-09 02:55:48,end of the world,city,"Albany, OR",United States
18700,-123.27934350000001,44.5692455, celestial naiad ,946997771160162304,2020-05-09 18:05:11,end of the world,city,"Corvallis, OR",United States
82,73.031286,26.173613,Krishna,946997834942783490,2020-02-29 18:56:47,,city,"Jodhpur, India",India
82,84.98814899999998,25.2131165,Sanjeev kumar,94699802,2020-05-10 01:21:54,,city,"Jehanabad, India",India
33,-70.527119,-33.531122499999995,nicolas diaz viveros,946998074,2020-02-20 01:48:09,,city,"La Florida, Chile",Chile
119,-99.2115105,19.4299345,diana hdez,946998126,2020-05-12 03:02:12,,city,"Miguel Hidalgo, Distrito Federal",Mxico
82,72.57023199999999,23.013959,NEHA,946998289982877697,2020-02-14 11:01:14,,city,"Ahmadabad City, India",India
225,55.365442,25.305996,Amira Badriya Hafizaha Allah,946998394941313024,2020-04-28 18:20:17,,poi,Sharjah Palace Hotel,United Arab Emirates
88,139.3906365,35.9363475,,946998977055961088,2020-03-01 04:57:10,,city, ,
36740,-81.5473325,28.480712,Maria Salerno,94699899,2020-03-14 02:16:26,"Manhattan, NY",city,"Lake Butler, FL",United States
16980,-87.732013,41.8335845,Hailie,946999007854956544,2020-02-18 09:34:24,"Chicago, IL",city,"Chicago, IL",United States
120,101.86212900000001,2.953135,{MAABAABS},946999698,2020-02-27 23:19:40,"Semenyih, Selangor",city,"Semenyih, Selangor",Malaysia
171,121.10031599999999,14.594326,tou,946999744521371649,2020-03-13 15:49:44,,poi,Dubai,
69,-2.1445819999999998,5.4321150000000005,SirPowerz,946999931470049280,2020-05-24 17:07:06,,city,"Prestea, Ghana",Ghana
47260,-76.36227600000002,37.0508965,showstopper,947000053071339520,2020-02-25 08:22:07,"Barnwell, SC",city,"Hampton, VA",United States
82,72.96310700000002,21.7683995,M hushein Patel,947000071333167104,2020-06-06 14:30:48,Kurchan,city,"Bharuch, India",India
38900,-122.67927949999999,45.5142475,BazbarianTv,947000148869005312,2020-05-10 00:53:58,"Portland, OR",neighborhood,"Downtown, Portland",United States
82,76.9213135,8.5292365,Yoon,947000214124093440,2020-03-20 18:16:16,"Trivandrum, India",city,"Trivandrum, India",India
160,-77.03460940000001,-12.05154931,Luis Navarro,947001390,2020-02-21 01:58:41,"Lima, Per",city,"Lima, Peru",Peru
82,76.21293349999998,19.591692499999997,Shoeb khatib,947001395437223936,2020-03-31 14:48:40,"Partur, India",city,"Partur, India",India
41860,-122.43699299999999,37.8060205,mac,947001727,2020-03-15 03:01:51,"San Francisco, CA",neighborhood,"Marina, San Francisco",United States
31080,-118.4119065,34.0207895,mac,947001727,2020-03-21 22:55:53,"San Francisco, CA",city,"Los Angeles, CA",United States
42200,-120.41958400000001,34.932367,Cris,947002429282717696,2020-02-17 03:11:46,"Santa Maria, CA",city,"Santa Maria, CA",United States
82,77.66287,28.912684999999996,Sumit sharma,947002723,2020-04-03 01:12:07,meerut,city,"Meerut, India",India
8,-58.748464500000004,-34.7028055,Ivan Lautaro,947002753804587008,2020-02-14 23:43:05,"Buenos Aires, Argentina",city,"Merlo, Argentina",Argentina
21,-48.4914895,-27.1655635,Ivan Lautaro,947002753804587008,2020-02-18 18:08:42,"Buenos Aires, Argentina",city,"Bombinhas, Brasil",Brazil
8,-58.748464500000004,-34.7028055,Ivan Lautaro,947002753804587008,2020-03-01 16:57:33,"Buenos Aires, Argentina",city,"Merlo, Argentina",Argentina
46060,-110.90913,32.25734,d,947003988,2020-04-27 18:34:01,az,poi,Specialists in Dermatology,United States
40900,-121.75756899999999,38.535544,groundhog step,947004182,2020-02-18 04:32:55,uc davis,poi,Tercero Quad,United States
33,-70.732546,-33.863052499999995,groundhog step,947004182,2020-04-22 04:36:28,uc davis,city,"Paine, Chile",Chile
88,130.354026,31.742507,,947004228,2020-02-14 02:05:30,13668,poi,,
82,77.23666999999999,28.54849,Akshay Kumar Mahto,947004259089842176,2020-04-07 08:31:18,"Ranchi, India",city,"New Delhi, India",India
171,120.305346,14.859929500000002,Jamaica Pamintuan,947004259131736065,2020-04-10 06:11:32,"Subic, Central Luzon",city,"Subic, Central Luzon",Republic of the Philippines
88,136.787554,34.508944,,947004709067296769,2020-02-22 03:26:33,,poi,,
90,35.711131,32.061088,Hannah Lindgren,947004836,2020-02-24 06:21:49,,poi, - ,Hashemite Kingdom of Jordan
11540,-88.393439,44.27824250000001,Hannah Lindgren,947004836,2020-02-25 07:15:49,,city,"Appleton, WI",United States
32260,-92.914988,42.0373395,Hannah Lindgren,947004836,2020-03-21 20:17:18,,city,"Marshalltown, IA",United States
18880,-86.5039395,30.49537,Papi Jose,947004955,2020-02-28 14:51:12,"Miami, FL",city,"Valparaiso, FL",United States
9,153.435273,-28.029239,mas ein?!,94700505,2020-06-02 07:19:07,"Gold Coast, Queensland",poi,Broadbeach Beach,Australia
42660,-122.427259,47.236653999999994,Ally,947005074,2020-02-15 02:00:51,"California, USA",poi,Tacoma Dome,United States
119,-99.310428,19.473794,marcoapud,947005381,2020-05-08 11:46:04,,city,"Naucalpan de Jurez, Mxico",Mexico
88,130.555749,31.522809000000002,,947005495,2020-02-18 01:22:12,,city, ,
31080,-117.88668999999999,33.99858,Element 6 Design,947005616135925760,2020-02-27 20:24:24,"Rowland Heights, CA",city,"Rowland Heights, CA",United States
161,73.03794500000002,33.603096,Raja Fahad Ali Khan,947005649707327488,2020-02-15 10:57:44,"Islamabad, Pakistan",city,"Rawalpindi, Pakistan",Pakistan
200,32.3343185,41.630276,Seher Kl,947005888421822464,2020-02-17 20:33:21,"Ankara, Trkiye",city,"Bartn, Trkiye",Trkiye
200,29.0052225,41.0213205,aziz ener,947005994722385926,2020-02-19 06:08:39,"Ataehir, stanbul",city,"stanbul, Trkiye",Turkey
24,-115.5688185,51.177144,Autumn,947006031762112512,2020-04-25 00:59:54,"Barberton, WA",city,"Banff, Alberta",Canada
38900,-122.611549,45.71185199999999,Autumn,947006031762112512,2020-04-25 01:49:10,"Barberton, WA",city,"Barberton, WA",United States
8,-68.5261,-31.5342,Ricardo Azcona,94700670,2020-02-21 15:13:38,San Juan Argentina,city,"San Juan, Argentina",Argentina
88,139.79419,35.71311,,947006715794296832,2020-02-19 13:11:49, ,poi, ,
205,-1.172266,52.969719,Dr.F.S.Sophia Senthil,947007103620866049,2020-03-03 20:55:49,"Nottingham, England",city,"Nottingham, England",United Kingdom
47900,-77.0143985,38.898603,the perfect pisces,947007140,2020-02-14 07:54:31,pisces  gemini sagittarius,city,"Washington, DC",United States
33100,-80.2333285,25.7823535,the perfect pisces,947007140,2020-03-06 18:37:05,pisces  gemini sagittarius,city,"Miami, FL",United States
29820,-115.13516499999999,36.060964500000004,the perfect pisces,947007140,2020-03-23 11:29:45,piscesgeminisagittarius,city,"Paradise, NV",United States
41860,-121.716454,37.931388,the perfect pisces,947007140,2020-03-23 19:38:50,piscesgeminisagittarius,city,"Brentwood, CA",United States
47900,-77.0143985,38.898603,nelson mandingo,947007140,2020-04-11 00:30:53,piscesgeminisagittarius,city,"Washington, DC",United States
33460,-93.27592023,44.97851311,Kate Klaus Photography,947007229,2020-02-27 22:13:32,"Minnesota, USA",city,"Minneapolis, MN",United States
171,120.9839865,14.5914565,Varsha Joelle,94700740,2020-03-19 00:28:13,,city,"Manila City, National Capital Region",Republic of the Philippines
88,127.75620500000001,26.273795, ,94700759,2020-02-14 23:41:04,,city, ,
171,120.982624,14.582741,Riel,947007844045406208,2020-03-01 14:54:56,"Makati, Philippines",poi,National Museum of Natural History,Republic of the Philippines
171,123.919422,10.309818,Sheila Mae,947008467163693056,2020-02-22 12:48:58,,poi,Radisson Blu Hotel Cebu,Republic of the Philippines
31140,-85.77096499999998,38.32792600000001,gerald murray,947008670,2020-06-11 01:57:21,Ypsilanti Michigan ,city,"Clarksville, IN",United States
9,115.9283185,-32.1501005,GGHS ,947008765798129664,2020-04-04 03:41:02,Australia,city,"Perth, Western Australia",Australia
82,81.8644645,21.2814035, ,947009274428801024,2020-05-22 07:29:17,"Tundra, Baloudabazar c.g.",city,"Raipur, India",India
21660,-123.1224015,44.065621,Grant Lemons,947009334,2020-02-29 04:58:04,"Portland, OR",city,"Eugene, OR",United States
38900,-122.630908,45.536402,Grant Lemons,947009334,2020-03-25 05:22:23,"Portland, OR",city,"Portland, OR",United States
169,26.9148,46.5699,Irinel Popa,94700939,2020-02-14 06:11:33,Bacau,city,"Bacu, Romnia",Romania
50,31.730576,31.402001000000002,Cuotinho,947009390296657920,2020-02-18 20:53:49, ,poi,New Damietta Beach,
19100,-96.991828,33.042437,Alice Pineiro Honest Talk,947009521716736000,2020-02-26 06:45:22,"Lewisville, TX",city,"Lewisville, TX",United States
28140,-94.5592815,39.1000485,YouTube Poop Serbia,947009539227955200,2020-03-05 01:40:51,they/them ,city,"Kansas City, MO",United States
119,-101.657708,21.115676999999998,Pepe Esca,94701011,2020-02-19 02:41:21,"Len, Guanajuato",poi,Estadio Len,Mxico
8,-60.69740600000001,-32.9516155,Ariel Locret,947010217,2020-02-16 13:17:35,,city,"Rosario, Argentina",Argentina
26420,-95.4464865,29.838495,tooniigg,947010263932440576,2020-04-04 11:28:01,,city,"Houston, TX",United States
171,120.828395,14.3396345,Triton,947010430978768897,2020-03-05 18:23:35,Tanza Cavite,city,"Tanza, Calabarzon",Republic of the Philippines
130,145.712271,15.241438, [Re:spects],94701058,2020-03-10 23:44:58,/TOKYO/JAPAN,poi,Maagaha Island,
88,140.3613985,35.812767, [Re:spects],94701058,2020-03-14 10:50:17,/TOKYO/JAPAN,city, ,
82,77.3508815,28.3312135,Naitik rathor,947010985893621763,2020-03-22 03:41:55,"Bah, India",city,"Faridabad, India",India
21,-43.275565,-22.903949,Raphael Gonalves,94701123,2020-02-28 10:43:16,Rio de Janeiro,poi,SuperVia - Estao Silva Freire,Brasil
193,100.90285300000001,13.306170999999999,,947011236314484736,2020-02-25 13:16:50,,poi,jones salad,
171,124.90884799999999,7.6035580000000005,patricia,947011662422228992,2020-03-07 17:35:09,"Kadingilan, Northern Mindanao",poi,"Kadingilan, Bukidnon",Republic of the Philippines
9,150.931975,-33.848244,Taniell,947011895914934272,2020-02-23 07:27:17,"Sydney, New South Wales",city,"Sydney, New South Wales",Australia
96,47.93913467,29.30328882,Afrah Alshameri,947012004107210752,2020-02-21 15:42:29,KWT,city,",  ", 
44300,-77.81326700000001,40.8134445,void scream,947012197,2020-06-10 04:58:22,,city,"Lemont, PA",United States
222,106.6367095,-6.186222,abrar,947012245,2020-03-08 14:57:33,,city,"Tangerang, Indonesia",Indonesia
82,76.41070450000002,30.2604745,Amit Gupta,947013107687211009,2020-05-08 19:57:13,"Mumbai, India",city,"Patiala, India",India
171,125.08339550000001,8.784783999999998, ,947013276193325056,2020-02-14 22:50:52,Republic of the Philippines,city,"Gingoog City, Northern Mindanao",Republic of the Philippines
205,0.2105895,51.560587,SatisfyYourManRomford,947013456,2020-02-18 16:15:51,"London, UK",city,"Romford, London",United Kingdom
88,140.89924399999998,38.38225,,947013487,2020-04-01 12:33:36,,city,"Tomiya-machi, Miyagi",Japan
88,130.439438,33.5816955,,947014327248097280,2020-02-20 00:57:29,,city,  ,
82,73.8178205,15.587210999999998,Abhishek Marathe,947014537487642624,2020-06-11 12:09:16,"Goa, India",city,"Bardes, India",India
88,136.51890300000002,34.893414,jiro,947014659734888448,2020-03-26 12:15:26,,city, ,
171,121.5245095,14.3765275,,947014748872122369,2020-05-20 08:50:08,sa puso mo,city,"Paete, Calabarzon",Republic of the Philippines
82,85.10203849999998,25.569474,ITS_AKASH,947015213714259968,2020-04-21 17:57:16,"Patna, India",city,"Patna, India",India
120,103.838094,1.5254035,AY,947015250221481985,2020-03-11 12:02:54,"Kuala Lumpur, Wilayah Persekut",city,"Plentong, Johor",Malaysia
43580,-96.106906,42.027471000000006,Bonita A Davis,947015280,2020-06-10 22:33:47,"Onawa, IA",city,"Onawa, IA",United States
96,48.0732715,29.214003,,947015549611110400,2020-02-25 03:16:16,Mars,city,"Al Qusour, Kuwait",Kuwait
175,43.9776075,26.055773499999997,saleh,947015658084106245,2020-02-15 12:02:36,,city,"Unayzah, Kingdom of Saudi Arabia",Kingdom of Saudi Arabia
21,-43.441578,-22.911421500000003,Weyder paiva,947015913856958464,2020-02-24 21:18:10,"Vila da Penha, Rio de Janeiro",city,"Rio de Janeiro, Brasil",Brasil
205,-3.11429,55.876197499999996,Connor Carmichael,947016312,2020-05-15 08:49:43,,city,"Bonnyrigg and Lasswade, Scotland",United Kingdom
38900,-123.111898,45.52213550000001,Sparkly Snoot Booper,947016474429755392,2020-02-15 17:56:24,"Forest Grove, OR",city,"Forest Grove, OR",United States
200,29.0052225,41.0213205, _ ,947016622937722880,2020-04-28 13:41:12,,city,"stanbul, Trkiye",Trkiye
50,29.965271,31.209021000000003,Ahmed Abouneama,947016711957569537,2020-05-20 15:40:10,", ",poi,   ,
31080,-118.304854,34.027615000000004,Jacky ,947016810020216834,2020-03-21 03:13:40,"Los Angeles, CA",poi,My House,United States
173,30.328698,59.934148, ,947016955130675201,2020-02-19 09:27:54,"-, ",city,"-, ",
82,85.10203849999998,25.569474,Harendra Singh,947017048260984832,2020-04-05 16:32:13,"Patna, Bihar ",city,"Patna, India",India
151,7.8823919999999985,8.851281,Muhammed Ali,947017327450771457,2020-02-15 17:42:04,"Lagos, Nigeria",city,"Keffi, Nigeria",Nigeria
88,135.56712249999998,34.6127395,,947017617495040000,2020-05-14 01:59:16,  ,city,  ,
29820,-114.60206699999999,35.1586065,,947017810013589504,2020-03-13 16:38:08,,city,"Laughlin, NV",United States
31080,-118.15597700000001,34.025816999999996,,947017810013589504,2020-05-24 14:48:34,,poi,Burger King,United States
175,42.0686715,18.529793,   ,947017955241492480,2020-02-14 16:45:53,"  ,   ",city,",   ",  
175,49.6276765,25.458642,Hkrook_99,947017996819628032,2020-02-15 16:48:17,  ,city,",   ",  
31140,-85.587937,38.043688,just Me,947018125,2020-06-10 21:03:53,"Kentucky, USA",city,"Mount Washington, KY",United States
19100,-97.2859135,32.7799665,Demetrius Wilson ,947018180781895680,2020-02-24 20:39:41,"Killeen, TX",city,"Fort Worth, TX",United States
178,28.060613,-26.058708,we know ,947018437615935488,2020-03-21 07:05:54,South Africa,city,"Sandton, South Africa",South Africa
82,81.3587455,21.158141,Puranik,947018674451255297,2020-04-06 06:51:18,"Chhattisgarh, India",city,"Bhilai, India",India
82,73.64087599999998,22.9014495,Kaushik Singhaniya,947018915741233152,2020-03-15 11:16:36,"Godhra, India",city,"Godhra, India",India
82,85.29276999999998,25.5082565,Saurabh Tiwari,947018923190317056,2020-05-07 14:56:20,"Patna, India",city,"Patna City Outer, India",India
171,120.935998,15.735753,,947019019814518784,2020-02-29 04:25:16,gandara city,poi,Central Luzon State University (CLSU),Republic of the Philippines
82,72.87424399999999,19.174139999999998,Maithillee Zaveri,947020128314691584,2020-04-23 16:49:56,"Mumbai, India",city,"Mumbai, India",India
17460,-81.83001750000001,41.2430865,Keylee Ciacchi,947020153325223936,2020-04-03 21:59:29,,city,"Brunswick, OH",United States
205,-3.41715,50.731035,Lee McAllen,947020552207822848,2020-03-04 23:25:35,"Exeter, England",poi,Exeter International Airport (EXT),United Kingdom
88,137.40308449999998,34.7543535,,947020605475266560,2020-02-14 18:46:14,Japan,city, ,
88,139.051802,37.908015000000006,sakuradatetsuya,947020656889098241,2020-03-07 13:02:12,  ,city,"Niigata-shi Chuo-ku, Niigata",Japan
26420,-95.7015895,29.0430355,John Turnage Jr,947020693060931584,2020-03-28 21:16:40,"Sweeny, TX",city,"Sweeny, TX",United States
178,26.700179,-29.246753000000002,Nosihle Mbonjwa,947020707036389376,2020-05-24 07:59:59,Bloemfotein ,city,"Botshabelo, South Africa",South Africa
175,47.457722,24.201688,Thamer,947020806915227648,2020-04-26 16:03:17,,city,",   ",  
90,36.212826,32.087011,KHALED HARB,947021801938448384,2020-02-27 08:56:16,  ,poi,Zarqa Free Zone,  
171,120.968701,14.3135285,,947022038345986049,2020-03-25 14:08:22,Neverland,city,"Dasmarinas, Calabarzon",Republic of the Philippines
173,82.95568750000002,55.0015825,Evangelina,947022055878332416,2020-02-14 02:19:17,", ",city,"Novosibirsk, Russia",Russia
171,121.259866,14.6541465,Man,947022096344870912,2020-02-21 00:54:36,Antipolo,city,"Antipolo City, Calabarzon",Republic of the Philippines
82,80.1621765,12.9394605,Shivashankaran MK,947022318680784896,2020-03-31 11:05:35,"Tamil Nadu, India",city,"Sholinganallur, India",India
200,41.353539500000004,37.42101,MUZAFFER,947022415435005952,2020-03-28 14:39:29,"Kathane, stanbul",city,"Midyat, Trkiye",Trkiye
200,35.4866105,38.7201665,Ali nlyurt,947022802078625793,2020-05-29 10:03:29,"Kayseri, Trkiye",neighborhood,"Cami Kebir, Kayseri",Trkiye
88,139.4737255,35.72719700000001,,947022952301699073,2020-03-04 17:36:15,,city, ,
35380,-90.07879963,29.95031082,Fete au Fete StrEATery,947023194,2020-03-20 15:27:39,"Louisiana, USA",city,"New Orleans, LA",United States
88,139.7812,35.711406, bot,947023236,2020-03-29 12:36:30, ,poi, ,
222,112.8028965,-7.288131,uoq uuo,94702365,2020-02-15 04:52:03,Jakarta Capital Region,city,"Sukolilo, Indonesia",Indonesia
119,-98.1542665,19.0322295,marcos gonzalez,94702392,2020-02-18 19:33:39,"galaxia la calera, puebla",city,"Puebla, Mxico",Mxico
222,106.86871299999999,-6.416188,i i n ,947024228,2020-03-26 02:50:19,"Depok, Indonesia",poi,Pasar Kaget Jatijajar,Indonesia
82,70.7989,21.9619,Nakul Makwana,947024479598735361,2020-04-07 07:46:16,"Gondal, India",city,"Gondal, India",India
200,40.2419874,37.9170018,iir Kokan Adam,947024501979664385,2020-02-29 09:47:33,,city,"Diyarbakr, Trkiye",Trkiye
200,29.0052225,41.0213205,Ayaz Turnac,947024512280907776,2020-02-17 21:10:03,"Sancaktepe, stanbul",city,"stanbul, Trkiye",Trkiye
12580,-76.7701715,39.344992,Dior ,947024821552066561,2020-02-14 00:54:48,"Baltimore, MD",city,"Milford Mill, MD",United States
47900,-77.23195100000002,39.3510825,Dior ,947024821552066561,2020-03-07 13:43:44,"Baltimore, MD",city,"Green Valley, MD",United States
12580,-76.7701715,39.344992,Dior ,947024821552066561,2020-03-09 04:30:02,"Baltimore, MD",city,"Milford Mill, MD",United States
47900,-77.017853,39.0083495,Dior ,947024821552066561,2020-05-14 18:44:43,"Baltimore, MD",city,"Silver Spring, MD",United States
12580,-76.7701715,39.344992,Dior ,947024821552066561,2020-05-15 05:07:25,"Baltimore, MD",city,"Milford Mill, MD",United States
82,86.087714,23.646703,RAKESH SINGH,947024991828172801,2020-05-18 13:04:16,", ",poi,Bokaro Steel City,India
82,75.96818400000002,22.6714825,way_to_random_art,947025814876446721,2020-04-03 07:49:41,"Indore, India",city,"Indore, India",India
171,121.06734399999999,14.699205,,947025931058556929,2020-03-14 10:33:32,Caloocan city,poi,FEU-NRMF Medical Center,Republic of the Philippines
200,29.1205295,40.202796000000006,Mustafa apraz,947026152920682497,2020-02-16 16:01:01,,city,"Bursa, Trkiye",Trkiye
31080,-118.4119065,34.0207895,BOWZR,947026398,2020-02-25 04:09:16,"Los Angeles, CA",city,"Los Angeles, CA",United States
186,1.521876,41.206795,Odalbat,947026500724936706,2020-04-24 15:26:28,,city,"El Vendrell, Espaa",Espaa
152,5.195394,52.00807,aart van der lit,94702664,2020-03-20 07:56:15,,city,"Houten, Nederland",The Netherlands
151,3.3386055,6.4931125000000005,martins obayomi  ,947027437183033344,2020-02-14 11:23:07,"Lagos, Nigeria",city,"Lagos, Nigeria",Nigeria
88,136.78230449999998,35.44726900000001,,947027548461862913,2020-02-14 02:11:34,,city, ,
171,121.0444275,14.349252499999999,Ezza Bear,94702821,2020-02-25 19:56:50,"Calabarzon, Republic of the Ph",city,"San Pedro, Calabarzon",Republic of the Philippines
12060,-84.43310600000001,33.7671945,Scott Hilton,947028348,2020-03-17 18:29:31,"Peachtree Corners, GA",city,"Atlanta, GA",United States
38900,-122.630908,45.536402,James Groen,947028446,2020-05-29 05:31:14,"Portland, OR",city,"Portland, OR",United States
88,137.26191550000001,34.951125000000005,,947028584417312768,2020-04-15 06:25:13, ,city, ,
88,136.117603,35.058276,,947028943428661248,2020-05-13 08:33:34, ,city, ,
200,29.0052225,41.0213205,mer Akbulut,947029141060292608,2020-06-06 21:25:37,,city,"stanbul, Trkiye",Trkiye
88,139.5210305,35.557981,,947029234068856833,2020-02-14 12:59:40, ,city,  ,
82,80.647879,16.49827,imran shariff,947029236610564096,2020-03-29 19:58:21,vijayawada india ,poi,A Convention Center,India
82,74.91993550000002,29.572959499999996,  ,947029727608389632,2020-05-15 06:42:22,", ",city,"sirsa, India",India
175,46.685077,24.7219435,Lamnoor,947030013370609664,2020-02-17 04:50:10,,city,",   ",  
178,30.8182635,-27.0157765,Sifiso Frank Ntshangase,947030311623450624,2020-05-14 18:37:22,South Africa,city,"Piet Retief, South Africa",South Africa
200,33.457871000000004,39.869814,Aygl Erba,947030416980049920,2020-02-23 19:23:55,,poi,Krkkale niversitesi,Trkiye
82,77.4044755,23.272495000000003,abhijeet maran,947030628695814146,2020-04-03 05:59:43,"Bhopal, India",city,"Bhopal, India",India
19100,-96.994833,32.768591,Bernice Belle,947030828,2020-02-24 23:00:22,Never Past Bedtime Land,city,"Grand Prairie, TX",United States
88,139.365929,35.91349,SeNRi,947030999661035520,2020-03-15 08:22:05,,poi, Baffi ,
175,39.8016865,21.389833000000007,,947031025,2020-02-14 06:34:49,..,city," ,   ",  
88,139.734723,35.61306000000001,Gala_Z,947031216,2020-02-15 03:05:04,,city, ,
171,123.99057549999999,10.268881,adoring EXO is heaven IS STUDYING,947031284177502208,2020-05-02 00:00:49,Republic of the Philippines,city,"Lapu-Lapu City, Central Visayas",Republic of the Philippines
39900,-119.82718200000001,39.512436,Jayceeboi,947031308,2020-02-15 22:56:27,"Reno, NV",city,"Reno, NV",United States
19740,-104.99719,39.647635,Jayceeboi,947031308,2020-02-26 03:06:55,"Reno, NV",city,"Englewood, CO",United States
39900,-119.82718200000001,39.512436,Jayceeboi,947031308,2020-02-28 05:17:36,"Reno, NV",city,"Reno, NV",United States
222,112.64846602,-7.18414392,syaiful khabib,947031468,2020-03-11 11:10:40,Jepara,city,"Kebomas, Indonesia",Indonesia
41980,-66.5,18.25,Sebastian Figueroa Diaz,947031608,2020-02-16 18:52:52,"Trujillo Alto, USA",city,"Cacaos, Puerto Rico",Estados Unidos
172,-66.90805556,17.97166667,Sebastian Figueroa Diaz,947031608,2020-06-04 01:45:45,"Trujillo Alto, USA",city,"Gunica, Puerto Rico",Estados Unidos
41980,-66.0175,18.362778,Sebastian Figueroa Diaz,947031608,2020-06-04 03:00:40,"Trujillo Alto, USA",city,"Cuevas, Puerto Rico",Estados Unidos
172,-66.0663,18.448439999999998,Sebastian Figueroa Diaz,947031608,2020-06-07 21:41:45,"Trujillo Alto, USA",city,"San Juan, USA",Estados Unidos
41980,-66.0175,18.362778,Sebastian Figueroa Diaz,947031608,2020-06-08 15:56:25,"Trujillo Alto, USA",city,"Cuevas, Puerto Rico",Estados Unidos
171,124.62850049999999,8.376078499999998,,947031788647456769,2020-03-23 06:18:02,"Cagayan De Oro City, Northern ",city,"Cagayan De Oro City, Northern Mindanao",Republic of the Philippines
175,46.685077,24.7219435,Tazyeen Asim,947032705929183232,2020-04-13 17:20:37,Kingdom of Saudi Arabia,city,"Riyadh, Kingdom of Saudi Arabia",Kingdom of Saudi Arabia
15180,-97.7155825,26.196365,Sam,947032753,2020-05-30 06:41:16,"Harlingen, TX",city,"Harlingen, TX",United States
8,-63.75959,-35.65999,Sole,947032800,2020-02-29 19:35:46,"General Pico, Argentina",city,"General Pico, Argentina",Argentina
95,126.981792,37.478528000000004,,947033554063470592,2020-03-01 00:56:30,KDMHS WP17,poi,,Republic of Korea
160,-77.04396650000002,-12.055468,Alonso,94703370,2020-02-27 18:49:31,Lima,city,"Lima, Peru",Peru
24,-104.64089399999999,50.455135999999996,BlueJaysSuperFan,94703380,2020-03-07 02:57:41,,city,"Regina, Saskatchewan",Canada
24,-73.5833,45.525,DJ Alex Delmar,947033912,2020-02-15 04:42:41,"Montral, Qubec",city,"Montral, Qubec",Canada
88,132.42978200000002,34.2124645,,947034256466833408,2020-02-20 09:48:25,,city,"Etajima-shi, Hiroshima",Japan
82,73.49434350000001,26.6486325,RamDawola,947034312712396800,2020-03-19 16:15:13,Barni Khurd Bhopalgarh Jodhpur,city,"Bhopalgarh, India",India
193,100.4208965,13.6412325,kjun,947034318894800896,2020-03-07 16:11:18,,city,", ",
119,-98.787435,19.4685455,Osiris Dinora,947034338,2020-02-14 22:27:38,,city,"Texcoco, Mxico",Mxico
151,3.3180660000000004,6.590611,Rich_Money,947034414193799168,2020-03-30 23:04:20,,city,"Ikeja, Nigeria",Nigeria
82,73.68014149999998,19.971298,,947034447517433856,2020-03-28 07:27:20,India,city,"Nashik, India",India
119,-115.22918,31.7896695,Mara Eugenia Hernandez Perez,947034583,2020-02-23 03:50:14,"Ecatepec de Morelos, Mxico",city,"Mexicali, Baja California",Mxico
119,-87.0316645,21.048719000000002,NathanGOB,947034847,2020-03-18 15:27:33,"Cancun, Mxico",city,"Benito Jurez, Quintana Roo",Mxico
171,120.9839865,14.5914565,dan,947034976435847168,2020-02-14 10:32:09,"Calabarzon, Republic of the Ph",city,"Manila City, National Capital Region",Republic of the Philippines
88,139.3881,35.562427500000005,,947035194,2020-03-28 23:39:12,,city, ,
120,103.06248199999999,5.367565,No Name,947035244032442369,2020-02-26 01:19:49,"Setiu, Terengganu",city,"Kuala Nerus, Terengganu",Malaysia
16860,-85.14184599999999,34.91288,kris,947035777,2020-02-19 23:28:21,,city,"Ringgold, GA",United States
42340,-80.8620655,32.007734,kris,947035777,2020-03-05 08:04:29,,city,"Tybee Island, GA",United States
17420,-84.86635000000003,35.193335999999995,kris,947035777,2020-03-09 14:40:05,,city,"Cleveland, TN",United States
16860,-85.242564,35.0919545,kris,947035777,2020-05-20 11:24:09,,city,"Chattanooga, TN",United States
88,139.510372,36.188578,,947035783138906113,2020-02-24 01:03:02, ,poi, ,Japan
175,42.43565,27.183464, ,947036518157312000,2020-02-25 18:23:21,,city,"Al Shinan, Kingdom of Saudi Arabia",Kingdom of Saudi Arabia
171,120.91858,14.185065000000002,      .,947036983804674048,2020-02-15 00:54:39,ph,city,"Amadeo, Calabarzon",Republic of the Philippines
178,26.790867,-26.836902000000002,Baliso Balcardo,947037075437707264,2020-05-06 06:37:58,Klerksdorp,poi,Stilfontein,South Africa
82,74.5499485,22.909465500000003,Aashay Jain,947037110,2020-03-27 03:54:08,"Ujjain, India",city,"Meghnagar, India",India
82,77.5584485,12.9231145,Laxman Rout,947037295181307905,2020-04-16 05:21:31,"Bhubaneshwar, India",city,"Bengaluru South, India",India
36740,-81.3677725,28.5016785,yu,94703730,2020-02-24 13:40:20,"bxny/mo/orlando,fl. ",city,"Orlando, FL",United States
88,135.6539167,34.81763237,@,94703741,2020-02-21 09:28:48,Osaka,city, ,
21,-43.19690382,-22.91128582,Diogo C.M,947037792,2020-02-25 11:51:06,,city,"Rio de Janeiro, Brasil",Brasil
88,140.217,35.7167,sw1510,94703784,2020-04-09 03:08:23,,city, ,
151,8.527467000000001,12.005,Abdulkadir Bshr Huda,947037916181729281,2020-02-27 14:38:59,Abuja,city,"Kano, Nigeria",Nigeria
189,18.0658935,59.461813,Mantas,947037957810196480,2020-03-11 07:01:43,"Stockholm, Sweden",city,"Tby, Sverige",Sweden
171,120.51673000000001,14.695003,jo,947038466881105920,2020-02-16 10:12:47,Osmea,poi,"Bienvenida Clubhouse, Altierra Residences",Republic of the Philippines
9,150.931975,-33.848244,Haji Moradi,947038843575836672,2020-05-12 21:53:12,,city,"Sydney, New South Wales",Australia
12620,-68.795412,44.811756,Jord,947039114,2020-05-11 18:13:05,,city,"Bangor, ME",United States
82,79.5925255,11.563802,Srini ,947039362654527491,2020-05-01 15:28:41,"Chennai, India",city,"Kurinjipadi, India",India
88,139.577625,35.362526,hirooza07,947039740473237505,2020-03-21 10:40:00,  ,poi,,Japan
8,-58.56449,-34.4587225,Gasto,947039900,2020-02-29 20:48:23,"Buenos Aires, Argentina",city,"San Fernando, Argentina",Argentina
41940,-121.8737305,37.331159,Heidi Garland,94704003,2020-02-18 14:21:09,"San Jose, CA",city,"San Jose, CA",United States
82,76.428384,30.588101,Lalit saizra,947040231336812547,2020-04-10 02:47:44,"Sirhind Fatehgarh Sahib, Punja",city,"Modi Gobindgarh Sirhind, India",India
161,74.06681850000001,32.581028,Qasim Butt soocha Kashmiri,947040701241548800,2020-04-01 08:02:29,"Punjab, Pakistan",city,"Gujurat, Pakistan",Pakistan
37100,-119.21959950000002,34.153740500000005,MAYBE:JOETOE,947040842698469376,2020-05-14 06:49:51,"Pico Rivera, CA",city,"Channel Islands Beach, CA",United States
31080,-118.080024,33.9939205,MAYBE:JOETOE,947040842698469376,2020-05-15 12:44:07,"Pico Rivera, CA",city,"Pico Rivera, CA",United States
200,28.329271999999996,37.9124805,Mr.Yu'Suf,947041251475492865,2020-06-04 09:49:20,"Nazilli, Trkiye",city,"Nazilli, Trkiye",Trkiye
82,77.095086,28.638489500000002,Uday Bhanu Tiwari,947041425387958273,2020-02-22 17:02:14,"New Delhi, India",city,"New Delhi, India",India
164,-9.195505,38.7953675,Num Fica Maluco,947041429544632320,2020-06-08 14:41:20,Angola,city,"Odivelas, Portugal",Portugal
46060,-110.96673,32.22238,Iris Sugarman,94704154,2020-02-17 01:34:36,AZ,city,"Tucson, AZ",United States
38060,-112.0777,33.4482,Iris Sugarman,94704154,2020-06-06 20:21:24,AZ,city,"Phoenix, AZ",United States
85,14.1006345,40.847939000000004,Gunnar Larson #facciamorete,947041543747235840,2020-03-15 08:37:42,"Napoli, Campania",city,"Pozzuoli, Campania",Italia
151,3.453131,6.8118039999999995,Henry Beinmote Osakeme,947041790,2020-02-27 10:52:26,"Yenagoa, Bayelsa State.",poi,Redeemed Camp,Nigeria
173,49.6743265,58.60208299999999,,947041871343308800,2020-03-08 08:47:00,", ",city,", ",
19100,-96.994833,32.768591,Rose Ramirez,94704235,2020-05-16 01:48:36,,city,"Grand Prairie, TX",United States
96,48.103646000000005,29.212157,,947042972599836672,2020-02-14 16:12:58,,poi,Abu Al-Hasaniya |  ,Kuwait
88,140.72660241,41.773650700000005,,94704300,2020-02-14 00:06:21,,city, ,
82,77.53803,12.943461,Wild Photography,947043243685920768,2020-02-14 04:02:07,"Bengaluru, India",city,"Bengaluru South, India",India
80,17.05700938,46.38581021,Wild Photography,947043243685920768,2020-05-22 06:11:02,"Bengaluru, India",city,"Pognyszentpter, Magyarorszg",Hungary
82,76.65567294,12.42398363,Wild Photography,947043243685920768,2020-06-05 03:10:02,"Bengaluru, India",city,"Shrirangapatna, India",India
16980,-87.732013,41.8335845,ABIOLA BEAN ADUN 8 24,947043481,2020-06-07 17:35:43,"Chicago, IL",city,"Chicago, IL",United States
120,102.636829,2.097324, syahirah trisya  ,947043918,2020-02-27 08:30:00,,poi,Bukit Pasir Muar Johor,Malaysia
120,110.35968799999999,1.505093,,947044532117319680,2020-06-08 12:56:14,"Kuching, Sarawak",poi,The Coffee Code KCH,Malaysia
88,140.93698700000002,38.795767,Toi,947044635297267713,2020-03-01 09:18:06,,city, ,
88,139.89822388,36.56063843,t_kishimo,94704516,2020-02-17 06:04:17, /  / ,city, ,
88,137.3108565,35.140860499999995,,947045445661888513,2020-03-07 02:37:55,,city, ,
29820,-115.13337299999999,36.24912449999999,Ms. Jones if you're nasty,947045498,2020-06-06 08:56:33,"Vegas Baby, VEGAS",city,"North Las Vegas, NV",United States
8,-58.442643,-34.604315,joelbazzetti,947045568,2020-04-20 08:21:41,"Buenos Aires, Argentina",city,"Ciudad Autnoma de Buenos Aires, Argentina",Argentina
33,-70.9167,-33.6167,Constanza Nuez,947045641,2020-02-15 11:56:11,"Peaflor, Santiago, Chile",city,"Peaflor, Chile",Chile
40900,-121.49338200000001,38.576521,Qube,947045714,2020-06-03 00:28:36,"Sacramento, CA",poi,California State Capitol,United States
171,120.9642125,13.793261,jham,947045729733787648,2020-04-10 22:49:22,no one,city,"Bauan, Calabarzon",Republic of the Philippines
152,5.0636235,51.5850175,Humphrey Martherus,947045878556184576,2020-03-04 09:17:57,"Tilburg, Nederland",city,"Tilburg, Nederland",Nederland
88,138.113531,36.048161,yoshiki@,947045888756551680,2020-03-13 07:25:13, ,poi,,
119,-102.2964,21.8801,Lass ,947046018,2020-03-02 06:52:24,,city,"Aguascalientes, Mxico",Mxico
200,27.113996000000004,38.45507,M.K.,94704682,2020-04-02 10:31:53,Karsiyaka,city,"zmir, Trkiye",Trkiye
73,22.911512,40.484423,Ulises Leon,947046926,2020-02-14 21:56:48,"Germany / Palm Springs, CA",city,"Thermaikos, Greece",Hellas
71,11.4805935,49.277968,Ulises Leon,947046926,2020-02-21 22:32:23,"Germany / Palm Springs, CA",city,"Neumarkt in der Oberpfalz, Deutschland",Germany
173,49.431472,53.52034200000001,Ananas,947047252039798784,2020-02-15 07:06:26,,city,", ",
222,110.200128,-7.612787,aku,947047492851417088,2020-04-10 09:04:00,"West Papua, Indonesia",city,"Borobudur, Indonesia",Indonesia
200,27.13330865,38.41838737,Ayenur,947047553924763648,2020-02-23 08:41:38,zmir,city,"zmir, Trkiye",Trkiye
8,-65.18076239999999,-31.9433903,Franco Lopez,947047651,2020-04-09 20:56:07,,city,"San Javier, Argentina",Argentina
35620,-73.961679,40.719244,Darleny Caba,94704800,2020-02-29 01:43:54,new jersey,poi,Music Hall of Williamsburg,United States
37980,-75.117998,40.0048655,Darleny Caba,94704800,2020-03-07 00:51:08,new jersey,city,"Philadelphia, PA",United States
35620,-74.37799799999998,40.5387865,Darleny Caba,94704800,2020-03-08 03:37:35,new jersey,city,"Edison, NJ",United States
193,101.08032800000001,13.036093,ballly_12,947048327220039682,2020-05-04 12:55:07,  ,poi,7-Eleven  .,Thailand
38,-74.24367099999999,4.2622835,Colectivo Teatral 3 de Corazn ,947048330,2020-03-31 00:52:25,Colombia,city,"Bogot, D.C., Colombia",Colombia
120,101.64187523,3.10303475,,947048432,2020-02-24 00:08:48,"Damansara, Selangor",city,"Sungai Buloh, Selangor",Malaysia
171,121.0069495,14.5328815,kong,947048432300048384,2020-05-16 16:53:33,yasap,city,"Pasay City, National Capital Region",Republic of the Philippines
88,140.21539219,36.03838764,,94704880,2020-02-14 12:19:11,,city, ,
88,141.194366,42.950384,Youcan,94704903,2020-02-15 21:31:51,Sapporo,city, ,
35380,-90.47600922,30.07313848,ziad alqutob,94704932,2020-02-22 21:38:13,New Orleans,city,"Laplace, LA",United States
88,140.55513100000002,36.399724000000006,,947049553,2020-04-19 09:43:49,,city, ,
171,122.660395,14.109760999999999,,947049634882510848,2020-04-02 15:52:06,,city,"Labo, Bicol Region",Republic of the Philippines
35620,-73.9487755,40.655138,"DeForrest Brown, Jr. | Speaker Music",94704964,2020-02-14 20:21:02,"New York, NY USA",city,"Brooklyn, NY",United States
152,4.904053500000001,52.354728,"DeForrest Brown, Jr. | Speaker Music",94704964,2020-02-20 14:03:41,"New York, NY USA",city,"Amsterdam, The Netherlands",The Netherlands
35620,-73.9685415,40.780709,"DeForrest Brown, Jr. | Speaker Music",94704964,2020-02-24 04:21:19,"New York, NY USA",city,"Manhattan, NY",United States
69,-0.048436,5.661601999999999,Abigail Alnice,947049776163500032,2020-02-16 21:48:17,"Tema, Ghana",poi,ICGC ZOE TEMPLE,Ghana
29820,-115.26026647,36.01426909,Allan C,947049853,2020-06-09 04:20:01,"Las Vegas, NV",city,"Enterprise, NV",United States
119,-88.3857435,18.5934905,Aldrin Alvarez Gonzalez,947049948,2020-02-14 15:31:47,"Chetumal, Quintana Roo, Mexico",city,"Othn P. Blanco, Quintana Roo",Mxico
88,137.28667,34.916579999999996,,947050198332608512,2020-02-15 04:08:16,,city, ,
82,79.83,11.93,Anand dinakaran,947050249,2020-02-22 11:55:55,"chennai, India",city,"Pondicherry, India",India
23060,-85.1700515,41.086917,Dustin Moore,94705068,2020-04-05 16:03:18,"Fort Wayne, Indiana",city,"Fort Wayne, IN",United States
171,122.5497035,10.7294185,Kyling,947050776630779905,2020-04-16 01:41:28,Pilipinas ,city,"Iloilo City, Western Visayas",Republic of the Philippines
16980,-87.8735,41.9338,jessssss,947050777,2020-03-25 12:58:46,"Chicago, IL",city,"Franklin Park, IL",United States
21,-40.85,-14.85,Fbio Spinola,947051064,2020-05-03 22:48:07,vitria da conquista,city,"Vitria da Conquista, Brasil",Brasil
175,46.685077,24.7219435,  ..!,947051156,2020-02-15 13:26:41,,city,",   ",  
171,120.9839865,14.5914565,k ,947051235370090496,2020-02-15 14:38:57,piyups,city,"Manila City, National Capital Region",Republic of the Philippines
72,144.67343400000001,13.307625,n ,947051707975942144,2020-03-26 10:21:54,,poi,Heaven,United States
26900,-86.392482,39.6899065,Zion,94705176,2020-02-14 01:26:35,317,city,"Plainfield, IN",United States
34620,-85.39135,40.1972405,Zion,94705176,2020-05-02 23:29:20,317,city,"Muncie, IN",United States
26900,-86.392482,39.6899065,Zion,94705176,2020-05-08 23:27:28,317,city,"Plainfield, IN",United States
82,78.3852855,17.3950375,MskTutorials,947052399641837568,2020-02-14 09:54:19,hyderabed,city,"Rajendra Nagar, India",India
119,-99.096496,19.399101,Enrique Espinosa,947052439,2020-05-10 21:55:11,,city,"Iztacalco, Distrito Federal",Mxico
184,103.79802099999999,1.302504,lolelah,947052546832527360,2020-02-21 14:06:48,Republic of the Philippines,poi,Commonwealth MRT Station (EW20),Singapore
171,125.4432615,7.317582499999999,lolelah,947052546832527360,2020-03-09 14:41:01,Republic of the Philippines,city,"Davao City, Davao Region",Republic of the Philippines
88,139.14912099999998,35.254017499999996,,947052587580141568,2020-02-14 07:49:51,,city, ,
82,78.474674,22.6824905,Er. Deepak Awasthi (   ),947052610023911424,2020-03-30 05:02:09,"Haryana, India",city,"Pachmarhi, India",India
40140,-117.603783,34.0451585,abe,947052624267829249,2020-02-14 22:04:06,Hell 666,city,"Ontario, CA",United States
31080,-117.77291699999999,34.0654505,abe,947052624267829249,2020-03-19 00:21:19,Hell 666,city,"Pomona, CA",United States
40140,-117.31987099999999,34.057348000000005,abe,947052624267829249,2020-03-19 06:32:02,Hell 666,city,"Colton, CA",United States
31080,-117.649072,33.5066425,abe,947052624267829249,2020-06-10 21:23:58,Hell 666,city,"San Juan Capistrano, CA",United States
200,35.28488,37.002826500000005,Umut Pekel,947052660930367489,2020-02-14 14:27:23,"Adana, Trkiye",city,"Adana, Trkiye",Turkey
200,35.28488,37.002826500000005,Utku Pekel,947052681914445824,2020-02-19 17:47:48,"Adana, Trkiye",city,"Adana, Trkiye",Trkiye
171,125.5841875,8.8999565,Mar,947052778383224832,2020-02-16 07:22:24,"Butuan City, Caraga",city,"Butuan City, Caraga",Republic of the Philippines
82,81.86699499999999,25.426612,    follow back,947053109808807936,2020-03-04 04:21:29, ,poi,Prayag Raj,India
119,-98.590858,26.211834,Daniel Herom,94705312,2020-02-16 19:49:16,En medio del mar ,poi,La Vaca Flaca,Mxico
193,99.744787,19.853510999999997,MookMT.XZ,947053176,2020-02-14 15:06:09,Bangkok,poi,Singha Park (),
82,77.095086,28.638489500000002,s s ,947053568745340928,2020-02-15 07:36:10,"New Delhi, India",city,"New Delhi, India",India
38,-74.06944786,4.60686681,Lau Delgado Arevalo,94705362,2020-03-06 02:22:08,Bogota,city,"Bogot, D.C., Colombia",Colombia
178,28.060613,-26.058708,Midfield Maestro,947054083,2020-04-19 10:12:47,"Sandton, South Africa",city,"Sandton, South Africa",South Africa
82,77.3414525,11.1081705,Udhay,947054252626604032,2020-02-14 11:46:05,"Tiruppur, India",city,"Tiruppur, India",India
82,88.36666667,22.56666667,Ahtesham Arsh,947054540762710016,2020-03-15 07:34:32,"Bihar, India",city,"Kolkata, India",India
82,73.68014149999998,19.971298,  .,947054818958368768,2020-02-16 00:09:54,"Nashik, India",city,"Nashik, India",India
221,30.977165000000003,-17.822129999999998,Vasco Kudzai Katsande,947054993537937409,2020-05-26 08:41:50,"Harare, Zimbabwe",poi,Westlea Shops,Zimbabwe
151,3.36494044,6.57778852,I.b.kay_leather_outfit,947055401396092928,2020-02-14 08:00:17,"Maryland, Lagos Nigeria ",city,"Ikeja, Nigeria",Nigeria
21,-47.905274,-21.879125,Akinyemi Amos Olalekan.,947055417842192384,2020-04-28 01:33:13,"So Carlos, Brasil",city,"So Carlos, Brasil",Brazil
80,19.032985999999998,47.6767715,Mly Balzs,947055565716455425,2020-02-21 16:07:26,"Budapest, Magyarorszg",city,"Szentendre, Magyarorszg",Magyarorszg
69,0.0014,5.6633,Nhana Quojo,947055603494608896,2020-04-07 10:52:09,,city,"Tema, Ghana",Ghana
82,80.333336,26.455790000000004,Manish Gupta,947055660771917824,2020-04-02 16:16:11,"Mandhana (Kanpur), India",poi,Tirupati Hyundai,India
35840,-82.53446199999998,27.409002,Mike,947056076,2020-06-08 22:41:51,,city,"Tallevast, FL",United States
71,6.883008,51.411084,P_Hengstenberg,947056145608400896,2020-02-27 14:42:25,"Mlheim an der Ruhr, Deutschla",city,"Mlheim an der Ruhr, Deutschland",Deutschland
82,77.095086,28.638489500000002,Om Prakash Pandey,947056432209260544,2020-02-23 07:57:17," , ",city,"New Delhi, India",India
82,72.57023199999999,23.013959,Hitanshu Rami,947056435845775365,2020-03-30 14:01:13,"Ahmadabad City, India",city,"Ahmadabad City, India",India
88,139.6345155,35.636514,,94705644,2020-02-15 12:32:00,,city, ,
88,136.9747825,35.0727205,,947056623985373189,2020-02-14 09:04:29, ,city,"Nagoya-shi Midori, Aichi",Japan
24,-123.1204,49.2819,,947056623985373189,2020-02-27 08:35:47, ,city,"Vancouver, British Columbia",Canada
88,139.2704319,35.6347939,,947056623985373189,2020-03-01 00:54:37, ,city,"Hachioji-shi, Tokyo",Japan
120,116.1405425,5.9882775000000015,GD Minimalast,94705668,2020-03-31 04:19:34,"Jesselton, Borneo.",city,"Kota Kinabalu, Sabah",Malaysia
222,116.117,-8.58333,Harry Budiarto,94705672,2020-02-15 10:48:41,,city,"Mataram, Indonesia",Indonesia
193,102.831825,16.429687,earn ku,947056916529680384,2020-03-09 10:25:47,,poi, (Kosa Hotel),Thailand
171,121.0069495,14.5328815,manen,947057165386129408,2020-05-15 02:55:44,,city,"Pasay City, National Capital Region",Republic of the Philippines
33100,-80.17766800000001,25.9056055,MontAir,947057228,2020-02-14 08:02:36,North Miami,city,"North Miami, FL",United States
28940,-83.986413,35.7261815,Thomas Ryan Murr,94705742,2020-02-14 15:46:08,"Knoxville, TN",city,"Maryville, TN",United States
35620,-73.9685415,40.780709,Thomas Ryan Murr,94705742,2020-03-08 16:02:00,"Knoxville, TN",city,"Manhattan, NY",United States
28940,-83.986413,35.7261815,Thomas Ryan Murr,94705742,2020-03-12 13:01:51,"Knoxville, TN",city,"Maryville, TN",United States
42340,-80.8620655,32.007734,Thomas Ryan Murr,94705742,2020-03-14 21:01:38,"Knoxville, TN",city,"Tybee Island, GA",United States
28940,-83.9638415,35.982470500000005,Thomas Ryan Murr,94705742,2020-03-19 00:26:36,"Knoxville, TN",city,"Knoxville, TN",United States
42940,-83.57759899999998,35.7992495,Thomas Ryan Murr,94705742,2020-03-19 22:59:11,"Knoxville, TN",city,"Pigeon Forge, TN",United States
28940,-83.986413,35.7261815,Thomas Ryan Murr,94705742,2020-03-27 12:19:41,"Knoxville, TN",city,"Maryville, TN",United States
88,139.70833041,35.62775096,uKi,94705823,2020-02-19 09:04:02,,city, ,
88,139.6565525,35.4267515,ROUROU,94705875,2020-03-04 14:45:21,,city,  ,
161,74.415797,31.555874,MASK ,947058769132949504,2020-06-05 19:28:48,"Punjab, Pakistan",poi,Total Petrol Pump,Pakistan
88,138.58711,36.356322999999996,@,947058788887969792,2020-03-24 09:58:52,Earth,poi, ,
117,54.70736850000001,17.371565,shahad algh,947058979527684096,2020-06-02 19:38:21,",  ",city,"Salalah, Oman",Oman
175,42.0686715,18.529793,   ,947059768363048960,2020-02-18 00:27:36," ,   ",city,"Muhayal, Kingdom of Saudi Arabia",Kingdom of Saudi Arabia
161,73.06521592,33.69386247,Your Lifestyle Blogger,947059784599162881,2020-04-15 10:13:54,"Lagos, Nigeria",city,"Islamabad, Pakistan",Pakistan
26420,-95.4464865,29.838495,ly$$,947059915511693314,2020-03-27 06:43:04,"Houston, TX",city,"Houston, TX",United States
71,9.828449,48.7794795,Felix Hberle,947060012874117121,2020-02-15 09:25:34,,city,"Schwbisch Gmnd, Deutschland",Deutschland
225,55.358132999999995,25.252498000000003,Felix Hberle,947060012874117121,2020-03-01 20:21:48,,poi,Dubai International Airport (DXB),Vereinigte Arabische Emirate
82,77.550599,28.499759,"   100%,    ",947060644322328576,2020-02-14 08:35:46,,city,"Greater Noida, India",India
85,9.0958195,39.2203865,Feferico,947060858902974464,2020-04-11 06:12:06,"Sardegna, Italia",city,"Cagliari, Sardegna",Italia
200,28.953265000000002,38.569964,ULA,947060921838469120,2020-03-06 15:29:08,"Eme, Uak",poi,Kylolu Ky,Trkiye
117,58.4641695,23.549159000000003,  ,947061014,2020-03-29 05:13:24, -  ,city,",  ", 
200,30.322082,40.854954,EK,947061130228269056,2020-03-09 13:45:58,Sakarya,poi,Sakarya Meslek Yksekokulu,Trkiye
151,3.505413,6.6258965,odunayo,947061376152948738,2020-05-19 20:58:46,"Lagos, Nigeria",city,"Ikorudu, Nigeria",Nigeria
82,73.03588549999999,19.0967305, ,947061419156979713,2020-02-17 03:25:26,India,city,"Navi Mumbai, India",India
82,76.729515,24.778366000000002,Bhojraj Meena,947061471367667712,2020-05-15 18:13:57,Atru   ,poi,Adani Power Rajasthan Limited,India
33,-71.25629903,-29.94789844,BYR0B3R,947061576347144193,2020-04-21 22:40:48,"La Serena, Chile",city,"La Serena, Chile",Chile
88,135.495464,34.700356,,947061608152313856,2020-02-16 03:52:39,  ,poi, (Y11),
88,137.8409265,36.194508500000005,,947061665979174912,2020-05-04 13:47:38,,city, ,
88,136.79075999999998,35.310094,,947062135233773568,2020-02-28 12:38:01,,city, ,
31080,-118.267191,34.043085,Greer Engonga,94706262,2020-03-07 05:16:47,"Los Angeles, CA",poi,STAPLES Center,
200,32.8183815,39.8889765,Burak,947063094970322945,2020-03-05 11:51:43,"ankaya, Ankara",city,"Ankara, Trkiye",Trkiye
120,101.655722,3.17576,Hakim Din,94706332,2020-02-16 23:59:58,"Guangzhou, China",poi,Plaza Tol Jalan Duta,Malaysia
222,105.53369550000001,-4.9905835,Rio eR,947063341784055808,2020-06-04 08:03:11,Indonesia,city,"Purbolinggo, Indonesia",Indonesia
69,-0.1842935,5.6231985,Charles Mo Jnr ,947063398423986182,2020-02-14 13:52:37,Ghana,city,"Accra, Ghana",Ghana
12420,-97.754724,30.3233455,c k a n e,94706360,2020-02-17 05:25:20,"Austin, TX",city,"Austin, TX",United States
172,-66.079012,18.454376,mike,947063725,2020-02-14 00:05:16,,poi,Conservatorio de Msica de Puerto Rico,United States
88,139.04757450000002,35.232477, / KazumaOgiso,947063807108509696,2020-02-21 22:39:16, / ,city, ,
119,-99.6307305,19.0795775,edgar galindo,94706397,2020-02-15 02:01:11,ciudad de mexico ,city,"Tenango del Valle, Mxico",Mxico
65,3.1842775000000003,50.688713,Tsuki  (AU sous mon ),947064070741643265,2020-03-04 21:50:58,,city,"Roubaix, France",France
21,-59.537155000000006,-3.832011,Renan Jos da Silva Ferrer,947064233958789121,2020-02-24 12:49:22,,city,"Autazes, Brasil",Brasil
222,106.77503100000001,-6.27309,Agus imam,947064247,2020-04-15 09:50:11,"Ponorogo, Indonesia",poi,Indomaret [jln.Pupan],Indonesia
12060,-84.1563795,33.738037500000004,Keith Singleton,947064391,2020-02-26 19:39:18,Decatur,city,"Redan, GA",United States
171,121.108852,14.188623000000002,Joshua Encarnacion,947064538473553920,2020-04-18 23:53:50,,city,"Calamba City, Calabarzon",Republic of the Philippines
171,121.1242275,14.606717499999998,annnnnnn,947064985959542784,2020-03-19 06:59:26,,city,"Cainta, Calabarzon",Republic of the Philippines
82,77.5584485,12.9231145,MAZANU,947065096152367104,2020-02-22 16:37:57,,city,"Bengaluru South, India",India
82,75.89291300000001,30.794095000000002,Mihir Mittal,947065104146710529,2020-04-18 14:18:06,"Ludhiana,Punjab,india",city,"Ludhiana, India",India
26,80.856656,6.331991,Yeshan Hewage.,947065105,2020-05-15 04:48:20,"Kolonna, Sri Lanka.",poi,Embilipitiya Bus Stand,Sri Lanka
88,135.494552,34.702591,,947065116104597505,2020-04-05 12:04:26,,poi,JR,
175,46.64359,24.819257999999998,bandar,947065159,2020-03-26 12:20:08,,poi,Anas Bin Malik Bridg Over King AbdulAziz Rd,Kingdom of Saudi Arabia
120,101.57849499999999,3.1565125,A,947065443340107783,2020-03-05 03:50:07,"Damansara, Selangor",city,"Sungai Buloh, Selangor",Malaysia
82,77.5584485,12.9231145,Mukesh Modi,94706563,2020-03-16 05:16:33,Bangalore,city,"Bengaluru South, India",India
36260,-111.88229296,40.9026843,Viewmont Lacrosse,947065682,2020-03-04 22:23:07,"Viewmont HS, Utah",city,"Bountiful, UT",United States
186,-3.7035075,40.4777945,Jorge Luis Jimnez ,94706589,2020-02-14 09:21:51,"Madrid, Espaa",city,"Madrid, Espaa",Espaa
31080,-118.4119065,34.0207895,DJ PHAT,94706594,2020-02-14 00:03:02,"New Jersey, USA",city,"Los Angeles, CA",United States
119,-97.8225365,22.283026,Deni,947066096,2020-02-23 09:23:53,,city,"Ciudad Madero, Tamaulipas",Mxico
88,140.31187892,35.57374669,@1/25,947066195076825093,2020-02-14 02:24:12,,city, ,
82,80.3460625,26.405874, ,947066330053689345,2020-05-06 19:38:25,Kanpur U.P,city,"Kanpur, India",India
82,84.5646275,25.4495685,Shubh hum Singh,947066467308126208,2020-04-05 16:32:52,"Ara, India",city,"Arrah, India",India
171,123.443836,9.647174,,947066513609056256,2020-03-08 15:22:31,,city,"Boljoon, Central Visayas",Republic of the Philippines
222,110.298492,-7.729444,Akmal,947066726,2020-03-20 10:02:23,"Sleman, Indonesia",city,"Seyegan, Indonesia",Indonesia
21,-38.51989,-3.789768,r,94706699,2020-02-14 13:33:24,"Fortaleza, Brasil",city,"Fortaleza, Brasil",Brasil
200,29.25064126,40.87510974,zgr lker,947067042955481088,2020-05-07 06:15:48,"stanbul, Trkiye",city,"stanbul, Trkiye",Trkiye
88,137.0953205,36.7200375,,947067500742656001,2020-05-08 18:54:31, ,city, ,
82,73.910077,18.5081615,Rushikesh Gaikwad,947067534611640320,2020-06-08 17:26:01,,city,"Haveli, India",India
119,-99.087817,19.4320755,danny,94706803,2020-02-18 04:49:27,,city,"Venustiano Carranza, Distrito Federal",Mxico
88,139.47571932,35.50848154,,947068134619471872,2020-02-25 07:45:04,,city, ,
82,75.78286700000002,26.245841,Mohsin Khan,947068138138374145,2020-06-08 07:59:56,"Tonk, India",city,"Tonk, India",India
200,40.587006,37.192993,Yakup Gultekin,947068291771662340,2020-02-16 13:39:28,"Mardin Merkez, Mardin",poi,Mardin Kzltepe,Trkiye
21,-43.441578,-22.911421500000003,Jean,947068384277073920,2020-02-16 06:12:45,"Iraj, Rio de Janeiro",city,"Rio de Janeiro, Brasil",Brasil
171,123.42111799999999,13.4408395,,947068393655431168,2020-05-16 06:46:33,,city,"Iriga City, Bicol Region",Republic of the Philippines
8,-67.5615595,-45.930009000000005,Seba Crdenas,947068616,2020-02-14 04:08:38,"Rada Tilly, Argentina",city,"Rada Tilly, Argentina",Argentina
48,-68.623478,18.725815,Seba Crdenas,947068616,2020-03-01 02:02:13,"Rada Tilly, Argentina",city,"Higey, Dominican Republic",Dominican Republic
8,-58.442643,-34.604315,Seba Crdenas,947068616,2020-03-07 03:00:40,"Rada Tilly, Argentina",city,"Ciudad Autnoma de Buenos Aires, Argentina",Argentina
47900,-77.038241,38.912444,Jarvis Robinson,94706867,2020-02-29 15:48:09,"Mount Rainier, MD",poi,Dupont Italian Kitchen,United States
46660,-83.2785,30.831999999999997,Jarvis Robinson,94706867,2020-05-10 13:49:07,"Rockville, MD",city,"Valdosta, GA",United States
40140,-117.3630675,34.531222,JORGE,947068766,2020-02-15 17:02:51,,city,"Victorville, CA",United States
82,73.88438199999999,18.520764,Asrar Bashir Sunge,947068865288142848,2020-06-07 09:06:07,"Pune, India",city,"Pune, India",
40140,-117.5621525,34.12167,Craig,947069012,2020-03-08 18:33:14,,city,"Rancho Cucamonga, CA",United States
85,9.1593365,45.461345,Lolamaveramente,947069101377228801,2020-03-18 10:48:47,,city,"Milano, Lombardia",Italia
47900,-77.10199899999999,38.8808445,Tvz ,947069706,2020-03-18 10:34:55,Northern Virginia ,city,"Arlington, VA",United States
164,-8.5849315,37.194259,Jssy,947070179116224515,2020-02-14 13:34:09,Algarve,city,"Portimo, Portugal",Portugal
88,133.1740625,34.414378,,947070316425068545,2020-03-01 20:47:11,,city, ,
82,72.87424399999999,19.174139999999998,Ram Kumar Roy,947070516120125440,2020-05-31 19:05:49,India,city,"Mumbai, India",India
82,76.88064849999999,17.3688485,Md Amyr,947070620755410945,2020-02-21 16:55:06,"Gulbarga, India",city,"Gulbarga, India",India
119,-100.2083486,25.5202389,Anbal Daro,94707114,2020-05-16 18:41:12,,city,"Monterrey, Nuevo Len",Mxico
82,75.523967,19.915838,Tiger Sagar,947071183333212161,2020-02-14 08:33:00,"Maharashtra, India",city,"Aurangabad, India",India
31080,-118.36007250000002,34.011817,i live to flex,94707134,2020-02-22 18:29:06,"Glen Innes, Auckland",neighborhood,"Crenshaw, Los Angeles",United States
158,174.8562435,-36.595729,i live to flex,94707134,2020-02-24 17:21:12,"Glen Innes, Auckland",city,"Auckland, New Zealand",New Zealand
