currentGEOID,lon,lat,name,author_Id,created_at,location,place_type,place_full_name,place_country
117,58.15478450000001,23.650904999999998,Muzna Alzadjali,1036991769265807360,2020-05-21 15:42:05,"Oman, USA",city,"Al Seeb, Oman",Oman
221,31.054831,-17.783262,DJ Tryazz,1036991807333326848,2020-03-12 09:55:00,"Harare, Zimbabwe",poi,University of Zimbabwe,Zimbabwe
21,-41.4197165,-19.175012,Samara,1036991846780678146,2020-03-06 19:14:58,"Minas Gerais, Brasil",city,"Conselheiro Pena, Brasil",Brasil
24,-60.190167,46.137082,Nick Madore,1036991994424446976,2020-02-21 22:12:41,"Truro, Nova Scotia",poi,Centre 200,Canada
88,138.68468700000003,35.2373305,  Yuta Kanekiyo / 65dB TOKYO,1036992009662164994,2020-02-23 03:58:19,TOKYO,city, ,
82,77.3414525,11.1081705,BabyFaceKiller,1036992040670617600,2020-02-22 11:33:50,"Tamil Nadu, India",city,"Tiruppur, India",India
32540,-95.775292,34.92317850000001,,1036992121046220800,2020-04-12 02:31:21,"Savanna, Oklahoma ",city,"McAlester, OK",United States
26660,-95.904315,30.9551315,,1036992121046220800,2020-05-05 13:13:41,"Savanna, Oklahoma ",city,"Madisonville, TX",United States
32540,-95.775292,34.92317850000001,,1036992121046220800,2020-05-07 01:51:47,"Savanna, Oklahoma ",city,"McAlester, OK",United States
158,174.7657,-36.8473,Chairul Amin,103699265,2020-06-05 15:37:02,Between 2 Houses& 6 Vehicles,city,"Auckland, New Zealand",New Zealand
200,35.28488,37.002826500000005,Epic Games Trkiye,1036992659339010049,2020-03-20 10:29:57,Trkiye,city,"Adana, Trkiye",Trkiye
21,-46.5955455,-23.682803,jojo,1036992709293170691,2020-02-15 02:41:10,"So Paulo, Brasil",city,"Sao Paulo, Brazil",Brazil
120,100.692052,4.79232,  ,1036992716373016576,2020-05-04 11:55:27,"Stamford Bridge, England",poi,Taiping,Malaysia
119,-97.07268228,18.83476901,Asis Cuevas,103699273,2020-03-04 04:10:11,,city,"Ixtaczoquitln, Veracruz de Ignacio de la Llave",Mxico
12060,-84.35244449999998,33.943456999999995,Katie Ray-Diaz,1036992793548345349,2020-03-17 13:53:41,"Atlanta, GA",city,"Sandy Springs, GA",United States
82,83.98338899999997,24.93897,Nivedita singh,1036992812275777537,2020-04-10 06:49:42,"Sasaram, India",city,"Sasaram, India",India
171,121.108852,14.188623000000002,Jeneveb Tria,1036992893406261248,2020-04-04 11:52:13,,city,"Calamba City, Calabarzon",Republic of the Philippines
160,-77.04396650000002,-12.055468,David,1036992895474130944,2020-06-01 00:44:04,,city,"Lima, Peru",Peru
119,-99.269192,19.5645875,soycesarf,1036992909055352832,2020-02-21 05:30:21,"Atizapn de Zaragoza, Mxico",city,"Atizapn de Zaragoza, Mxico",Mxico
33,-70.63538700000002,-33.405859,Ivn Ramrez,103699296,2020-02-14 11:21:28,"Santiago, Chile",city,"Recoleta, Chile",Chile
120,101.227257,4.3778775,Yenpodol,1036992998976847872,2020-02-15 03:11:42,Malaysia,city,"Kampar, Perak",Malaysia
200,27.510676,40.977786,Cd Buse,1036993588310290433,2020-04-27 10:48:09,Tekirda,poi,Tekirda Sahil,Trkiye
8,-58.7718025,-34.501594,Alicia,1036993802450423808,2020-03-17 00:21:00,"Buenos Aires, Argentina",city,"Jos Carlos Paz, Argentina",Argentina
88,140.6166665,36.597301,,1036994198,2020-02-27 11:43:59,,city, ,
171,120.22456100000001,16.004116,Kimberly Jem ,1036994335,2020-05-06 23:25:25,"Baguio City, Cordillera Admin ",poi,Star Monica Hotel Resort And Restaurant,Republic of the Philippines
88,135.5361145,34.740564000000006,,1036994438407417856,2020-02-14 00:31:54,  ,city,"Osaka-shi Higashiyodogawa, Osaka",Japan
85,15.31721592,38.20276164,RD hair concept,1036994587,2020-02-18 11:41:12,"Messina, Sicilia",city,"Pace del Mela, Sicilia",Italia
222,106.9260075,-6.377322,Anggita ALza,1036994592246124545,2020-02-15 18:32:24,"Depok, Indonesia",city,"Gunung Putri, Indonesia",Indonesia
88,136.781467,35.132421,,103699465,2020-02-14 11:16:19,,poi,,
31080,-118.080024,33.9939205,Sean Arias,1036994718687584257,2020-02-20 06:23:47,"Pico Rivera, CA",city,"Pico Rivera, CA",United States
186,-3.4743440000000003,40.4397905,,1036994763264847872,2020-02-14 07:44:50,"Comunidad de Madrid, Espaa",city,"San Fernando de Henares, Espaa",Espaa
33100,-80.2333285,25.7823535,Commissioner Eileen Higgins,1036994808886308864,2020-02-15 01:34:34,"Miami, FL",city,"Miami, FL",United States
171,122.4309585,13.743255,Lorr,1036994809800454144,2020-05-07 11:42:33,"Quezon, Calabarzon",city,"Buenavista, Calabarzon",Republic of the Philippines
205,-1.47126091,53.55478636,Sheffield Shootfighters,1036995138197827587,2020-02-16 11:28:46,"17 Guernsey Road, Sheffield, S2 4HG",city,"Barnsley, England",United Kingdom
225,55.131502000000005,25.001456,Samajwadi kundan yadav,1036995139661713413,2020-03-28 06:59:09," Uttar Pradesh, India",poi,Techno Pack,United Arab Emirates
18140,-83.0043725,39.9594455,Deejay De Jesus,1036995182649065472,2020-05-31 01:48:42,"Columbus, OH",neighborhood,"Downtown, Columbus",United States
71,13.4206115,52.332491499999996,kenk,1036995348122791936,2020-05-15 21:58:57,Germany,city,"Blankenfelde-Mahlow, Deutschland",Deutschland
24,-79.645081,43.4181905,OakvilleBasketballPrep,1036995670723440640,2020-02-14 16:10:17,"Oakville, Ontario",city,"Oakville, Ontario",Canada
33100,-80.1783915,26.03968,OakvilleBasketballPrep,1036995670723440640,2020-02-20 04:32:15,"Oakville, Ontario",city,"Hollywood, FL",United States
35840,-82.57367500000002,27.4739745,OakvilleBasketballPrep,1036995670723440640,2020-02-22 04:59:29,"Oakville, Ontario",city,"Bradenton, FL",United States
33100,-80.1677155,26.062405,OakvilleBasketballPrep,1036995670723440640,2020-02-24 23:38:52,"Oakville, Ontario",city,"Dania Beach, FL",United States
24,-75.80014150000001,45.248791,OakvilleBasketballPrep,1036995670723440640,2020-02-28 14:35:24,"Oakville, Ontario",city,"Ottawa, Ontario",Canada
88,127.79692341,26.31557007,,1036995850923200512,2020-05-18 07:19:19,,city, ,
88,136.78230449999998,35.44726900000001,GO,1036995891394109440,2020-03-04 02:08:05,,city,"Gifu-shi, Gifu",Japan
49,-78.5566815,-0.16657049999999998,Oswaldo Ortiz,1036996030196314112,2020-02-15 17:54:51,"Quito, Ecuador",city,"Quito, Ecuador",Ecuador
200,37.387009000000006,37.062044,Sevilay ahin,1036996047615270912,2020-02-19 14:54:34,"Gaziantep, Trkiye",city,"Gaziantep, Trkiye",Turkey
29740,-107.2577195,33.136832500000004,Jackson Dankert,1036996092108267520,2020-02-24 19:54:59,"New Mexico, USA",city,"Truth or Consequences, NM",United States
175,39.2541285,21.5857105,,1036996239840239616,2020-02-19 04:38:48,Jeddah,city,"Jeddah, Kingdom of Saudi Arabia",Kingdom of Saudi Arabia
82,78.46509449999998,17.3886495,Vijaypal Reddy,1036996270001463296,2020-04-07 21:50:59,,city,"Hyderabad, India",India
160,-77.11947099999999,-11.9845885,FrancisPasivo,1036996386699587586,2020-06-01 22:42:12,Peru,city,"Callao, Peru",Peru
88,139.113324,37.933871,@WANIMA,1036996721815912448,2020-03-13 14:00:26,,poi,Starbucks Coffee ,
200,27.1626105,39.1117255,yasemin,1036996785405865984,2020-04-17 00:18:15,"zmir, Trkiye",city,"Bergama, Trkiye",Turkey
200,27.579981,40.9758635,Serhat,1036996899188998145,2020-02-17 18:07:14,"stanbul, Trkiye",city,"Tekirda, Trkiye",Trkiye
171,123.24782649999999,13.640892,kleo,1036997085965430784,2020-03-05 11:19:47,"Naga City, Bicol Region",city,"Naga City, Bicol Region",Republic of the Philippines
69,-0.0189785,5.703022000000002,BOMBAY,1036997392606941184,2020-02-14 07:42:01,"Accra, Ghana",city,"Tema, Ghana",Ghana
41180,-90.63388,38.73836,tired,1036997520474427392,2020-03-05 17:52:08,bed,poi,St. Charles Community College,United States
21,-43.2653557,-22.8972531,luzzy,1036997596894646273,2020-04-19 13:05:16,only army,city,"Rio de Janeiro, Brasil",Brasil
222,95.34787456,5.57297446,A Plus CLC,1036997906,2020-04-15 06:16:44,Banda Aceh - Indonesia,city,"Kuta Alam, Indonesia",Indonesia
31540,-89.230524,43.1967835,Conner Ludeman,1036998086382510082,2020-02-19 04:50:59,,city,"Sun Prairie, WI",United States
200,27.358441999999997,41.4019075,yiit etingz,1036998530735456257,2020-02-17 10:31:22,Trkiye,city,"Lleburgaz, Trkiye",Turkey
200,32.744717,39.9676005,Burak ,1036998615175184389,2020-03-04 07:29:30,"Medelln, Colombia",city,"Yenimahalle, Trkiye",Trkiye
138,34.288259000000004,31.305958, ,1036998779956809731,2020-03-06 23:38:01,"Palestine, TX /  Gaza",poi,"Gaza Strip, Palestine",
205,-0.14893599999999999,51.500091999999995,V,1036998877369511937,2020-02-14 20:50:38,,city,"London, England",United Kingdom
35620,-73.8311875,40.6708795,V,1036998877369511937,2020-02-20 00:47:23,,city,"Queens, NY",United States
88,139.607397,35.784537,,1036998879323992064,2020-03-13 05:09:00,KisarazuRikkyo Univ.,poi, ,
27340,-77.20884000000001,34.71617,Amanda Cochrane,1036999264495460352,2020-03-05 21:52:18,"Jacksonville, NC",city,"Starling, NC",United States
222,106.757268,-6.307441000000001,Jenal Budiarto (Sales Mitsubishi),1036999353024434178,2020-02-14 21:10:34,"Tangerang, Indonesia",poi,MITSUBISHI ( PT. CIWANGI BERLIAN MOTORS ),Indonesia
82,77.3508815,28.3312135,Yogesh Kumar,1036999495316209664,2020-03-26 16:45:41,"Old Faridabad, Faridabad",city,"Faridabad, India",India
21,-40.37516700000001,-20.427329500000003,Juliana Miranda,1036999498550177793,2020-04-01 17:42:48,"Vila Velha, Brasil",city,"Vila Velha, Brasil",Brasil
222,107.6170635,-6.9144175,Aliii,1036999523317342208,2020-02-14 11:41:31,"Bandung, Jawa Barat",city,"Sumurbandung, Indonesia",Indonesia
82,75.74752099999999,26.909683,prakash sharma,1036999645111701506,2020-05-07 05:30:24,"Jaipur, India",city,"Jaipur, India",India
40140,-116.9025825,34.2432505,graciela,1036999858064773121,2020-06-09 21:43:22,"Los Angeles, CA",city,"Big Bear Lake, CA",United States
24,-77.58194800000003,44.153641,Alex Mahar,1037000307920781313,2020-02-14 00:39:18,"Belleville, Ontario",city,"Quinte West, Ontario",Canada
38300,-79.9806895,40.431389,"Christine Foley, MD",1037000388715708416,2020-02-16 16:33:45,"Pittsburgh, PA",city,"Pittsburgh, PA",United States
21,-46.6333,-23.55,mat ,103700053,2020-05-15 21:19:22,"So Paulo, Brasil",city,"So Paulo, Brasil",Brasil
33,-72.166774,-36.625475,Seremi de la Mujer y la Equidad de Gnero uble,1037000686226104321,2020-02-15 19:08:17,"uble, Bo-Bo",city,"Chilln, Chile",Chile
30700,-96.6965625,40.803235,Brooks Hinrichs,1037000729813295104,2020-04-29 20:43:23,anywhere but iowa,city,"Lincoln, NE",United States
242,120.68690500000001,24.15372, ,1037000733546053634,2020-06-05 15:01:05,"Taichung City, Taiwan",poi, | Yimin-Yizhong Shopping District,
16980,-87.732013,41.8335845,Split The EdgeGod,1037000941,2020-02-15 22:29:27,"Chicago, IL",city,"Chicago, IL",United States
31340,-79.141425,37.392381,Bass Elementary School,1037001013415354369,2020-03-02 13:37:04,"Lynchburg, VA",poi,William Bass Elementary School,United States
33,-72.847267,-41.5131185,johnny,1037001192369471488,2020-04-30 03:36:06,"Puerto Montt, Chile",city,"Puerto Montt, Chile",Chile
21,-43.959822499999994,-19.918692,Ninbre,1037001496368439296,2020-05-20 06:45:25,031,city,"Belo Horizonte, Brasil",Brasil
82,74.2797485,34.3996145,Tipu Mujahid Paracha ,1037001707048370176,2020-05-06 01:53:17,Pakistan,neighborhood,"Handwara, Jammu And Kashmir",
65,5.505708,43.52157750000001,Jean-Christophe Girault,1037001799679574016,2020-03-11 11:22:09,"Aix-en-Provence, France",city,"Le Tholonet, France",France
171,120.9839865,14.5914565,Cath,1037001923453280257,2020-02-14 03:36:09,Caloocan City,city,"Manila City, National Capital Region",Republic of the Philippines
82,77.095086,28.638489500000002,Didiki_Renthlei,1037001940142514176,2020-04-05 15:19:12,,city,"New Delhi, India",India
65,0.2107295,48.034922,cam,1037002398,2020-04-01 14:49:31,,city,"Coulaines, France",France
95,127.091828,37.5890075,,1037002578037358592,2020-02-23 15:11:25,,city,"Jungnang-gu, Republic of Korea",Republic of Korea
175,41.0226445,30.957116499999998,   ,1037002585,2020-05-16 16:45:47,",   ",city,",   ",  
21,-43.2,-22.9,MaguinhaComAsas,103700302,2020-04-05 03:57:47,Rio de Janeiro,city,"Rio de Janeiro, Brasil",Brasil
120,100.33765903,5.41506938,Emer Gencyexitonly,1037003047,2020-02-26 12:31:38,,city,"George Town, Pinang",Malaysia
186,-6.0860470000000015,38.891708,Marimont,1037003280621215746,2020-04-04 13:28:24,"Guarea, Espaa",city,"Guarea, Espaa",Espaa
71,13.4246065,52.506701,Urko,103700349,2020-02-15 11:27:24,"Berln, Alemania",city,"Berln, Alemania",Alemania
193,100.431565,13.749305499999998,BlackRosi ,1037003689800523777,2020-05-22 14:45:14,,city,"Bang Chueak Nang, Thailand",Thailand
85,11.244817,43.7807085,Daniele Failli,1037003822,2020-03-02 21:41:03,Florence,city,"Firenze, Toscana",Italia
171,124.486949,11.5187235,Rey Robin Lagbo,1037003865319563267,2020-03-02 12:36:14,"Catbalogan City, Eastern Visayas",city,"Biliran, Eastern Visayas",Republic of the Philippines
21,-40.37516700000001,-20.427329500000003,Menor#Mt da 027,1037003963177095169,2020-03-14 22:15:31,"Boa Vista Vila Velha, Brasil",city,"Vila Velha, Brasil",Brasil
164,-17.089345,32.67982,Madeira Sun Travel,1037003978536611840,2020-04-27 16:50:40,"Funchal, Portugal",city,"Ponta do Sol, Portugal",Portugal
65,5.363409,43.306490000000004,Chopper ,1037004031112171521,2020-06-05 17:50:58,Grand Line ,poi,Terrasse des Terrasses du Port,France
82,84.9017625,25.4664775,Md Kasif,1037004192240623616,2020-02-15 06:43:57,"patna,bihar",city,"Danapur, India",India
88,140.06141261,35.76108663,,1037004613,2020-04-02 09:52:15,Chiba,city, ,
91,36.8167,-1.2833299999999999,Shee Wa Dan,1037004664598880256,2020-02-28 04:59:00,"Nairobi, Kenya",city,"Nairobi, Kenya",Kenya
178,27.968098,-26.2761385,BOKAMOSO,1037004686681882625,2020-02-26 07:46:45,"Johannesburg, South Africa",city,"Johannesburg, South Africa",South Africa
88,139.815545,35.715131,,1037004706084581376,2020-02-18 14:38:05,,city,"Sumida-ku, Tokyo",Japan
65,5.6206065,48.678945,katalina,1037005078975180802,2020-05-13 07:49:17,she/her,city,"Void-Vacon, France",France
193,100.585711,13.733137,Wayo_Trinai,1037005093,2020-02-16 13:48:01,"Ramkamheng, Bangkok,Thailand",city,", ",
47900,-77.0143985,38.898603,Kelvin Brown,1037005404847448064,2020-02-27 03:52:00,"Washington, DC",city,"Washington, DC",United States
120,101.925092,2.7545815,Dressar Syami,1037005561508712449,2020-02-15 03:41:05,,city,"Seremban, Negeri Sembilan",Malaysia
24,-71.95553249999999,45.412629,Ct O'Neil,1037005637677449217,2020-03-05 06:49:01,"Sherbrooke, Qubec",city,"Sherbrooke, Qubec",Canada
26620,-86.611411,34.7060265,princetheshooter ,1037006148539494407,2020-05-13 07:31:12,north alabama,city,"Huntsville, AL",United States
186,1.273667,41.126926,Pep Santos,1037006152721154049,2020-03-18 21:07:34,Tarragona,poi,Nou Estadi,Spain
175,39.8016865,21.389833000000007,H A B K A | ,1037006159612456960,2020-03-15 22:43:00, ,city," ,   ",  
85,12.5451455,41.8984165,KUM! Festival,1037006556146135040,2020-02-14 12:52:08,"Ancona, Marche",city,"Roma, Lazio",Italia
208,-56.528197999999996,-33.387725,Dario diaz,1037006597783019520,2020-06-02 18:52:07,Paso  De Los Toros,poi,Terminal Rodo,Uruguay
88,135.49745296,34.70340796,     ,1037006604,2020-02-14 09:55:39,,city,  ,
8,-67.520174,-45.878122499999996, ,1037006831263080448,2020-02-29 06:00:49,"Chubut, Argentina",city,"Comodoro Rivadavia, Argentina",Argentina
171,124.81245249999999,8.7375475,ErwinTulfo,1037007058627833858,2020-02-16 00:11:37,"Cagayan De Oro City, Northern ",city,"Balingasag, Northern Mindanao",Republic of the Philippines
205,-2.3495665,53.4753035,Jamie Harkin,1037007070439067648,2020-03-21 08:59:30,Northern Ireland,city,"Salford, England",United Kingdom
17140,-84.614453,39.1585015,Mr_TM0,1037007525059747840,2020-02-24 17:07:38,"Cincinnati, OH",city,"Cheviot, OH",United States
12420,-97.733349,30.279722999999997,KP Media,1037007581942870018,2020-02-15 20:24:51,"Kingwood, Houston",poi,Lee and Joe Jamail Swim Center,United States
26420,-95.2099195,30.0614505,KP Media,1037007581942870018,2020-06-02 03:05:22,"Kingwood, Houston",neighborhood,"Kingwood, Houston",United States
17460,-81.52652950000002,41.5239125,Tez,1037007767213678592,2020-02-14 23:48:16,"South Euclid, OH",city,"South Euclid, OH",United States
186,-5.973177,37.386727,David S.F,1037008292072108032,2020-02-16 16:56:54,,poi,Restaurante San Marcos,Spain
171,120.9839865,14.5914565,steph,1037008641486774272,2020-05-17 09:52:20,Taguig City,city,"Manila City, National Capital Region",Republic of the Philippines
119,-100.3108,25.667928,,1037008760403906560,2020-02-14 00:39:08,"Monterrey, Nuevo Len",poi,Las Alitas,Mxico
37900,-89.5422255,40.6861225,Gabi Guerrero,1037008939962048512,2020-03-28 17:25:26,"East Peoria, IL",city,"East Peoria, IL",United States
171,120.9839865,14.5914565,JulyanaGalima,1037008963932315648,2020-03-05 05:23:16,,city,"Manila City, National Capital Region",Republic of the Philippines
161,68.74171100000001,27.522981,Tasadaque Hussain Arain,1037008993074532356,2020-06-04 12:10:07,"Karachi, Pakistan",city,"Lugman, Pakistan",Pakistan
21,-43.441578,-22.911421500000003,gringa,1037009209127313408,2020-03-13 14:53:31,021 ,city,"Rio de Janeiro, Brasil",Brasil
88,134.841465,34.747768,( ),1037009261866377216,2020-03-26 09:19:32,,poi,,Japan
152,4.486421,52.062445000000004,Robery,1037009378359033857,2020-02-18 12:01:42,,city,"Zoetermeer, Nederland",Nederland
85,12.46066427,41.89291615,manu@,1037009526980063243,2020-03-15 14:08:30,"Roma, Lazio",city,"Rome, Lazio",Italy
21,-43.3697645,-22.7854705,,1037009866974547969,2020-02-16 19:49:50,Brasil,city,"So Joo de Meriti, Brasil",Brasil
151,3.5996725,6.497681,Tweet@rih_darh,1037009881860059138,2020-05-02 18:42:43,"Abuja, Nigeria",city,"Addo, Nigeria",Nigeria
204,33.219505,0.437605,Kaija Deogracious marksman,1037010099418685440,2020-05-26 14:36:55,"Jinja, Uganda",poi,Java House Jinja,Uganda
29180,-92.0611765,30.206079000000006,Mr. Young Broke & Handsome,1037010331980259330,2020-03-23 17:17:51,"Lafayette, LA",city,"Lafayette, LA",United States
21,-46.2900965,-23.86332,Yasmin//CALM,1037010437919965185,2020-04-06 13:22:16,"Sao Paulo, Brazil",city,"Santos, Brasil",Brazil
193,100.57348,13.728316,,1037010454952927233,2020-02-26 14:04:57,"rps,, no reverse",poi,Gigi - Dining Hall & Bar,Thailand
205,-1.449612,53.3831645,Owen Gilder,1037010477937840129,2020-04-22 16:06:51,"Sheffield, England",city,"Sheffield, England",United Kingdom
82,77.5584485,12.9231145,JS Balaji,1037010572473028608,2020-02-17 06:14:01,"Bengaluru, India",city,"Bengaluru South, India",India
35620,-74.26255326,40.28524068,Jody Phillips,103701058,2020-03-18 15:50:18,"Marlboro, Nj",city,"Freehold, NJ",United States
193,100.270253,16.804873999999998,Tum_LB,1037010593826267136,2020-03-14 09:01:06,,poi,Mayflower Grand Hotel,
119,-99.050461,19.3427885,lalo,103701062,2020-02-22 02:28:48,por ah en algn lugar,city,"Iztapalapa, Distrito Federal",Mxico
21,-43.441578,-22.911421500000003,bebezinha do edu.,1037010666312400896,2020-04-19 23:39:22,04.09.18 06.12.18 03.04.20,city,"Rio de Janeiro, Brasil",Brasil
82,86.123841,20.949672500000002,Sibil Kumar Singh,1037010734897553408,2020-03-02 16:49:15,India,city,"Jajapur, India",India
82,77.597645,12.971117,Shrirambn,1037010884093272064,2020-05-08 15:43:42,,city,"Bengaluru, India",India
21,-59.9803255,-2.572425,Giovanna boiolinha,1037010901742837760,2020-05-24 13:28:39,ot5 ,city,"Manaus, Brasil",Brasil
175,46.0327485,28.350082500000003,,1037011096534700033,2020-03-30 21:44:17,,city,"Hafr Al Batin, Kingdom of Saudi Arabia",Kingdom of Saudi Arabia
96,47.6582825,29.3427065,,1037011096534700033,2020-05-17 09:51:35,,city,",  ", 
205,-1.2334334999999998,51.75428599999999,Thomas Guiney,1037011214,2020-02-14 08:53:21,"Oxford, England",city,"Oxford, England",United Kingdom
200,27.006511,38.4079305,Hande,103701127,2020-05-17 20:39:57,"zmir, Trkiye",city,"zmir, Trkiye",Trkiye
21,-42.1347125,-22.9346425, da biz ,1037011364982730753,2020-02-26 16:30:27,"Rio de Janeiro, Brasil",city,"Arraial do Cabo, Brasil",Brasil
47980,-96.6344655,45.218293,Jesse Buth,1037011492435095554,2020-02-19 18:49:58,Strandburg SD,city,"Milbank, SD",United States
175,36.466588,28.383682,Wejdan.,1037011734991654912,2020-02-24 06:35:01,Kingdom of Saudi Arabia,poi,  ,Kingdom of Saudi Arabia
193,102.08574,14.967381,,1037011736140771328,2020-02-21 17:13:02,"., ",city,", ",
186,-3.68333,40.4,Jah RastaManix,103701194,2020-02-29 12:30:58,"10.441798,-66.863671",city,"Madrid, Spain",Spain
8,-63.754630500000005,-35.66556950000001,Agus ,1037012073602015232,2020-03-05 22:06:45,"General Pico, Argentina",city,"General Pico, Argentina",Argentina
151,7.5103,6.4527,Dioramma_official,1037012095211134977,2020-02-23 20:12:44,"Enugu, Nigeria",city,"Enugu, Nigeria",Nigeria
35620,-73.9487755,40.655138,1106Diva,1037012768312971265,2020-03-28 23:39:54,"Brooklyn, NY",city,"Brooklyn, NY",United States
88,139.70263,35.670679,MAKOTO777,1037012839603400705,2020-02-21 15:32:31,"Tokyo-to, Japan",poi, (Harajuku Sta.),Japan
35620,-74.294436,40.707363,jason ,1037012879696908288,2020-02-20 20:30:38,"he/him, bi",poi,The Cannonball House,United States
88,130.88133,33.88108,,1037012952992243712,2020-02-15 00:06:54,1-12 2F,poi,,Japan
98,102.629597,17.957983, 18,1037012982411055104,2020-03-06 05:02:16,,poi,Sengdara Fitness Centre,Lao People's Democratic Republic
82,84.9017625,25.4664775,Shubham Kumar,1037013082415853568,2020-05-14 02:18:31,"Bihar, India",city,"Danapur, India",India
222,114.228117,-8.271165499999999,Citrazzahrra,1037013326994190336,2020-04-25 09:58:28,,city,"Singojuruh, Indonesia",Indonesia
21,-49.2612705,-16.812291000000002,Hermes Vargas,1037013540970876930,2020-02-14 02:33:49,"Gois, Brasil",city,"Aparecida de Goinia, Brasil",Brasil
193,100.631775,14.79901,Ked_Kewalin,1037013699033088000,2020-02-27 11:58:46,"., ",city,", ",
10780,-92.405713,31.331719,Rachael Jordan,1037013753018101760,2020-03-08 17:22:20,The moon. ,poi,Walmart Grocery Pickup,United States
21,-43.441578,-22.911421500000003,Blessed ,1037013757925490688,2020-06-05 05:42:52,Faixa de Gaza ,city,"Rio de Janeiro, Brasil",Brasil
151,8.527467000000001,12.005,Junior,1037013988926738432,2020-05-12 18:50:06,"Kano, Nigeria",city,"Kano, Nigeria",Nigeria
205,-1.8576110000000001,53.8229855,Elaine Guest,1037013998041026560,2020-05-28 21:11:22,,city,"Wilsden, England",United Kingdom
222,106.76514399999999,-6.258931,rka,1037014262168748034,2020-02-20 07:38:35,,poi,Universitas Prof. Dr. Moestopo [B] - Bintaro,Indonesia
35620,-74.304097,40.656323,Linda Logue,1037014273,2020-04-10 04:38:08,NJ ,city,"Cranford, NJ",United States
88,139.699007,35.661885,,1037014456549531648,2020-02-22 05:47:36,,poi, (Tachinomi Beerboy),
10420,-81.6447,41.0989,Loop In Copley,1037014792907759618,2020-03-13 14:42:15,"Copley, OH",city,"Copley, OH",United States
152,4.904053500000001,52.354728,Mr Bowe - Abbeywood CS,1037014897479970816,2020-02-17 21:08:04,"Bristol, England",city,"Amsterdam, The Netherlands",The Netherlands
205,-3.0511205,51.7181465,Mr Bowe - Abbeywood CS,1037014897479970816,2020-02-23 15:01:19,"Bristol, England",city,"Pontypool, Wales",United Kingdom
200,30.4946315,39.7868135,Enss,1037015005487616001,2020-02-18 21:51:00,"Eskiehir, Trkiye",city,"Eskiehir, Trkiye",Turkey
88,139.512451,35.635884000000004,,103701516,2020-02-22 07:44:36, ,poi,,
82,75.01205200000003,20.4632265,Digvijay Deshmukh,1037015318,2020-02-17 14:40:27,"Pune, Chalisgaon ",city,"Chalisgaon, India",India
21,-46.57203197,-23.47169027,Diego Ventura,103701537,2020-02-14 01:21:15,Guarulhos - SP,city,"Sao Paulo, Brazil",Brazil
151,8.891741,9.950175999999999,Peepee,1037015659924869120,2020-03-02 20:59:31,Jos Nigeria,poi,University of Jos,Nigeria
21,-43.119101,-22.616096,Paula Fernanda Pikkassy,1037015689004048384,2020-02-14 04:45:06,"Rio de Janeiro, Brasil",city,"Mag, Brasil",Brasil
95,127.02533899999999,37.504726,Moli @,1037015782729773056,2020-02-18 09:44:43, ,poi,,
21,-46.5955455,-23.682803,Marcos Andr,1037015948115550208,2020-02-25 02:52:24,"So Paulo, Brasil",city,"Sao Paulo, Brazil",Brazil
205,-4.2417515,55.85830249999999,Tamsin Selbie,1037016308544618496,2020-03-13 17:31:25,"Glasgow, Scotland",city,"Glasgow, Scotland",United Kingdom
119,-100.24329185,25.57186586,Interamerican School,1037016416593924096,2020-02-14 20:41:27,"Monterrey, Nuevo Len",city,"Monterrey, Nuevo Len",Mexico
205,-1.7626134999999998,54.963613,Steve,1037016438,2020-02-26 18:20:24,Newcastle & Portugal,city,"Ryton, England",United Kingdom
69,-1.7346840000000001,7.132669,Doodu Emmanuel,1037016532029714432,2020-02-22 09:37:56,Offinso Abofour,poi,Abofour Cocoa Shed,Ghana
33460,-93.2373245,44.679378,jaydee06071,1037016631443111938,2020-05-29 16:04:32,Lakeville MN,city,"Lakeville, MN",United States
85,16.341495000000002,39.85586050000001,pietropistocchi.19@gmail.com,1037016825018638337,2020-03-02 18:39:52,"Cerchiara di Calabria, Calabri",city,"Cerchiara di Calabria, Calabria",Italia
21,-47.03021800000001,-22.8949945,Boy Int SP,1037016929402322946,2020-02-27 19:11:40,,city,"Campinas, Brasil",Brasil
21,-46.845437,-23.547862,ka,1037017317459288064,2020-04-09 01:02:16,"So Paulo, Brasil",city,"Carapicuba, Brasil",Brasil
20820,-88.49283299999998,39.1275985,Timothy Petty,1037017355568726017,2020-02-23 00:42:35,"Sullivan, IL",city,"Teutopolis, IL",United States
28140,-93.569859,38.980782,Jordan Thomas,1037017368805945345,2020-02-19 04:56:37,"Missouri, USA",poi,Concordia Community Center,United States
193,100.563008,13.843001,Ton.SE,1037017840358895616,2020-02-24 09:11:31,", ",city,", ",
200,27.793896000000004,40.39975,Aleyna,1037018085771894784,2020-04-05 20:37:04,BCS,poi,Antalya,Trkiye
31080,-118.32514499999999,34.18216,Mr. Miami,1037018234967355393,2020-02-14 07:38:20,"Los Angeles, CA",city,"Burbank, CA",United States
82,77.202683,28.560404,CARE VILLAGE FOUNDATION,1037018437476917248,2020-02-18 04:56:24,"Bakarwala, New Delhi",poi,Southgate Hotel,India
41940,-121.82996599999998,37.336999,Katherine Grunewald,1037018472700473344,2020-02-14 19:40:08,"Alum Rock, CA",poi,Clyde L. Fischer Middle School,United States
31080,-118.1567105,33.809171500000005,Katherine Grunewald,1037018472700473344,2020-02-19 17:55:59,"Alum Rock, CA",city,"Long Beach, CA",United States
41940,-121.8737305,37.331159,Katherine Grunewald,1037018472700473344,2020-02-28 20:15:31,"Alum Rock, CA",city,"San Jose, CA",United States
161,74.3584865,31.5318195,Mudassar Bashir Goraya,1037018527289548801,2020-04-25 07:32:37,"Lahore, Pakistan",city,"Lahore, Pakistan",Pakistan
38060,-111.8583985,33.639340000000004,annika nichols,1037018603911032832,2020-03-27 16:26:58,"Ohio, USA",city,"Scottsdale, AZ",United States
222,110.47883200000001,-7.009436,Achyani Tjokrodimejo,1037018624,2020-03-02 22:37:35,semarang,city,"Pedurungan, Indonesia",Indonesia
37860,-87.1537,30.5956,Nick Cain Bailey,1037018834320990208,2020-04-11 14:09:03,"Pensacola, FL",city,"Pace, FL",United States
33460,-93.166616,44.8184775,Sara Kosiorek,10370192,2020-04-11 16:12:01,MN via NYC & Wisconsin,city,"Eagan, MN",United States
12060,-84.131209,34.205535999999995,Bark Busters of Alpharetta & Roswell,1037019232125558785,2020-04-18 13:19:04,"Alpharetta, GA",city,"Cumming, GA",United States
45540,-81.9968975,28.922832,Bark Busters of Alpharetta & Roswell,1037019232125558785,2020-05-17 02:13:42,"Alpharetta, GA",city,"The Villages, FL",United States
12060,-84.340338,34.041211499999996,Bark Busters of Alpharetta & Roswell,1037019232125558785,2020-05-17 10:38:00,"Alpharetta, GA",city,"Roswell, GA",United States
82,80.04240200000002,12.814992,Karuturi Praveen Babu,1037019260751474688,2020-03-09 14:23:27,"Andhra Pradesh, India",city,"Kattankulathur, India",India
200,29.0052225,41.0213205,Volkan Topa,1037019272680235008,2020-03-24 21:03:54,"stanbul, Trkiye",city,"stanbul, Trkiye",Trkiye
28140,-94.5592815,39.1000485,Sean,1037019312094146561,2020-02-14 22:48:16,United States,city,"Kansas City, MO",United States
200,39.492292,40.45962299999999,Yamur Ko,1037019404905664512,2020-02-18 19:18:45,Yozgat Akdagmadeni,city,"Gmhane, Trkiye",Trkiye
200,35.458448499999996,38.7292675,Escobar derler,1037019479337840641,2020-02-22 11:28:56,"Trabzon Merkez, Trabzon",city,"Kayseri, Trkiye",Trkiye
25700,-99.317422,38.874046,abigail,1037019608824328192,2020-04-26 18:48:41,FHSU,poi,Taco Bell,United States
48620,-97.343915,37.6838965,abigail,1037019608824328192,2020-05-11 19:35:07,FHSU,city,"Wichita, KS",United States
120,103.135547,5.2621839999999995,,1037019619750371328,2020-04-07 02:29:49,,poi,Pantai Batu Burok,Malaysia
171,120.9839865,14.5914565,christian,1037019829645934592,2020-02-15 15:47:30,"Manila City, National Capital",city,"Manila City, National Capital Region",Republic of the Philippines
205,-1.570206,55.18015450000001,Janet Mole,1037019896,2020-03-23 17:03:37,"Ashington, England",city,"Ashington, England",United Kingdom
205,-1.4390975000000001,53.2498555,Rob Holland,1037020246668963841,2020-03-10 21:53:31,"Chesterfield, England",city,"Chesterfield, England",United Kingdom
26420,-95.08910300000001,29.51173,_tjm390_,1037020267174928384,2020-04-06 03:35:38,"League City, TX",poi,Helen's Garden,United States
37980,-74.946407,40.102243,,1037020393306025984,2020-04-26 13:19:51,,city,"Bensalem, PA",United States
82,82.93295549999998,25.3733755, ,1037020496695451648,2020-02-14 07:35:23,", ",city,"Varanasi, India",India
204,32.595056,0.318902,The voice consults Ltd,1037020569143844864,2020-03-06 11:59:01,,poi,Hotel Africana,Uganda
38900,-122.5889745,45.630589,Carinn Ormson,1037020778162573312,2020-03-04 00:03:28,,city,"Vancouver, WA",United States
87,44.098764,36.168314,Abdulbasit Bashdar,1037020884412915712,2020-04-04 09:39:59,Kurdistan,poi,Erbil/Irak,Iraq
200,29.0052225,41.0213205,Gnal  Aygl,1037021054223507456,2020-02-17 07:54:39,"stanbul, Trkiye",city,"stanbul, Trkiye",Trkiye
47900,-77.26556848,38.93249433,rahree,10370212,2020-02-29 00:36:00,"Vienna, VA",city,"Wolf Trap, VA",United States
151,7.424094,9.073663999999999,Tada,1037021275909251074,2020-03-21 21:20:19,"Abuja, Nigeria",city,"Abuja, Nigeria",Nigeria
33460,-93.273666,44.970127000000005,HawksArts&Activities,1037021365994442754,2020-02-14 15:22:14,"Chaska, MN",poi,Minneapolis Convention Center - Ballroom A/B,United States
38300,-79.9806895,40.431389,Bing,1037021673457967105,2020-02-14 13:26:03,"Pittsburgh, PA",city,"Pittsburgh, PA",United States
21,-43.441578,-22.911421500000003,pb,1037021819654615040,2020-02-14 03:24:44,"preguia, rj",city,"Rio de Janeiro, Brasil",Brasil
99,36.045676,34.389932,Khaled Dahrouj,1037022013129469952,2020-03-30 18:20:03,. ,poi,,Lebanon
82,72.57023199999999,23.013959,Shree Raj Industries,1037022124014292994,2020-05-30 17:26:06,"Ahmadabad City, India",city,"Ahmadabad City, India",India
119,-100.31544362,25.785179199999998,El Monjeton,103702219,2020-02-24 18:34:41,monterrey n.l. mexico,city,"General Escobedo, Nuevo Len",Mxico
175,39.2541285,21.5857105,  ( ),1037022566504951808,2020-03-04 13:28:34,",   ",city,",   ",  
65,-0.644579,45.7463185,Lou,1037022576487395328,2020-04-01 15:48:01,,city,"Saintes, France",France
82,76.738395,30.7378815,Yuvan Sharma,1037022786802409472,2020-05-13 09:26:15,"Chandigarh, India",neighborhood,"Sector 40B, Chandigarh",India
14380,-81.657895,36.215092,Dalton,1037022915441709058,2020-02-18 00:35:07,"Boone, NC",city,"Boone, NC",United States
16740,-80.8467855,35.209059,Dalton,1037022915441709058,2020-05-09 22:00:24,"Boone, NC",city,"Charlotte, NC",United States
14380,-81.657895,36.215092,Dalton,1037022915441709058,2020-05-20 23:13:42,"Boone, NC",city,"Boone, NC",United States
24,-79.267953,43.327593,Miss.Mrozek,1037022931715608576,2020-03-05 21:20:22,"St. Catharines, Ontario",city,"St. Catharines, Ontario",Canada
21,-43.441578,-22.911421500000003,Ryan Tyrone,1037023024111857664,2020-02-14 04:23:35,"Rio de Janeiro, Brasil",city,"Rio de Janeiro, Brasil",Brasil
222,98.875393,3.5725849999999997,Lae Manik,1037023371148447744,2020-04-01 05:46:47,"Kota Medan, Sumatera Utara",city,"Pagar Marbau, Indonesia",Indonesia
38060,-111.928142,33.392883999999995,yz,1037023398918905856,2020-03-04 16:07:54,"Tempe, AZ",city,"Tempe, AZ",United States
205,-1.56549,53.801956,Zach Morman,1037023538,2020-03-09 21:54:55,"Leeds, United Kindom",city,"Leeds, England",United Kingdom
171,121.044349,14.552664000000002,GloriAnne Rose Art - Commissions Open,1037023681661218816,2020-03-02 01:24:51,,poi,Burgos Circle,Republic of the Philippines
175,43.9595905,26.345051,salmanhott,1037023795708657665,2020-05-11 18:35:56,,city,",   ",  
159,-57.60601750000001,-25.300264000000002,Willians M.,1037024012365455360,2020-02-15 20:20:58,"Asuncion, Paraguay",city,"Asuncion, Paraguay",Paraguay
21,-46.644511,-23.6521605,Luba Melo ,103702419,2020-02-27 17:39:26,,neighborhood,"Jabaquara, So Paulo",Brasil
47260,-76.355918,36.841764000000005,Vaundra Walters,1037024378805002242,2020-02-14 15:47:55,"Suffolk, VA",city,"Portsmouth, VA",United States
193,100.6133535,13.768875,+,1037024413474992128,2020-02-14 00:00:02,", ",city,", ",
82,88.352242,22.6127055,Soura Nath,1037024632765788160,2020-02-15 16:01:37,", ",city,"Kolkata, India",India
200,29.0052225,41.0213205,ALP ,1037024983,2020-04-11 10:21:36,"stanbul, Trkiye",city,"stanbul, Trkiye",Trkiye
21,-51.14734,-23.31256,Mil_enas,1037025671414009864,2020-02-14 20:14:52,"Londrina, Brasil",poi,Los Chiquitos,Brasil
191,8.550713,47.3252955,Acatena,1037025684949004289,2020-03-19 06:02:01,"Zug, Switzerland",city,"Kilchberg (ZH), Schweiz",Schweiz
37980,-75.057703,39.907895,Siobhan Marr,1037025842923294720,2020-03-20 20:50:28,"Haddon Township, NJ",city,"Westmont, NJ",United States
35620,-74.03315500000001,40.307412,Miss Surak,1037025955255070721,2020-03-06 19:32:20,"Oceanport, NJ",poi,Wolf Hill Elementary School,United States
41940,-121.8865,37.3376,Lupe Vasquez,1037025972585779200,2020-02-15 02:25:44,"san jose California, USA",city,"San Jose, CA",United States
23420,-119.695,36.8194,Lupe Vasquez,1037025972585779200,2020-03-24 22:47:57,"san jose California, USA",city,"Clovis, CA",United States
82,79.00067800000001,10.772534,PRABHAZ ,1037026164487802880,2020-04-05 18:45:59,"Thanjavur, Tamilnadu.",city,"Thanjavur, India",India
151,12.19162,10.6140874,Kabeer Ibraheem,1037026201917947904,2020-02-25 14:46:10,"Biu, Nigeria",city,"Biu, Nigeria",Nigeria
175,46.0327485,28.350082500000003, kholod,1037026226014224384,2020-03-28 22:07:48,  ,city,"Hafr Al Batin, Kingdom of Saudi Arabia",Kingdom of Saudi Arabia
65,4.9159809999999995,44.923410499999996,Alexandre Despesse,1037026532026474497,2020-05-22 15:54:20,"Valence, France",city,"Valence, France",France
21,-45.7178455,-23.103584,carolzita ,1037026928287539200,2020-02-14 00:22:09,"Caapava, Brasil",city,"Caapava, Brasil",Brazil
88,139.7091805,35.701657,SNAKE_R25,1037027232,2020-02-14 13:04:15,,city, ,
26580,-82.73411949999998,38.5496295,ShadowwalkerRN,1037027260216352768,2020-04-15 03:14:57,United States,city,"Worthington, KY",United States
21,-43.446886000000006,-22.8025775,Ariel ,1037027414231183360,2020-03-10 19:02:41,"Amsterdam, NY",city,"Mesquita, Brasil",Brasil
82,77.4233395,28.773568,Rama Tyagi,1037027458292297728,2020-02-17 17:21:52,"Ghaziabad, India",city,"Ghaziabad, India",India
65,2.43502,48.832521,au,1037027490747871233,2020-03-14 16:12:16,"Paris, France",poi,Bois de Vincennes,France
21700,-124.078655,40.878987,Jared,1037027538676068353,2020-03-03 18:21:31,Earth,poi,The J,United States
40900,-121.3007305,38.7631605,Jared,1037027538676068353,2020-03-15 04:13:48,Earth,city,"Roseville, CA",United States
21700,-124.0823315,40.874945000000004,Jared,1037027538676068353,2020-03-29 05:16:57,Earth,city,"Arcata, CA",United States
40900,-121.3007305,38.7631605,Jared,1037027538676068353,2020-04-02 00:06:05,Earth,city,"Roseville, CA",United States
21,-49.291663,-25.44279,Natyelli Marques,103702759,2020-03-12 11:13:18,"Curitiba, Brasil",poi,Santo Gro,Brasil
14460,-70.8158325,42.234056,Liam Cunnie,1037027724379004928,2020-03-21 23:48:53,,city,"Cohasset, MA",United States
175,49.9945455,26.353591499999997,,1037027744,2020-02-17 11:59:22,,city,",   ",  
222,103.9543095,1.0873780000000002,,1037028085,2020-02-21 03:09:52,"Kota Batam, Kepulauan Riau",city,"Sekupang, Indonesia",Indonesia
184,103.86025,1.2889389999999998,,1037028085,2020-03-02 13:04:12,"Kota Batam, Kepulauan Riau",poi,Youth Olympic Park,Singapore
186,-4.852206000000002,39.952182,Gabriel ea4dua,1037028443010080768,2020-03-01 16:39:22,"Talavera de la Reina, Espaa",city,"Talavera de la Reina, Espaa",Espaa
24,-79.68,44.4133,Archie Degaust,1037028475914399744,2020-04-05 21:30:58,"Barrie, Ontario",city,"Barrie, Ontario",Canada
82,77.15899999999999,28.5574,Archie Degaust,1037028475914399744,2020-04-18 15:24:58,"Barrie, Ontario",city,"New Delhi, India",India
222,110.22779650000001,-7.9126455,,1037029008771149829,2020-04-12 00:00:31,"Kulon Progo, Yogyakarta",city,"Lendah, Indonesia",Indonesia
21,-47.261794,-22.843816,Luana,1037029047572877318,2020-02-14 01:17:16,"Sumar, Brasil",city,"Sumar, Brasil",Brasil
175,39.82536668,21.41956477,Abdul Rafay khatri,1037029283003342848,2020-04-08 19:11:24,"Karachi, Pakistan",city,"Makkah Al Mukarrama, Kingdom of Saudi Arabia",Kingdom of Saudi Arabia
19380,-84.22706099999999,39.637084,Masturix,1037029591355977728,2020-03-07 00:49:47,,poi,Chuck E. Cheese,United States
33,-70.59891999999999,-32.83409,Ahora BenignoLos Andes,1037029752870260736,2020-04-25 18:02:57,"Los Andes, Chile",city,"Los Andes, Chile",Chile
193,100.5811335,14.3605655, ,1037029776,2020-02-14 06:54:06,,city,", ",
82,81.84394499999999,17.0805005,Madhu addala ,1037029776236527616,2020-03-17 14:53:51,tanuku India,city,"Rajahmundry, India",India
205,-0.092633,51.358931,Nadeem Boolaky,1037029908751556608,2020-05-04 09:47:10,"London, England",city,"Croydon, London",United Kingdom
222,106.63893700000001,-6.288886,Apanja_,1037029910370430976,2020-02-19 05:37:42,,poi,Auto2000 BSD City (Astra Biz Centre),Indonesia
8,-58.442643,-34.604315,@PendejoMorboso,1037030094148182016,2020-02-16 13:29:19,CABA,city,"Ciudad Autnoma de Buenos Aires, Argentina",Argentina
186,-3.045367,38.9203635,chandi sensei,1037030393734746113,2020-03-14 23:59:26,,city,"Alhambra, Espaa",Spain
205,-0.216108,51.498387,Elaine Robertson,1037030453742579714,2020-02-20 09:14:21,"North East, England",city,"Hammersmith, London",United Kingdom
191,6.942185,46.341904,cesar tarik,103703051,2020-02-27 23:42:39,suisse,city,"Yvorne, Suisse",Suisse
21,-43.441578,-22.911421500000003,JuSevilha,1037030692436238339,2020-02-14 01:50:21,"Rio de Janeiro, Brasil",city,"Rio de Janeiro, Brazil",Brazil
152,5.2451539999999985,52.2963575,Mirjam de hiep,1037030919062863872,2020-03-17 12:04:23,"Hilversum, Nederland",city,"Huizen, Nederland",Nederland
186,-1.0577915,38.0816085,paco,1037030971705647106,2020-02-14 07:09:38,,city,"Santomera, Espaa",Espaa
12540,-119.025163,35.3469015,Jenn(F.E.S)@1060homedepot,1037030975111225345,2020-06-03 19:23:28,"Bakersfield, CA",city,"Bakersfield, CA",United States
200,29.025934999999997,41.047943,Sleyman Snger,1037031119722606592,2020-02-14 18:51:27,"Ataehir, stanbul",poi,Ortaky Sahili,Trkiye
175,46.685077,24.7219435,amoosh..,1037031431892074497,2020-04-21 20:07:59,",   ",city,"Riyadh, Kingdom of Saudi Arabia",Kingdom of Saudi Arabia
21,-48.672716,-27.582547,Victor Nassif,103703183,2020-02-14 00:27:56,"Florianpolis, Brasil",city,"So Jos, Brasil",Brasil
45820,-95.6907325,39.037579,Tim Twombly,1037031866338107393,2020-02-14 04:18:22,"Kansas, USA",city,"Topeka, KS",United States
82,79.86563000000001,15.586310000000001,Chow's_Son_Hemanth,1037031892522950656,2020-04-11 10:05:08,"Podili, India",city,"Ongole, India",India
88,134.5407,34.987120000000004,Chow's_Son_Hemanth,1037031892522950656,2020-05-25 03:05:02,"Podili, India",city,"Shiso-shi, Hyogo",Japan
82,79.6167,15.6167,Chow's_Son_Hemanth,1037031892522950656,2020-05-31 02:33:57,"Podili, India",city,"Podili, India",India
35620,-73.932847,41.720804,Marist College Department of History,1037032017253281793,2020-02-29 15:40:33,"Poughkeepsie, NY",poi,Marist College,United States
85,7.6757855,45.072872499999995,Carolina Reviglio,1037032477825662977,2020-03-10 07:38:52,"Torino, Piemonte",city,"Torino, Piemonte",Italia
200,32.9054875,39.97281750000001,Bar Alacatl,103703321,2020-05-16 17:46:37,"Ankara, Trkiye",city,"Altnda, Trkiye",Trkiye
82,73.88438199999999,18.520764,Nishikant Dindorkar,1037033305726742528,2020-02-16 18:30:44,"Pune, India",city,"Pune, India",India
49,-79.3233295,-4.0914955000000015,lucia naula,1037033466414678016,2020-03-26 06:58:48,"Loja, Ecuador",city,"Loja, Ecuador",Ecuador
175,39.8016865,21.389833000000007,dola,1037033636053377024,2020-03-23 16:08:22,,city," ,   ",  
21,-50.862249,-25.4911615,N E G G O,1037033927024758784,2020-03-20 03:18:28,"Irati, Brasil",city,"Irati, Brasil",Brasil
19740,-104.98039815,39.68243288,Chris Cot,103703405,2020-03-01 00:22:33,"Castle Rock, CO",city,"Denver, CO",United States
57,15.985477,47.277363,,1037034093421182978,2020-06-01 19:35:25,;) ,city,"Hartberg, sterreich",sterreich
85,14.590157,41.031055,( ),1037034199704891397,2020-02-15 22:14:06,Miyukis class,city,"Rotondi, Campania",Italy
21,-34.939349,-8.043603,Paulo Floro,10370342,2020-03-17 13:02:21,Recife,city,"Recife, Brasil",Brasil
29100,-90.920648,43.906771,Melody Leis,1037034303136387077,2020-02-21 20:17:04,"Wisconsin, USA",poi,The Vault,United States
38060,-111.97346,33.521349,sandy ,1037034317271117824,2020-05-24 17:41:19,"Phoenix, AZ",poi,Echo Canyon Park / Camelback Trailhead,United States
99,35.472117,33.890361,Elsa,1037034412565843970,2020-03-08 15:28:15,Lebanon,poi,Downtown Beirute,
178,27.8575825,-33.022014,iKumkan'uSive Sibula,1037034654069600257,2020-03-20 21:18:56,EastLondon EmOnti Ebumnandini,city,"East London, South Africa",South Africa
9,145.0531355,-37.9725665,Tadeo Bayona Araque,103703530,2020-03-25 04:21:17,"Melbourne, Victoria",city,"Melbourne, Victoria",Australia
32820,-89.92202900000002,35.1335205,Splash,1037035408520044545,2020-02-22 01:12:48,"Memphis, TN",city,"Memphis, TN",United States
21,-49.2884605,-25.4952495,BABY,1037035459476635651,2020-02-19 23:17:13,"Curitiba, Brasil",city,"Curitiba, Brasil",Brasil
40140,-116.49740297,33.81559214,eddiekins,1037035596957401088,2020-02-19 17:05:11,"Los Angeles, CA",city,"Palm Springs, CA",United States
16980,-87.65440229999999,41.940361700000004,Trader Todd,103703561,2020-03-14 19:40:20,Chicago,city,"Chicago, IL",United States
164,-9.159995,38.743614,Victor Lobo,1037035841716137985,2020-02-28 13:40:11,"Montijo, Portugal",city,"Lisboa, Portugal",Portugal
88,130.27427699999998,33.5983945,tadao yamada,103703617,2020-02-25 08:13:44,fukuoka,city,  ,
119,-96.930499,19.550148,Nahum,103703626,2020-03-06 19:23:30,MEXICO,poi,Manifesto,Mxico
21,-46.70677695,-23.52981355,Jos Alves Coelho,1037036442545999872,2020-02-14 19:19:06,"Vila Mariana, So Paulo, Brasi",city,"So Paulo, Brasil",Brasil
119,-104.736024,20.627476,* Paola Dlt *,103703652,2020-03-31 05:23:08,"Jalisco, Mxico",poi,Sierra Lago Resort & Spa Hotel,Mxico
16980,-88.11324499999999,41.85174000000001,Carla Johns,1037036663627755520,2020-03-12 21:57:20,"Wheaton, IL",city,"Wheaton, IL",United States
88,139.769425,35.702328,,1037036722322780160,2020-03-11 05:12:52,,poi,Cafe Mai:lish,
171,121.0627355,14.683012,Keppy,1037036826974806016,2020-02-14 04:26:10,,city,"Quezon City, National Capital Region",Republic of the Philippines
51,-9.4203375,53.9092525,R/Nugent,1037036936660176896,2020-05-13 12:12:28,"Mayo, Ireland",city,"Mayo, Ireland",Ireland
21,-44.3657935,-23.032432500000002,P,1037037171067240448,2020-02-14 17:27:07,"Niteri, Brasil",city,"Angra dos Reis, Brasil",Brasil
12580,-76.62048200000002,39.284713, .  ,1037037188335194114,2020-02-14 02:20:59,,city,"Baltimore, MD",United States
47900,-76.887208,38.993539, .  ,1037037188335194114,2020-02-29 16:47:07,,city,"Greenbelt, MD",United States
12580,-76.555727,38.9920815, .  ,1037037188335194114,2020-03-01 00:10:03,,city,"Parole, MD",United States
47900,-76.887208,38.993539, .  ,1037037188335194114,2020-03-01 02:20:30,,city,"Greenbelt, MD",United States
12580,-76.62048200000002,39.284713, .  ,1037037188335194114,2020-03-02 04:43:21,,city,"Baltimore, MD",United States
47900,-76.89907249999997,39.077557500000005, .  ,1037037188335194114,2020-03-07 23:10:08,,city,"Konterra, MD",United States
12580,-76.62048200000002,39.284713, .  ,1037037188335194114,2020-03-09 05:03:37,,city,"Baltimore, MD",United States
47900,-76.92667650000001,38.9319915, .  ,1037037188335194114,2020-03-13 22:10:04,,city,"Bladensburg, MD",United States
12580,-76.81407150000003,39.09458650000001, .  ,1037037188335194114,2020-04-04 01:07:16,DC,city,"Maryland City, MD",United States
47900,-76.887208,38.993539, .  ,1037037188335194114,2020-04-04 02:11:00,DC,city,"Greenbelt, MD",United States
12580,-76.77176949999999,39.144723,  ,1037037188335194114,2020-05-23 21:07:34,"Washington, DC",city,"Jessup, MD",United States
47900,-76.887208,38.993539,  ,1037037188335194114,2020-05-24 00:29:56,"Washington, DC",city,"Greenbelt, MD",United States
82,80.88440750000002,26.8251695,Mohit sharma,1037037295658926080,2020-02-27 19:39:50,"Ballia, India",city,"Lucknow, India",India
88,139.801841,36.508722,,1037037466409099264,2020-02-20 01:58:32,,poi,,Japan
222,100.68299999999999,-0.15,Haris Elfian,1037037823,2020-05-31 11:38:05,Batu Nan Limo,city,"Harau, Indonesia",Indonesia
82,75.3688,11.867316,thekx,1037038208519794688,2020-02-14 13:23:16,Kannur,city,"Kannur-Padanapalam-Talap, India",India
178,28.1653135,-26.364,Mshini,1037038383535673345,2020-03-04 08:08:36,"Thokoza, East Rand",city,"Katlehong, South Africa",South Africa
175,39.8016865,21.389833000000007,Fatima,1037038402569482244,2020-03-20 00:29:23," ,   ",city,"Makkah Al Mukarrama, Kingdom of Saudi Arabia",Kingdom of Saudi Arabia
222,112.4324675,-7.2626050000000015,Aryanto,1037038611877646336,2020-06-06 17:48:43,,city,"Balong Panggang, Indonesia",Indonesia
175,49.9945455,26.353591499999997, ,1037038983593840641,2020-06-04 13:55:22,Dammam,city,"Dammam, Kingdom of Saudi Arabia",Kingdom of Saudi Arabia
205,-1.128591,52.923513,nicksingh,1037039141031211009,2020-03-17 07:01:36,"Nottingham, England",city,"West Bridgford, England",United Kingdom
21,-48.9664745,-26.261689500000003,Franciel,1037039185016836096,2020-06-03 22:17:03,"Mar do Caribe,  Jamaica.",city,"Joinville, Brasil",Brasil
119,-99.153366,19.432835999999998,soymajoo,1037039276427493382,2020-02-14 02:18:37,,city,"Cuauhtmoc, Distrito Federal",Mxico
186,-3.396407,38.8089395,choto tierno ,1037039388239323136,2020-02-16 20:34:25,"Valdepeas, Espaa",city,"Valdepeas, Espaa",Espaa
82,77.095086,28.638489500000002,Geetu Moza,1037039454,2020-02-14 07:55:53,New Delhi,city,"New Delhi, India",India
205,-2.23348,53.4569525,Miss H.,1037039527926345731,2020-03-28 16:08:42,,city,"Manchester, England",United Kingdom
19660,-80.9805,29.171,allsolarenergy,1037039577813405697,2020-05-23 13:39:33,"Sanford, FL",city,"Daytona Beach Shores, FL",United States
41860,-122.2784865,37.758798,lesliegoldberg,103703959,2020-02-14 17:05:29,"alameda, ca",city,"Alameda, CA",United States
21,-51.536475,-29.105826500000003,Elisandro Campanha,1037039900,2020-05-23 20:08:19,"Lagoa Vermelha, Brasil",city,"Bento Gonalves, Brasil",Brasil
96,48.082152,29.264452000000002,A,1037039944710148096,2020-06-02 07:34:39,kuwait,poi,Pastry + Coffee,Kuwait
37980,-75.117998,40.0048655,Cryssanthum,1037039987378872321,2020-02-14 02:21:31,"Philadelphia, PA",city,"Philadelphia, PA",United States
200,32.58176101,39.96170012,Betl,1037040092,2020-02-14 14:07:29,Ankara,city,"Sincan, Trkiye",Trkiye
88,139.6290065,35.9046885,,103704011,2020-02-26 12:51:16,,city,  ,
16740,-81.182811,35.09683,Clover Track & XC,1037040261216526336,2020-02-19 21:38:59,"Clover, SC",poi,Clover High School,United States
8,-56.8858195,-37.128102500000004,aglaco,1037040302379491329,2020-03-25 07:05:02,"Pinamar, Argentina",city,"Ostende, Argentina",Argentina
171,124.93713600000001,11.0470195,Ruffa ,1037040396,2020-02-21 08:13:04,Cornelia Street,city,"Tabontabon, Eastern Visayas",Republic of the Philippines
24,-123.1308365,49.1742415,Go Pro Mobile Car Detailing,1037040417814929408,2020-03-23 05:00:39,"Vancouver, British Columbia",city,"Richmond, British Columbia",Canada
82,77.095086,28.638489500000002,Sushil Kumar Kapoor,1037040536354467840,2020-02-29 07:24:36,,city,"New Delhi, India",India
119,-99.2115105,19.4299345,4esGaming,1037040601886277632,2020-02-14 17:20:23,,city,"Miguel Hidalgo, Distrito Federal",Mexico
175,46.0327485,28.350082500000003, ,1037040665845288967,2020-02-22 19:25:34, ,city," ,   ",  
21,-51.536475,-29.105826500000003,Edu ,103704067,2020-02-14 11:22:55,"Bento Gonalves, Brasil",city,"Bento Gonalves, Brasil",Brasil
2,-1.744332,34.847819,SOUADJI Lotfi,1037040826403233792,2020-06-05 10:54:02,Maghnia - Tlemcen - ALGRIE,city,"Maghnia                                                                                             , Algeria",Algrie
35620,-73.99084,40.8636885,Glen Rock Educational Association,1037041113998262274,2020-02-14 00:18:06,United States,city,"Leonia, NJ",United States
21,-46.5955455,-23.682803,Stive Ferreira,1037041763901427712,2020-05-15 17:25:23,"So Paulo, Brasil",city,"So Paulo, Brasil",Brasil
82,84.77694149999998,22.245946,Rajalaxmi Acharya,1037041812563619840,2020-02-14 17:54:38,"Rourkela Industrial Township, ",city,"Raurkela-Panposh, India",India
9,150.931975,-33.848244,inTechnology,103704204,2020-03-08 04:23:36,Asia Pacific,city,"Sydney, New South Wales",Australia
171,123.9182031,10.3694726,Cybel Bulay,1037042085197623296,2020-02-17 14:03:11,"Cebu, Philippines",city,"Cebu City, Central Visayas",Republic of the Philippines
21,-43.018208,-22.821465,Dudu ,1037042137328746497,2020-03-09 22:54:50,RJ ,city,"So Gonalo, Brasil",Brazil
17460,-81.705467,41.49593950000001,"Bianca Islam, M.D., Ph.D.",103704245,2020-02-25 16:19:12,"Cleveland, OH",city,"Cleveland, OH",United States
47900,-77.004499,38.89255,"Bianca Islam, M.D., Ph.D.",103704245,2020-02-27 15:16:58,"Cleveland, OH",poi,Hart Senate Building,United States
19820,-83.376154,42.223741499999996,"Bianca Islam, M.D., Ph.D.",103704245,2020-02-28 03:32:00,"Cleveland, OH",city,"Romulus, MI",United States
17460,-81.705467,41.49593950000001,"Bianca Islam, M.D., Ph.D.",103704245,2020-03-01 01:22:28,"Cleveland, OH",city,"Cleveland, OH",United States
16980,-87.82356999999999,41.6994845,Christine Moran,1037042514778312704,2020-02-18 05:35:45,Oak Lawn,city,"Palos Hills, IL",United States
21,-40.816832,-20.086966500000006,N A C L A R A,1037042728843071491,2020-02-15 16:41:40,"Esprito Santo, Brasil",city,"Santa Maria de Jetib, Brasil",Brasil
56,38.785431,8.994931,JegnitEthiopia (),1037042773751296001,2020-03-12 11:10:46,Ethiopia,poi,Monarch Hotel,Ethiopia
65,5.4052739999999995,43.2943095,,1037042805007413254,2020-03-31 18:42:12,"Marseille, France",city,"Marseille, France",France
117,57.565461,23.730320000000003,L,1037042915569229824,2020-06-01 01:36:25,Oman,city,"Muladdah, Oman",Oman
186,-2.354978,43.294216999999996,Regina george,1037042931914498048,2020-04-23 10:37:44,"Deba, Euskal Herria",poi,Deba,Spain
21,-43.296872,-22.644558,dani ,1037043088152293377,2020-02-14 01:48:01, 12/06 ,city,"Duque de Caxias, Brasil",Brasil
28900,-121.78167040000001,42.224866999999996,Advantage Dental Careers,1037043167466598402,2020-02-14 00:54:57,"Redmond, OR",city,"Klamath Falls, OR",United States
38900,-122.60675829999998,45.3573429,Advantage Dental Careers,1037043167466598402,2020-02-14 15:08:27,"Redmond, OR",city,"Oregon City, OR",United States
18300,-124.2178903,43.3665007,Advantage Dental Careers,1037043167466598402,2020-02-14 17:35:25,"Redmond, OR",city,"Coos Bay, OR",United States
32780,-122.8755949,42.3265152,Advantage Dental Careers,1037043167466598402,2020-02-14 18:48:55,"Redmond, OR",city,"Medford, OR",United States
40700,-124.0967779,43.702338899999994,Advantage Dental Careers,1037043167466598402,2020-02-14 20:02:26,"Redmond, OR",city,"Reedsport, OR",United States
32780,-122.80281770000002,42.472625799999996,Advantage Dental Careers,1037043167466598402,2020-02-14 22:29:08,"Redmond, OR",city,"Eagle Point, OR",United States
40700,-123.3125763,43.390117700000005,Advantage Dental Careers,1037043167466598402,2020-02-15 15:09:28,"Redmond, OR",city,"Sutherlin, OR",United States
13460,-121.31530959999999,44.058172799999994,Advantage Dental Careers,1037043167466598402,2020-02-15 16:22:56,"Redmond, OR",city,"Bend, OR",United States
40700,-124.0967779,43.702338899999994,Advantage Dental Careers,1037043167466598402,2020-02-15 18:49:57,"Redmond, OR",city,"Reedsport, OR",United States
32780,-122.8755949,42.3265152,Advantage Dental Careers,1037043167466598402,2020-02-15 20:03:27,"Redmond, OR",city,"Medford, OR",United States
31020,-122.9359438,46.0890015,Advantage Dental Careers,1037043167466598402,2020-02-15 21:16:56,"Redmond, OR",city,"Rainier, OR",United States
40700,-123.3125763,43.390117700000005,Advantage Dental Careers,1037043167466598402,2020-02-16 14:02:15,"Redmond, OR",city,"Sutherlin, OR",United States
25840,-119.2894605,45.8404101,Advantage Dental Careers,1037043167466598402,2020-02-16 15:15:45,"Redmond, OR",city,"Hermiston, OR",United States
39260,-120.83446640000001,44.299848499999996,Advantage Dental Careers,1037043167466598402,2020-02-16 17:42:46,"Redmond, OR",city,"Prineville, OR",United States
38900,-122.5522483,45.55173610000001,Advantage Dental Careers,1037043167466598402,2020-02-16 18:56:07,"Redmond, OR",city,"Portland, OR",United States
18300,-124.2242803,43.40650120000001,Advantage Dental Careers,1037043167466598402,2020-02-16 20:09:39,"Redmond, OR",city,"North Bend, OR",United States
39260,-120.83446640000001,44.299848499999996,Advantage Dental Careers,1037043167466598402,2020-02-16 21:23:07,"Redmond, OR",city,"Prineville, OR",United States
21660,-123.0595246,43.797623,Advantage Dental Careers,1037043167466598402,2020-02-16 22:36:37,"Redmond, OR",city,"Cottage Grove, OR",United States
13460,-121.31530959999999,44.058172799999994,Advantage Dental Careers,1037043167466598402,2020-02-16 23:50:07,"Redmond, OR",city,"Bend, OR",United States
35440,-124.05345049999998,44.6367836,Advantage Dental Careers,1037043167466598402,2020-02-17 14:03:30,"Redmond, OR",city,"Newport, OR",United States
13460,-121.31530959999999,44.058172799999994,Advantage Dental Careers,1037043167466598402,2020-02-17 16:30:30,"Redmond, OR",city,"Bend, OR",United States
41420,-122.79453329999998,44.8006775,Advantage Dental Careers,1037043167466598402,2020-02-17 17:43:55,"Redmond, OR",city,"Stayton, OR",United States
21660,-123.0847061,44.06371729999999,Advantage Dental Careers,1037043167466598402,2020-02-17 18:57:25,"Redmond, OR",city,"Eugene, OR",United States
25840,-119.7005834,45.839855,Advantage Dental Careers,1037043167466598402,2020-02-17 21:24:17,"Redmond, OR",city,"Boardman, OR",United States
32780,-122.80281770000002,42.472625799999996,Advantage Dental Careers,1037043167466598402,2020-02-18 14:04:34,"Redmond, OR",city,"Eagle Point, OR",United States
21660,-123.08675359999998,44.0520691,Advantage Dental Careers,1037043167466598402,2020-02-18 15:18:04,"Redmond, OR",city,"Eugene, OR",United States
13460,-121.31530959999999,44.058172799999994,Advantage Dental Careers,1037043167466598402,2020-02-18 16:31:34,"Redmond, OR",city,"Bend, OR",United States
15060,-124.28398190000001,42.0526114,Advantage Dental Careers,1037043167466598402,2020-02-18 17:44:55,"Redmond, OR",city,"Brookings, OR",United States
18300,-124.2178903,43.3665007,Advantage Dental Careers,1037043167466598402,2020-02-18 18:58:16,"Redmond, OR",city,"Coos Bay, OR",United States
38900,-122.60675829999998,45.3573429,Advantage Dental Careers,1037043167466598402,2020-02-18 20:11:47,"Redmond, OR",city,"Oregon City, OR",United States
32780,-122.8755949,42.3265152,Advantage Dental Careers,1037043167466598402,2020-02-18 21:25:14,"Redmond, OR",city,"Medford, OR",United States
38900,-122.5522483,45.55173610000001,Advantage Dental Careers,1037043167466598402,2020-02-18 22:38:40,"Redmond, OR",city,"Portland, OR",United States
21660,-123.08675359999998,44.0520691,Advantage Dental Careers,1037043167466598402,2020-02-18 23:52:10,"Redmond, OR",city,"Eugene, OR",United States
38900,-122.807445,45.55939779999999,Advantage Dental Careers,1037043167466598402,2020-02-19 15:19:05,"Redmond, OR",city,"Bethany, OR",United States
21660,-123.08675359999998,44.0520691,Advantage Dental Careers,1037043167466598402,2020-02-19 16:32:32,"Redmond, OR",city,"Eugene, OR",United States
38900,-122.60675829999998,45.3573429,Advantage Dental Careers,1037043167466598402,2020-02-19 17:45:58,"Redmond, OR",city,"Oregon City, OR",United States
32780,-122.8755949,42.3265152,Advantage Dental Careers,1037043167466598402,2020-02-19 22:39:48,"Redmond, OR",city,"Medford, OR",United States
13460,-121.31530959999999,44.058172799999994,Advantage Dental Careers,1037043167466598402,2020-02-19 23:53:16,"Redmond, OR",city,"Bend, OR",United States
40700,-123.3417381,43.216505,Advantage Dental Careers,1037043167466598402,2020-02-20 14:06:45,"Redmond, OR",city,"Roseburg, OR",United States
45520,-121.17868229999999,45.594564500000004,Advantage Dental Careers,1037043167466598402,2020-02-20 15:20:12,"Redmond, OR",city,"The Dalles, OR",United States
38900,-122.989827,45.5228939,Advantage Dental Careers,1037043167466598402,2020-02-20 16:33:38,"Redmond, OR",city,"Hillsboro, OR",United States
32780,-122.8755949,42.3265152,Advantage Dental Careers,1037043167466598402,2020-02-20 19:00:37,"Redmond, OR",city,"Medford, OR",United States
38900,-122.807445,45.55939779999999,Advantage Dental Careers,1037043167466598402,2020-02-20 20:14:02,"Redmond, OR",city,"Bethany, OR",United States
32780,-122.8755949,42.3265152,Advantage Dental Careers,1037043167466598402,2020-02-20 21:27:29,"Redmond, OR",city,"Medford, OR",United States
38900,-122.989827,45.5228939,Advantage Dental Careers,1037043167466598402,2020-02-20 22:40:56,"Redmond, OR",city,"Hillsboro, OR",United States
18300,-124.40844799999999,43.118997799999995,Advantage Dental Careers,1037043167466598402,2020-02-21 14:07:56,"Redmond, OR",city,"Bandon, OR",United States
21660,-123.0595246,43.797623,Advantage Dental Careers,1037043167466598402,2020-02-21 15:21:19,"Redmond, OR",city,"Cottage Grove, OR",United States
15060,-124.28398190000001,42.0526114,Advantage Dental Careers,1037043167466598402,2020-02-21 16:34:47,"Redmond, OR",city,"Brookings, OR",United States
21660,-124.0998409,43.9826214,Advantage Dental Careers,1037043167466598402,2020-02-21 19:01:45,"Redmond, OR",city,"Florence, OR",United States
15060,-124.28398190000001,42.0526114,Advantage Dental Careers,1037043167466598402,2020-02-21 20:15:09,"Redmond, OR",city,"Brookings, OR",United States
38900,-122.5522483,45.55173610000001,Advantage Dental Careers,1037043167466598402,2020-02-21 22:42:06,"Redmond, OR",city,"Portland, OR",United States
40700,-123.3417381,43.216505,Advantage Dental Careers,1037043167466598402,2020-02-22 14:09:00,"Redmond, OR",city,"Roseburg, OR",United States
38900,-122.5522483,45.55173610000001,Advantage Dental Careers,1037043167466598402,2020-02-22 15:22:27,"Redmond, OR",city,"Portland, OR",United States
28900,-121.78167040000001,42.224866999999996,Advantage Dental Careers,1037043167466598402,2020-02-22 23:56:39,"Redmond, OR",city,"Klamath Falls, OR",United States
40700,-123.3417381,43.216505,Advantage Dental Careers,1037043167466598402,2020-02-23 14:10:07,"Redmond, OR",city,"Roseburg, OR",United States
18300,-124.2178903,43.3665007,Advantage Dental Careers,1037043167466598402,2020-02-23 15:23:34,"Redmond, OR",city,"Coos Bay, OR",United States
32780,-122.8755949,42.3265152,Advantage Dental Careers,1037043167466598402,2020-02-23 16:37:02,"Redmond, OR",city,"Medford, OR",United States
40700,-124.0967779,43.702338899999994,Advantage Dental Careers,1037043167466598402,2020-02-23 17:50:29,"Redmond, OR",city,"Reedsport, OR",United States
32780,-122.80281770000002,42.472625799999996,Advantage Dental Careers,1037043167466598402,2020-02-23 19:03:57,"Redmond, OR",city,"Eagle Point, OR",United States
40700,-123.3125763,43.390117700000005,Advantage Dental Careers,1037043167466598402,2020-02-23 21:30:52,"Redmond, OR",city,"Sutherlin, OR",United States
13460,-121.31530959999999,44.058172799999994,Advantage Dental Careers,1037043167466598402,2020-02-23 22:44:19,"Redmond, OR",city,"Bend, OR",United States
40700,-124.0967779,43.702338899999994,Advantage Dental Careers,1037043167466598402,2020-02-24 14:11:12,"Redmond, OR",city,"Reedsport, OR",United States
32780,-122.8755949,42.3265152,Advantage Dental Careers,1037043167466598402,2020-02-24 15:24:40,"Redmond, OR",city,"Medford, OR",United States
13460,-121.31530959999999,44.058172799999994,Advantage Dental Careers,1037043167466598402,2020-02-24 17:51:37,"Redmond, OR",city,"Bend, OR",United States
40700,-123.3125763,43.390117700000005,Advantage Dental Careers,1037043167466598402,2020-02-24 20:18:32,"Redmond, OR",city,"Sutherlin, OR",United States
25840,-119.2894605,45.8404101,Advantage Dental Careers,1037043167466598402,2020-02-24 21:31:59,"Redmond, OR",city,"Hermiston, OR",United States
39260,-120.83446640000001,44.299848499999996,Advantage Dental Careers,1037043167466598402,2020-02-24 22:45:27,"Redmond, OR",city,"Prineville, OR",United States
38900,-122.5522483,45.55173610000001,Advantage Dental Careers,1037043167466598402,2020-02-24 23:58:55,"Redmond, OR",city,"Portland, OR",United States
18300,-124.2242803,43.40650120000001,Advantage Dental Careers,1037043167466598402,2020-02-25 14:12:24,"Redmond, OR",city,"North Bend, OR",United States
39260,-120.83446640000001,44.299848499999996,Advantage Dental Careers,1037043167466598402,2020-02-25 15:25:53,"Redmond, OR",city,"Prineville, OR",United States
21660,-123.0595246,43.797623,Advantage Dental Careers,1037043167466598402,2020-02-25 16:39:20,"Redmond, OR",city,"Cottage Grove, OR",United States
35440,-124.05345049999998,44.6367836,Advantage Dental Careers,1037043167466598402,2020-02-25 17:52:48,"Redmond, OR",city,"Newport, OR",United States
13460,-121.31530959999999,44.058172799999994,Advantage Dental Careers,1037043167466598402,2020-02-25 20:19:42,"Redmond, OR",city,"Bend, OR",United States
41420,-122.79453329999998,44.8006775,Advantage Dental Careers,1037043167466598402,2020-02-25 21:42:50,"Redmond, OR",city,"Stayton, OR",United States
21660,-123.0847061,44.06371729999999,Advantage Dental Careers,1037043167466598402,2020-02-25 22:56:15,"Redmond, OR",city,"Eugene, OR",United States
39260,-121.1294872,44.6334544,Advantage Dental Careers,1037043167466598402,2020-02-26 00:09:42,"Redmond, OR",city,"Madras, OR",United States
32780,-122.8755949,42.3265152,Advantage Dental Careers,1037043167466598402,2020-02-26 14:23:14,"Redmond, OR",city,"Medford, OR",United States
39900,-120.34579199999999,42.1887721,Advantage Dental Careers,1037043167466598402,2020-02-26 15:36:40,"Redmond, OR",city,"Lakeview, OR",United States
32780,-122.80281770000002,42.472625799999996,Advantage Dental Careers,1037043167466598402,2020-02-26 16:50:07,"Redmond, OR",city,"Eagle Point, OR",United States
21660,-123.08675359999998,44.0520691,Advantage Dental Careers,1037043167466598402,2020-02-26 18:03:35,"Redmond, OR",city,"Eugene, OR",United States
18300,-124.2178903,43.3665007,Advantage Dental Careers,1037043167466598402,2020-02-26 22:57:39,"Redmond, OR",city,"Coos Bay, OR",United States
38900,-122.60675829999998,45.3573429,Advantage Dental Careers,1037043167466598402,2020-02-27 00:11:07,"Redmond, OR",city,"Oregon City, OR",United States
32780,-122.8755949,42.3265152,Advantage Dental Careers,1037043167466598402,2020-02-27 14:24:36,"Redmond, OR",city,"Medford, OR",United States
38900,-122.5522483,45.55173610000001,Advantage Dental Careers,1037043167466598402,2020-02-27 15:38:04,"Redmond, OR",city,"Portland, OR",United States
21660,-123.08675359999998,44.0520691,Advantage Dental Careers,1037043167466598402,2020-02-27 16:51:31,"Redmond, OR",city,"Eugene, OR",United States
38900,-122.807445,45.55939779999999,Advantage Dental Careers,1037043167466598402,2020-02-27 19:18:22,"Redmond, OR",city,"Bethany, OR",United States
21660,-123.08675359999998,44.0520691,Advantage Dental Careers,1037043167466598402,2020-02-27 20:31:51,"Redmond, OR",city,"Eugene, OR",United States
38900,-122.60675829999998,45.3573429,Advantage Dental Careers,1037043167466598402,2020-02-27 21:45:18,"Redmond, OR",city,"Oregon City, OR",United States
32780,-122.8755949,42.3265152,Advantage Dental Careers,1037043167466598402,2020-02-28 15:39:21,"Redmond, OR",city,"Medford, OR",United States
13460,-121.31530959999999,44.058172799999994,Advantage Dental Careers,1037043167466598402,2020-02-28 16:52:49,"Redmond, OR",city,"Bend, OR",United States
40700,-123.3417381,43.216505,Advantage Dental Careers,1037043167466598402,2020-02-28 18:06:16,"Redmond, OR",city,"Roseburg, OR",United States
38900,-122.989827,45.5228939,Advantage Dental Careers,1037043167466598402,2020-02-28 20:33:12,"Redmond, OR",city,"Hillsboro, OR",United States
32780,-122.8755949,42.3265152,Advantage Dental Careers,1037043167466598402,2020-02-28 23:00:07,"Redmond, OR",city,"Medford, OR",United States
38900,-122.989827,45.5228939,Advantage Dental Careers,1037043167466598402,2020-02-29 00:13:33,"Redmond, OR",city,"Hillsboro, OR",United States
18300,-124.40844799999999,43.118997799999995,Advantage Dental Careers,1037043167466598402,2020-02-29 15:40:28,"Redmond, OR",city,"Bandon, OR",United States
15060,-124.28398190000001,42.0526114,Advantage Dental Careers,1037043167466598402,2020-02-29 16:53:56,"Redmond, OR",city,"Brookings, OR",United States
21660,-124.0998409,43.9826214,Advantage Dental Careers,1037043167466598402,2020-02-29 19:20:52,"Redmond, OR",city,"Florence, OR",United States
15060,-124.28398190000001,42.0526114,Advantage Dental Careers,1037043167466598402,2020-02-29 20:34:20,"Redmond, OR",city,"Brookings, OR",United States
38900,-122.5522483,45.55173610000001,Advantage Dental Careers,1037043167466598402,2020-02-29 23:01:15,"Redmond, OR",city,"Portland, OR",United States
40700,-123.3417381,43.216505,Advantage Dental Careers,1037043167466598402,2020-03-01 14:28:13,"Redmond, OR",city,"Roseburg, OR",United States
38900,-122.5522483,45.55173610000001,Advantage Dental Careers,1037043167466598402,2020-03-01 15:41:41,"Redmond, OR",city,"Portland, OR",United States
29260,-117.8343848,44.7748748,Advantage Dental Careers,1037043167466598402,2020-03-01 18:08:35,"Redmond, OR",city,"Baker City, OR",United States
18300,-124.40844799999999,43.118997799999995,Advantage Dental Careers,1037043167466598402,2020-03-01 20:35:32,"Redmond, OR",city,"Bandon, OR",United States
45520,-121.17868229999999,45.594564500000004,Advantage Dental Careers,1037043167466598402,2020-03-01 21:48:59,"Redmond, OR",city,"The Dalles, OR",United States
21660,-123.08675359999998,44.0520691,Advantage Dental Careers,1037043167466598402,2020-03-01 23:02:27,"Redmond, OR",city,"Eugene, OR",United States
28900,-121.78167040000001,42.224866999999996,Advantage Dental Careers,1037043167466598402,2020-03-02 00:15:55,"Redmond, OR",city,"Klamath Falls, OR",United States
40700,-123.3417381,43.216505,Advantage Dental Careers,1037043167466598402,2020-03-02 14:29:26,"Redmond, OR",city,"Roseburg, OR",United States
18300,-124.2178903,43.3665007,Advantage Dental Careers,1037043167466598402,2020-03-02 15:42:54,"Redmond, OR",city,"Coos Bay, OR",United States
32780,-122.8755949,42.3265152,Advantage Dental Careers,1037043167466598402,2020-03-02 16:56:21,"Redmond, OR",city,"Medford, OR",United States
40700,-123.3125763,43.390117700000005,Advantage Dental Careers,1037043167466598402,2020-03-02 21:50:12,"Redmond, OR",city,"Sutherlin, OR",United States
15060,-124.28398190000001,42.0526114,Advantage Dental Careers,1037043167466598402,2020-03-03 14:30:36,"Redmond, OR",city,"Brookings, OR",United States
31020,-122.9359438,46.0890015,Advantage Dental Careers,1037043167466598402,2020-03-03 18:10:58,"Redmond, OR",city,"Rainier, OR",United States
13460,-121.31530959999999,44.058172799999994,Advantage Dental Careers,1037043167466598402,2020-03-03 19:24:24,"Redmond, OR",city,"Bend, OR",United States
40700,-123.3125763,43.390117700000005,Advantage Dental Careers,1037043167466598402,2020-03-03 21:51:21,"Redmond, OR",city,"Sutherlin, OR",United States
25840,-119.2894605,45.8404101,Advantage Dental Careers,1037043167466598402,2020-03-03 23:04:47,"Redmond, OR",city,"Hermiston, OR",United States
39260,-120.83446640000001,44.299848499999996,Advantage Dental Careers,1037043167466598402,2020-03-04 00:18:10,"Redmond, OR",city,"Prineville, OR",United States
21660,-123.0595246,43.797623,Advantage Dental Careers,1037043167466598402,2020-03-04 18:11:57,"Redmond, OR",city,"Cottage Grove, OR",United States
35440,-124.05345049999998,44.6367836,Advantage Dental Careers,1037043167466598402,2020-03-04 19:25:25,"Redmond, OR",city,"Newport, OR",United States
25840,-119.2894605,45.8404101,Advantage Dental Careers,1037043167466598402,2020-03-04 23:05:48,"Redmond, OR",city,"Hermiston, OR",United States
13460,-121.31530959999999,44.058172799999994,Advantage Dental Careers,1037043167466598402,2020-03-05 00:19:16,"Redmond, OR",city,"Bend, OR",United States
21660,-123.0847061,44.06371729999999,Advantage Dental Careers,1037043167466598402,2020-03-05 15:46:12,"Redmond, OR",city,"Eugene, OR",United States
39260,-121.1294872,44.6334544,Advantage Dental Careers,1037043167466598402,2020-03-05 16:59:39,"Redmond, OR",city,"Madras, OR",United States
32780,-122.8755949,42.3265152,Advantage Dental Careers,1037043167466598402,2020-03-05 18:13:08,"Redmond, OR",city,"Medford, OR",United States
39900,-120.34579199999999,42.1887721,Advantage Dental Careers,1037043167466598402,2020-03-05 19:26:36,"Redmond, OR",city,"Lakeview, OR",United States
41420,-122.79453329999998,44.8006775,Advantage Dental Careers,1037043167466598402,2020-03-05 20:40:04,"Redmond, OR",city,"Stayton, OR",United States
13460,-121.31530959999999,44.058172799999994,Advantage Dental Careers,1037043167466598402,2020-03-05 21:53:32,"Redmond, OR",city,"Bend, OR",United States
15060,-124.28398190000001,42.0526114,Advantage Dental Careers,1037043167466598402,2020-03-05 23:07:03,"Redmond, OR",city,"Brookings, OR",United States
18300,-124.2178903,43.3665007,Advantage Dental Careers,1037043167466598402,2020-03-06 00:20:29,"Redmond, OR",city,"Coos Bay, OR",United States
38900,-122.60675829999998,45.3573429,Advantage Dental Careers,1037043167466598402,2020-03-06 14:33:53,"Redmond, OR",city,"Oregon City, OR",United States
32780,-122.8755949,42.3265152,Advantage Dental Careers,1037043167466598402,2020-03-06 15:47:21,"Redmond, OR",city,"Medford, OR",United States
38900,-122.5522483,45.55173610000001,Advantage Dental Careers,1037043167466598402,2020-03-06 17:01:00,"Redmond, OR",city,"Portland, OR",United States
21660,-123.08675359999998,44.0520691,Advantage Dental Careers,1037043167466598402,2020-03-06 18:14:29,"Redmond, OR",city,"Eugene, OR",United States
38900,-122.807445,45.55939779999999,Advantage Dental Careers,1037043167466598402,2020-03-06 20:41:26,"Redmond, OR",city,"Bethany, OR",United States
21660,-123.08675359999998,44.0520691,Advantage Dental Careers,1037043167466598402,2020-03-06 21:54:54,"Redmond, OR",city,"Eugene, OR",United States
38900,-122.60675829999998,45.3573429,Advantage Dental Careers,1037043167466598402,2020-03-06 23:08:23,"Redmond, OR",city,"Oregon City, OR",United States
13460,-121.31530959999999,44.058172799999994,Advantage Dental Careers,1037043167466598402,2020-03-07 17:02:17,"Redmond, OR",city,"Bend, OR",United States
40700,-123.3417381,43.216505,Advantage Dental Careers,1037043167466598402,2020-03-07 18:15:46,"Redmond, OR",city,"Roseburg, OR",United States
45520,-121.17868229999999,45.594564500000004,Advantage Dental Careers,1037043167466598402,2020-03-07 19:29:13,"Redmond, OR",city,"The Dalles, OR",United States
38900,-122.807445,45.55939779999999,Advantage Dental Careers,1037043167466598402,2020-03-07 20:42:42,"Redmond, OR",city,"Bethany, OR",United States
18300,-124.40844799999999,43.118997799999995,Advantage Dental Careers,1037043167466598402,2020-03-08 00:23:06,"Redmond, OR",city,"Bandon, OR",United States
15060,-124.28398190000001,42.0526114,Advantage Dental Careers,1037043167466598402,2020-03-08 13:36:36,"Redmond, OR",city,"Brookings, OR",United States
21660,-124.0998409,43.9826214,Advantage Dental Careers,1037043167466598402,2020-03-08 16:03:31,"Redmond, OR",city,"Florence, OR",United States
15060,-124.28398190000001,42.0526114,Advantage Dental Careers,1037043167466598402,2020-03-08 17:17:00,"Redmond, OR",city,"Brookings, OR",United States
38900,-122.5522483,45.55173610000001,Advantage Dental Careers,1037043167466598402,2020-03-08 19:43:57,"Redmond, OR",city,"Portland, OR",United States
40700,-123.3417381,43.216505,Advantage Dental Careers,1037043167466598402,2020-03-08 22:10:53,"Redmond, OR",city,"Roseburg, OR",United States
29260,-117.8343848,44.7748748,Advantage Dental Careers,1037043167466598402,2020-03-09 13:37:48,"Redmond, OR",city,"Baker City, OR",United States
18300,-124.40844799999999,43.118997799999995,Advantage Dental Careers,1037043167466598402,2020-03-09 16:04:44,"Redmond, OR",city,"Bandon, OR",United States
45520,-121.17868229999999,45.594564500000004,Advantage Dental Careers,1037043167466598402,2020-03-09 17:18:12,"Redmond, OR",city,"The Dalles, OR",United States
21660,-123.08675359999998,44.0520691,Advantage Dental Careers,1037043167466598402,2020-03-09 18:31:42,"Redmond, OR",city,"Eugene, OR",United States
28900,-121.78167040000001,42.224866999999996,Advantage Dental Careers,1037043167466598402,2020-03-09 19:45:10,"Redmond, OR",city,"Klamath Falls, OR",United States
40700,-123.3417381,43.216505,Advantage Dental Careers,1037043167466598402,2020-03-09 20:58:38,"Redmond, OR",city,"Roseburg, OR",United States
38900,-122.807445,45.55939779999999,Advantage Dental Careers,1037043167466598402,2020-03-09 22:12:10,"Redmond, OR",city,"Bethany, OR",United States
18300,-124.2178903,43.3665007,Advantage Dental Careers,1037043167466598402,2020-03-09 23:25:36,"Redmond, OR",city,"Coos Bay, OR",United States
32780,-122.8755949,42.3265152,Advantage Dental Careers,1037043167466598402,2020-03-10 14:52:32,"Redmond, OR",city,"Medford, OR",United States
40700,-124.0967779,43.702338899999994,Advantage Dental Careers,1037043167466598402,2020-03-10 16:06:00,"Redmond, OR",city,"Reedsport, OR",United States
32780,-122.80281770000002,42.472625799999996,Advantage Dental Careers,1037043167466598402,2020-03-10 17:19:29,"Redmond, OR",city,"Eagle Point, OR",United States
40700,-123.3125763,43.390117700000005,Advantage Dental Careers,1037043167466598402,2020-03-10 19:46:26,"Redmond, OR",city,"Sutherlin, OR",United States
15060,-124.28398190000001,42.0526114,Advantage Dental Careers,1037043167466598402,2020-03-10 23:26:52,"Redmond, OR",city,"Brookings, OR",United States
18300,-124.2178903,43.3665007,Advantage Dental Careers,1037043167466598402,2020-03-11 14:53:54,"Redmond, OR",city,"Coos Bay, OR",United States
13460,-121.31530959999999,44.058172799999994,Advantage Dental Careers,1037043167466598402,2020-03-11 17:20:51,"Redmond, OR",city,"Bend, OR",United States
25840,-119.2894605,45.8404101,Advantage Dental Careers,1037043167466598402,2020-03-11 21:01:18,"Redmond, OR",city,"Hermiston, OR",United States
39260,-120.83446640000001,44.299848499999996,Advantage Dental Careers,1037043167466598402,2020-03-11 22:14:46,"Redmond, OR",city,"Prineville, OR",United States
38900,-122.5522483,45.55173610000001,Advantage Dental Careers,1037043167466598402,2020-03-11 23:28:07,"Redmond, OR",city,"Portland, OR",United States
18300,-124.2242803,43.40650120000001,Advantage Dental Careers,1037043167466598402,2020-03-12 14:55:04,"Redmond, OR",city,"North Bend, OR",United States
25840,-119.2894605,45.8404101,Advantage Dental Careers,1037043167466598402,2020-03-12 21:02:27,"Redmond, OR",city,"Hermiston, OR",United States
13460,-121.31530959999999,44.058172799999994,Advantage Dental Careers,1037043167466598402,2020-03-12 22:15:55,"Redmond, OR",city,"Bend, OR",United States
39260,-121.1294872,44.6334544,Advantage Dental Careers,1037043167466598402,2020-03-13 14:56:21,"Redmond, OR",city,"Madras, OR",United States
32780,-122.8755949,42.3265152,Advantage Dental Careers,1037043167466598402,2020-03-13 16:09:49,"Redmond, OR",city,"Medford, OR",United States
39900,-120.34579199999999,42.1887721,Advantage Dental Careers,1037043167466598402,2020-03-13 17:23:20,"Redmond, OR",city,"Lakeview, OR",United States
15060,-124.28398190000001,42.0526114,Advantage Dental Careers,1037043167466598402,2020-03-13 21:03:43,"Redmond, OR",city,"Brookings, OR",United States
18300,-124.2178903,43.3665007,Advantage Dental Careers,1037043167466598402,2020-03-13 22:17:12,"Redmond, OR",city,"Coos Bay, OR",United States
38900,-122.60675829999998,45.3573429,Advantage Dental Careers,1037043167466598402,2020-03-13 23:30:40,"Redmond, OR",city,"Oregon City, OR",United States
32780,-122.8755949,42.3265152,Advantage Dental Careers,1037043167466598402,2020-03-14 13:44:09,"Redmond, OR",city,"Medford, OR",United States
21660,-123.08675359999998,44.0520691,Advantage Dental Careers,1037043167466598402,2020-03-14 14:57:57,"Redmond, OR",city,"Eugene, OR",United States
38900,-122.60675829999998,45.3573429,Advantage Dental Careers,1037043167466598402,2020-03-14 19:51:51,"Redmond, OR",city,"Oregon City, OR",United States
13460,-121.31530959999999,44.058172799999994,Advantage Dental Careers,1037043167466598402,2020-03-14 22:18:48,"Redmond, OR",city,"Bend, OR",United States
45520,-121.17868229999999,45.594564500000004,Advantage Dental Careers,1037043167466598402,2020-03-15 13:45:46,"Redmond, OR",city,"The Dalles, OR",United States
38900,-122.807445,45.55939779999999,Advantage Dental Careers,1037043167466598402,2020-03-15 14:59:14,"Redmond, OR",city,"Bethany, OR",United States
15060,-124.28398190000001,42.0526114,Advantage Dental Careers,1037043167466598402,2020-03-15 19:53:08,"Redmond, OR",city,"Brookings, OR",United States
21660,-124.0998409,43.9826214,Advantage Dental Careers,1037043167466598402,2020-03-15 22:20:06,"Redmond, OR",city,"Florence, OR",United States
15060,-124.28398190000001,42.0526114,Advantage Dental Careers,1037043167466598402,2020-03-15 23:33:33,"Redmond, OR",city,"Brookings, OR",United States
38900,-122.5522483,45.55173610000001,Advantage Dental Careers,1037043167466598402,2020-03-16 15:00:51,"Redmond, OR",city,"Portland, OR",United States
40700,-123.3417381,43.216505,Advantage Dental Careers,1037043167466598402,2020-03-16 17:27:47,"Redmond, OR",city,"Roseburg, OR",United States
29260,-117.8343848,44.7748748,Advantage Dental Careers,1037043167466598402,2020-03-16 19:54:45,"Redmond, OR",city,"Baker City, OR",United States
18300,-124.40844799999999,43.118997799999995,Advantage Dental Careers,1037043167466598402,2020-03-16 22:21:42,"Redmond, OR",city,"Bandon, OR",United States
45520,-121.17868229999999,45.594564500000004,Advantage Dental Careers,1037043167466598402,2020-03-16 23:35:04,"Redmond, OR",city,"The Dalles, OR",United States
21660,-123.08675359999998,44.0520691,Advantage Dental Careers,1037043167466598402,2020-03-17 13:48:33,"Redmond, OR",city,"Eugene, OR",United States
28900,-121.78167040000001,42.224866999999996,Advantage Dental Careers,1037043167466598402,2020-03-17 15:02:33,"Redmond, OR",city,"Klamath Falls, OR",United States
38900,-122.807445,45.55939779999999,Advantage Dental Careers,1037043167466598402,2020-03-17 17:29:29,"Redmond, OR",city,"Bethany, OR",United States
18300,-124.2178903,43.3665007,Advantage Dental Careers,1037043167466598402,2020-03-17 18:43:01,"Redmond, OR",city,"Coos Bay, OR",United States
32780,-122.8755949,42.3265152,Advantage Dental Careers,1037043167466598402,2020-03-17 19:57:40,"Redmond, OR",city,"Medford, OR",United States
40700,-123.3125763,43.390117700000005,Advantage Dental Careers,1037043167466598402,2020-03-18 13:56:33,"Redmond, OR",city,"Sutherlin, OR",United States
15060,-124.28398190000001,42.0526114,Advantage Dental Careers,1037043167466598402,2020-03-18 17:37:00,"Redmond, OR",city,"Brookings, OR",United States
18300,-124.2178903,43.3665007,Advantage Dental Careers,1037043167466598402,2020-03-18 20:03:55,"Redmond, OR",city,"Coos Bay, OR",United States
25840,-119.2894605,45.8404101,Advantage Dental Careers,1037043167466598402,2020-03-19 15:11:10,"Redmond, OR",city,"Hermiston, OR",United States
39260,-120.83446640000001,44.299848499999996,Advantage Dental Careers,1037043167466598402,2020-03-19 21:18:35,"Redmond, OR",city,"Prineville, OR",United States
35440,-124.05345049999998,44.6367836,Advantage Dental Careers,1037043167466598402,2020-03-19 22:32:03,"Redmond, OR",city,"Newport, OR",United States
25840,-119.2894605,45.8404101,Advantage Dental Careers,1037043167466598402,2020-03-20 15:12:22,"Redmond, OR",city,"Hermiston, OR",United States
13460,-121.31530959999999,44.058172799999994,Advantage Dental Careers,1037043167466598402,2020-03-20 16:25:52,"Redmond, OR",city,"Bend, OR",United States
41420,-122.79453329999998,44.8006775,Advantage Dental Careers,1037043167466598402,2020-03-20 17:39:21,"Redmond, OR",city,"Stayton, OR",United States
39260,-121.1294872,44.6334544,Advantage Dental Careers,1037043167466598402,2020-03-20 20:06:17,"Redmond, OR",city,"Madras, OR",United States
32780,-122.8755949,42.3265152,Advantage Dental Careers,1037043167466598402,2020-03-20 21:19:46,"Redmond, OR",city,"Medford, OR",United States
39900,-120.34579199999999,42.1887721,Advantage Dental Careers,1037043167466598402,2020-03-20 22:33:15,"Redmond, OR",city,"Lakeview, OR",United States
15060,-124.28398190000001,42.0526114,Advantage Dental Careers,1037043167466598402,2020-03-21 15:13:43,"Redmond, OR",city,"Brookings, OR",United States
18300,-124.2178903,43.3665007,Advantage Dental Careers,1037043167466598402,2020-03-21 16:27:11,"Redmond, OR",city,"Coos Bay, OR",United States
32780,-122.8755949,42.3265152,Advantage Dental Careers,1037043167466598402,2020-03-21 18:55:05,"Redmond, OR",city,"Medford, OR",United States
21660,-123.08675359999998,44.0520691,Advantage Dental Careers,1037043167466598402,2020-03-21 22:35:31,"Redmond, OR",city,"Eugene, OR",United States
38900,-122.60675829999998,45.3573429,Advantage Dental Careers,1037043167466598402,2020-03-22 14:02:24,"Redmond, OR",city,"Oregon City, OR",United States
13460,-121.31530959999999,44.058172799999994,Advantage Dental Careers,1037043167466598402,2020-03-22 16:29:20,"Redmond, OR",city,"Bend, OR",United States
40700,-123.3417381,43.216505,Advantage Dental Careers,1037043167466598402,2020-03-22 17:42:49,"Redmond, OR",city,"Roseburg, OR",United States
45520,-121.17868229999999,45.594564500000004,Advantage Dental Careers,1037043167466598402,2020-03-22 18:56:18,"Redmond, OR",city,"The Dalles, OR",United States
38900,-122.807445,45.55939779999999,Advantage Dental Careers,1037043167466598402,2020-03-22 20:09:47,"Redmond, OR",city,"Bethany, OR",United States
18300,-124.40844799999999,43.118997799999995,Advantage Dental Careers,1037043167466598402,2020-03-22 23:50:15,"Redmond, OR",city,"Bandon, OR",United States
15060,-124.28398190000001,42.0526114,Advantage Dental Careers,1037043167466598402,2020-03-23 14:03:43,"Redmond, OR",city,"Brookings, OR",United States
21660,-124.0998409,43.9826214,Advantage Dental Careers,1037043167466598402,2020-03-23 16:30:36,"Redmond, OR",city,"Florence, OR",United States
15060,-124.28398190000001,42.0526114,Advantage Dental Careers,1037043167466598402,2020-03-23 17:49:01,"Redmond, OR",city,"Brookings, OR",United States
38900,-122.5522483,45.55173610000001,Advantage Dental Careers,1037043167466598402,2020-03-23 20:15:55,"Redmond, OR",city,"Portland, OR",United States
40700,-123.3417381,43.216505,Advantage Dental Careers,1037043167466598402,2020-03-23 21:29:25,"Redmond, OR",city,"Roseburg, OR",United States
29260,-117.8343848,44.7748748,Advantage Dental Careers,1037043167466598402,2020-03-23 23:56:22,"Redmond, OR",city,"Baker City, OR",United States
18300,-124.40844799999999,43.118997799999995,Advantage Dental Careers,1037043167466598402,2020-03-24 15:23:16,"Redmond, OR",city,"Bandon, OR",United States
28900,-121.78167040000001,42.224866999999996,Advantage Dental Careers,1037043167466598402,2020-03-24 19:03:42,"Redmond, OR",city,"Klamath Falls, OR",United States
38900,-122.807445,45.55939779999999,Advantage Dental Careers,1037043167466598402,2020-03-24 21:30:38,"Redmond, OR",city,"Bethany, OR",United States
18300,-124.2178903,43.3665007,Advantage Dental Careers,1037043167466598402,2020-03-24 22:44:06,"Redmond, OR",city,"Coos Bay, OR",United States
32780,-122.8755949,42.3265152,Advantage Dental Careers,1037043167466598402,2020-03-24 23:57:34,"Redmond, OR",city,"Medford, OR",United States
40700,-124.0967779,43.702338899999994,Advantage Dental Careers,1037043167466598402,2020-03-25 14:11:07,"Redmond, OR",city,"Reedsport, OR",United States
18300,-124.2178903,43.3665007,Advantage Dental Careers,1037043167466598402,2020-03-25 23:58:46,"Redmond, OR",city,"Coos Bay, OR",United States
13460,-121.31530959999999,44.058172799999994,Advantage Dental Careers,1037043167466598402,2020-03-26 15:25:41,"Redmond, OR",city,"Bend, OR",United States
40700,-123.3125763,43.390117700000005,Advantage Dental Careers,1037043167466598402,2020-03-26 17:52:34,"Redmond, OR",city,"Sutherlin, OR",United States
25840,-119.2894605,45.8404101,Advantage Dental Careers,1037043167466598402,2020-03-26 19:06:00,"Redmond, OR",city,"Hermiston, OR",United States
38900,-122.60675829999998,45.3573429,Advantage Dental Careers,1037043167466598402,2020-03-26 20:19:28,"Redmond, OR",city,"Oregon City, OR",United States
18300,-124.2242803,43.40650120000001,Advantage Dental Careers,1037043167466598402,2020-03-27 19:07:11,"Redmond, OR",city,"North Bend, OR",United States
39260,-120.83446640000001,44.299848499999996,Advantage Dental Careers,1037043167466598402,2020-03-27 20:20:40,"Redmond, OR",city,"Prineville, OR",United States
25840,-119.2894605,45.8404101,Advantage Dental Careers,1037043167466598402,2020-03-28 14:14:34,"Redmond, OR",city,"Hermiston, OR",United States
13460,-121.31530959999999,44.058172799999994,Advantage Dental Careers,1037043167466598402,2020-03-28 15:28:03,"Redmond, OR",city,"Bend, OR",United States
21660,-123.0847061,44.06371729999999,Advantage Dental Careers,1037043167466598402,2020-03-28 17:55:03,"Redmond, OR",city,"Eugene, OR",United States
39260,-121.1294872,44.6334544,Advantage Dental Careers,1037043167466598402,2020-03-28 19:08:30,"Redmond, OR",city,"Madras, OR",United States
32780,-122.8755949,42.3265152,Advantage Dental Careers,1037043167466598402,2020-03-28 20:21:59,"Redmond, OR",city,"Medford, OR",United States
39900,-120.34579199999999,42.1887721,Advantage Dental Careers,1037043167466598402,2020-03-28 21:35:29,"Redmond, OR",city,"Lakeview, OR",United States
41420,-122.79453329999998,44.8006775,Advantage Dental Careers,1037043167466598402,2020-03-28 22:48:58,"Redmond, OR",city,"Stayton, OR",United States
13460,-121.31530959999999,44.058172799999994,Advantage Dental Careers,1037043167466598402,2020-03-29 13:02:26,"Redmond, OR",city,"Bend, OR",United States
15060,-124.28398190000001,42.0526114,Advantage Dental Careers,1037043167466598402,2020-03-29 14:15:54,"Redmond, OR",city,"Brookings, OR",United States
18300,-124.2178903,43.3665007,Advantage Dental Careers,1037043167466598402,2020-03-29 15:29:23,"Redmond, OR",city,"Coos Bay, OR",United States
32780,-122.8755949,42.3265152,Advantage Dental Careers,1037043167466598402,2020-03-29 17:56:21,"Redmond, OR",city,"Medford, OR",United States
21660,-123.08675359999998,44.0520691,Advantage Dental Careers,1037043167466598402,2020-03-29 19:09:51,"Redmond, OR",city,"Eugene, OR",United States
38900,-122.60675829999998,45.3573429,Advantage Dental Careers,1037043167466598402,2020-03-30 13:03:45,"Redmond, OR",city,"Oregon City, OR",United States
40700,-123.3417381,43.216505,Advantage Dental Careers,1037043167466598402,2020-03-30 17:57:50,"Redmond, OR",city,"Roseburg, OR",United States
45520,-121.17868229999999,45.594564500000004,Advantage Dental Careers,1037043167466598402,2020-03-30 19:11:19,"Redmond, OR",city,"The Dalles, OR",United States
38900,-122.60675829999998,45.3573429,Advantage Dental Careers,1037043167466598402,2020-03-30 22:51:41,"Redmond, OR",city,"Oregon City, OR",United States
21660,-123.08675359999998,44.0520691,Advantage Dental Careers,1037043167466598402,2020-03-31 13:05:10,"Redmond, OR",city,"Eugene, OR",United States
15060,-124.28398190000001,42.0526114,Advantage Dental Careers,1037043167466598402,2020-03-31 16:45:35,"Redmond, OR",city,"Brookings, OR",United States
21660,-124.0998409,43.9826214,Advantage Dental Careers,1037043167466598402,2020-03-31 19:12:35,"Redmond, OR",city,"Florence, OR",United States
38900,-122.5522483,45.55173610000001,Advantage Dental Careers,1037043167466598402,2020-03-31 22:53:01,"Redmond, OR",city,"Portland, OR",United States
40700,-123.3417381,43.216505,Advantage Dental Careers,1037043167466598402,2020-04-01 13:06:23,"Redmond, OR",city,"Roseburg, OR",United States
18300,-124.40844799999999,43.118997799999995,Advantage Dental Careers,1037043167466598402,2020-04-01 16:46:46,"Redmond, OR",city,"Bandon, OR",United States
45520,-121.17868229999999,45.594564500000004,Advantage Dental Careers,1037043167466598402,2020-04-01 18:00:24,"Redmond, OR",city,"The Dalles, OR",United States
21660,-123.08675359999998,44.0520691,Advantage Dental Careers,1037043167466598402,2020-04-01 19:13:54,"Redmond, OR",city,"Eugene, OR",United States
28900,-121.78167040000001,42.224866999999996,Advantage Dental Careers,1037043167466598402,2020-04-01 20:27:23,"Redmond, OR",city,"Klamath Falls, OR",United States
40700,-123.3417381,43.216505,Advantage Dental Careers,1037043167466598402,2020-04-01 21:40:47,"Redmond, OR",city,"Roseburg, OR",United States
38900,-122.807445,45.55939779999999,Advantage Dental Careers,1037043167466598402,2020-04-01 22:54:19,"Redmond, OR",city,"Bethany, OR",United States
18300,-124.2178903,43.3665007,Advantage Dental Careers,1037043167466598402,2020-04-02 13:07:46,"Redmond, OR",city,"Coos Bay, OR",United States
40700,-124.0967779,43.702338899999994,Advantage Dental Careers,1037043167466598402,2020-04-02 15:34:36,"Redmond, OR",city,"Reedsport, OR",United States
32780,-122.80281770000002,42.472625799999996,Advantage Dental Careers,1037043167466598402,2020-04-02 16:48:01,"Redmond, OR",city,"Eagle Point, OR",United States
40700,-124.0967779,43.702338899999994,Advantage Dental Careers,1037043167466598402,2020-04-02 21:41:43,"Redmond, OR",city,"Reedsport, OR",United States
15060,-124.28398190000001,42.0526114,Advantage Dental Careers,1037043167466598402,2020-04-02 22:55:08,"Redmond, OR",city,"Brookings, OR",United States
18300,-124.2178903,43.3665007,Advantage Dental Careers,1037043167466598402,2020-04-03 14:21:59,"Redmond, OR",city,"Coos Bay, OR",United States
13460,-121.31530959999999,44.058172799999994,Advantage Dental Careers,1037043167466598402,2020-04-03 16:48:49,"Redmond, OR",city,"Bend, OR",United States
40700,-123.3125763,43.390117700000005,Advantage Dental Careers,1037043167466598402,2020-04-03 19:15:51,"Redmond, OR",city,"Sutherlin, OR",United States
38900,-122.60675829999998,45.3573429,Advantage Dental Careers,1037043167466598402,2020-04-03 21:42:42,"Redmond, OR",city,"Oregon City, OR",United States
39260,-120.83446640000001,44.299848499999996,Advantage Dental Careers,1037043167466598402,2020-04-04 16:50:51,"Redmond, OR",city,"Prineville, OR",United States
38900,-122.5522483,45.55173610000001,Advantage Dental Careers,1037043167466598402,2020-04-04 18:04:26,"Redmond, OR",city,"Portland, OR",United States
18300,-124.2242803,43.40650120000001,Advantage Dental Careers,1037043167466598402,2020-04-04 20:31:38,"Redmond, OR",city,"North Bend, OR",United States
35440,-124.05345049999998,44.6367836,Advantage Dental Careers,1037043167466598402,2020-04-04 22:58:39,"Redmond, OR",city,"Newport, OR",United States
25840,-119.2894605,45.8404101,Advantage Dental Careers,1037043167466598402,2020-04-05 15:39:24,"Redmond, OR",city,"Hermiston, OR",United States
13460,-121.31530959999999,44.058172799999994,Advantage Dental Careers,1037043167466598402,2020-04-05 16:53:01,"Redmond, OR",city,"Bend, OR",United States
21660,-123.0847061,44.06371729999999,Advantage Dental Careers,1037043167466598402,2020-04-05 19:20:32,"Redmond, OR",city,"Eugene, OR",United States
39260,-121.1294872,44.6334544,Advantage Dental Careers,1037043167466598402,2020-04-05 20:34:08,"Redmond, OR",city,"Madras, OR",United States
32780,-122.8755949,42.3265152,Advantage Dental Careers,1037043167466598402,2020-04-05 21:47:44,"Redmond, OR",city,"Medford, OR",United States
39900,-120.34579199999999,42.1887721,Advantage Dental Careers,1037043167466598402,2020-04-05 23:01:20,"Redmond, OR",city,"Lakeview, OR",United States
41420,-122.79453329999998,44.8006775,Advantage Dental Careers,1037043167466598402,2020-04-06 13:14:53,"Redmond, OR",city,"Stayton, OR",United States
13460,-121.31530959999999,44.058172799999994,Advantage Dental Careers,1037043167466598402,2020-04-06 14:28:29,"Redmond, OR",city,"Bend, OR",United States
15060,-124.28398190000001,42.0526114,Advantage Dental Careers,1037043167466598402,2020-04-06 15:42:08,"Redmond, OR",city,"Brookings, OR",United States
38900,-122.60675829999998,45.3573429,Advantage Dental Careers,1037043167466598402,2020-04-06 18:09:38,"Redmond, OR",city,"Oregon City, OR",United States
32780,-122.8755949,42.3265152,Advantage Dental Careers,1037043167466598402,2020-04-06 19:23:15,"Redmond, OR",city,"Medford, OR",United States
21660,-123.08675359999998,44.0520691,Advantage Dental Careers,1037043167466598402,2020-04-06 20:36:51,"Redmond, OR",city,"Eugene, OR",United States
38900,-122.60675829999998,45.3573429,Advantage Dental Careers,1037043167466598402,2020-04-07 14:31:10,"Redmond, OR",city,"Oregon City, OR",United States
13460,-121.31530959999999,44.058172799999994,Advantage Dental Careers,1037043167466598402,2020-04-07 16:58:30,"Redmond, OR",city,"Bend, OR",United States
38900,-122.5522483,45.55173610000001,Advantage Dental Careers,1037043167466598402,2020-04-07 18:12:21,"Redmond, OR",city,"Portland, OR",United States
40700,-123.3417381,43.216505,Advantage Dental Careers,1037043167466598402,2020-04-07 19:26:05,"Redmond, OR",city,"Roseburg, OR",United States
38900,-122.807445,45.55939779999999,Advantage Dental Careers,1037043167466598402,2020-04-07 21:53:37,"Redmond, OR",city,"Bethany, OR",United States
21660,-123.08675359999998,44.0520691,Advantage Dental Careers,1037043167466598402,2020-04-08 14:34:30,"Redmond, OR",city,"Eugene, OR",United States
18300,-124.40844799999999,43.118997799999995,Advantage Dental Careers,1037043167466598402,2020-04-08 17:02:26,"Redmond, OR",city,"Bandon, OR",United States
15060,-124.28398190000001,42.0526114,Advantage Dental Careers,1037043167466598402,2020-04-08 18:16:14,"Redmond, OR",city,"Brookings, OR",United States
21660,-124.0998409,43.9826214,Advantage Dental Careers,1037043167466598402,2020-04-08 20:43:43,"Redmond, OR",city,"Florence, OR",United States
15060,-124.28398190000001,42.0526114,Advantage Dental Careers,1037043167466598402,2020-04-08 21:57:57,"Redmond, OR",city,"Brookings, OR",United States
38900,-122.5522483,45.55173610000001,Advantage Dental Careers,1037043167466598402,2020-04-09 13:25:07,"Redmond, OR",city,"Portland, OR",United States
40700,-123.3417381,43.216505,Advantage Dental Careers,1037043167466598402,2020-04-09 14:38:52,"Redmond, OR",city,"Roseburg, OR",United States
18300,-124.40844799999999,43.118997799999995,Advantage Dental Careers,1037043167466598402,2020-04-09 18:20:33,"Redmond, OR",city,"Bandon, OR",United States
21660,-123.08675359999998,44.0520691,Advantage Dental Careers,1037043167466598402,2020-04-09 20:48:07,"Redmond, OR",city,"Eugene, OR",United States
28900,-121.78167040000001,42.224866999999996,Advantage Dental Careers,1037043167466598402,2020-04-09 22:02:00,"Redmond, OR",city,"Klamath Falls, OR",United States
38900,-122.807445,45.55939779999999,Advantage Dental Careers,1037043167466598402,2020-04-10 13:29:15,"Redmond, OR",city,"Bethany, OR",United States
40700,-124.0967779,43.702338899999994,Advantage Dental Careers,1037043167466598402,2020-04-10 17:12:02,"Redmond, OR",city,"Reedsport, OR",United States
32780,-122.80281770000002,42.472625799999996,Advantage Dental Careers,1037043167466598402,2020-04-10 18:26:01,"Redmond, OR",city,"Eagle Point, OR",United States
40700,-123.3125763,43.390117700000005,Advantage Dental Careers,1037043167466598402,2020-04-10 20:53:41,"Redmond, OR",city,"Sutherlin, OR",United States
15060,-124.28398190000001,42.0526114,Advantage Dental Careers,1037043167466598402,2020-04-11 13:34:36,"Redmond, OR",city,"Brookings, OR",United States
31020,-122.9359438,46.0890015,Advantage Dental Careers,1037043167466598402,2020-04-11 17:18:56,"Redmond, OR",city,"Rainier, OR",United States
13460,-121.31530959999999,44.058172799999994,Advantage Dental Careers,1037043167466598402,2020-04-11 18:33:20,"Redmond, OR",city,"Bend, OR",United States
40700,-123.3125763,43.390117700000005,Advantage Dental Careers,1037043167466598402,2020-04-11 21:01:03,"Redmond, OR",city,"Sutherlin, OR",United States
25840,-119.2894605,45.8404101,Advantage Dental Careers,1037043167466598402,2020-04-11 22:14:51,"Redmond, OR",city,"Hermiston, OR",United States
38900,-122.60675829999998,45.3573429,Advantage Dental Careers,1037043167466598402,2020-04-12 13:34:58,"Redmond, OR",city,"Oregon City, OR",United States
39260,-120.83446640000001,44.299848499999996,Advantage Dental Careers,1037043167466598402,2020-04-12 17:19:37,"Redmond, OR",city,"Prineville, OR",United States
38900,-122.5522483,45.55173610000001,Advantage Dental Careers,1037043167466598402,2020-04-12 18:33:34,"Redmond, OR",city,"Portland, OR",United States
18300,-124.2242803,43.40650120000001,Advantage Dental Careers,1037043167466598402,2020-04-12 21:01:16,"Redmond, OR",city,"North Bend, OR",United States
39260,-120.83446640000001,44.299848499999996,Advantage Dental Careers,1037043167466598402,2020-04-12 22:15:02,"Redmond, OR",city,"Prineville, OR",United States
35440,-124.05345049999998,44.6367836,Advantage Dental Careers,1037043167466598402,2020-04-12 23:28:38,"Redmond, OR",city,"Newport, OR",United States
25840,-119.2894605,45.8404101,Advantage Dental Careers,1037043167466598402,2020-04-13 16:10:35,"Redmond, OR",city,"Hermiston, OR",United States
41420,-122.79453329999998,44.8006775,Advantage Dental Careers,1037043167466598402,2020-04-13 18:38:30,"Redmond, OR",city,"Stayton, OR",United States
21660,-123.0847061,44.06371729999999,Advantage Dental Careers,1037043167466598402,2020-04-13 19:52:28,"Redmond, OR",city,"Eugene, OR",United States
39260,-121.1294872,44.6334544,Advantage Dental Careers,1037043167466598402,2020-04-13 21:06:26,"Redmond, OR",city,"Madras, OR",United States
32780,-122.8755949,42.3265152,Advantage Dental Careers,1037043167466598402,2020-04-13 22:22:01,"Redmond, OR",city,"Medford, OR",United States
39900,-120.34579199999999,42.1887721,Advantage Dental Careers,1037043167466598402,2020-04-13 23:35:41,"Redmond, OR",city,"Lakeview, OR",United States
41420,-122.79453329999998,44.8006775,Advantage Dental Careers,1037043167466598402,2020-04-14 13:49:29,"Redmond, OR",city,"Stayton, OR",United States
13460,-121.31530959999999,44.058172799999994,Advantage Dental Careers,1037043167466598402,2020-04-14 15:03:26,"Redmond, OR",city,"Bend, OR",United States
15060,-124.28398190000001,42.0526114,Advantage Dental Careers,1037043167466598402,2020-04-14 16:17:28,"Redmond, OR",city,"Brookings, OR",United States
18300,-124.2178903,43.3665007,Advantage Dental Careers,1037043167466598402,2020-04-14 17:31:27,"Redmond, OR",city,"Coos Bay, OR",United States
38900,-122.60675829999998,45.3573429,Advantage Dental Careers,1037043167466598402,2020-04-14 18:46:00,"Redmond, OR",city,"Oregon City, OR",United States
21660,-123.08675359999998,44.0520691,Advantage Dental Careers,1037043167466598402,2020-04-14 19:59:59,"Redmond, OR",city,"Eugene, OR",United States
38900,-122.60675829999998,45.3573429,Advantage Dental Careers,1037043167466598402,2020-04-15 13:55:44,"Redmond, OR",city,"Oregon City, OR",United States
13460,-121.31530959999999,44.058172799999994,Advantage Dental Careers,1037043167466598402,2020-04-15 16:24:30,"Redmond, OR",city,"Bend, OR",United States
38900,-122.5522483,45.55173610000001,Advantage Dental Careers,1037043167466598402,2020-04-15 17:38:33,"Redmond, OR",city,"Portland, OR",United States
