currentGEOID,lon,lat,name,author_Id,created_at,location,place_type,place_full_name,place_country
42660,-122.3306025,47.614816999999995,Runninupthathill,2929003448,2020-05-24 23:53:00,Seattle,city,"Seattle, WA",United States
173,40.994184,57.0085655, ,292900396,2020-04-02 08:07:24,,city,", ",
82,84.4102715,26.422562,RAKESH,2929003987,2020-05-02 14:43:08,,city,"Gopalganj, India",India
21,-46.6333,-23.55,Guilherme Napoleo,292900448,2020-02-15 12:28:20,So Paulo - SP / Brasil,city,"So Paulo, Brasil",Brasil
205,-0.28394,54.209506000000005,Rossalyn Arezoo,29290050,2020-02-21 16:31:52,Barnsley,poi,Filey Seafront,United Kingdom
158,174.8562435,-36.595729,Natalie Crockett,292900567,2020-02-18 07:20:48,"Auckland, New Zealand",city,"Auckland, New Zealand",New Zealand
21,-51.9666075,-23.105529999999998,menegassi,2929006055,2020-06-09 05:04:21,"Paran, Brasil",city,"Flrida, Brasil",Brasil
222,110.02668777,-7.73357646,pa jack,2929006452,2020-03-22 11:15:26,cikampek,city,"Purworejo, Indonesia",Indonesia
21,-46.64438,-23.50347,Renato Patriarca,29290066,2020-03-18 01:48:29,"Sao Paulo, BR",city,"Sao Paulo, Brazil",Brazil
46140,-95.9924,36.1502,Ally,2929007168,2020-03-17 01:06:11,"Norman, OK",city,"Tulsa, OK",United States
33100,-80.2333285,25.7823535,Denny Directo,29290083,2020-02-20 14:36:59,"Los Angeles, CA",city,"Miami, FL",United States
31080,-118.32514499999999,34.18216,Denny Directo,29290083,2020-02-24 18:32:10,"Los Angeles, CA",city,"Burbank, CA",United States
31080,-118.243,34.0522,Sterlyng Powell,29290099,2020-03-23 19:07:18,Los Angeles,city,"Los Angeles, CA",United States
28140,-94.5592815,39.1000485,Keith Engle,2929010090,2020-02-21 11:43:13,,city,"Kansas City, MO",United States
36420,-97.552161,35.4828435,Marie,2929012403,2020-02-16 09:01:04,USA ,city,"Oklahoma City, OK",United States
46140,-95.97665450000001,35.99647500000001,Marie,2929012403,2020-03-23 22:29:12,USA ,city,"Jenks, OK",United States
36420,-97.552161,35.4828435,Marie,2929012403,2020-03-29 07:32:44,USA ,city,"Oklahoma City, OK",United States
46140,-95.97665450000001,35.99647500000001,Marie,2929012403,2020-04-04 06:57:15,USA ,city,"Jenks, OK",United States
36420,-97.552161,35.4828435,Marie,2929012403,2020-05-09 07:04:19,USA ,city,"Oklahoma City, OK",United States
222,106.7814675,-6.4608865,Ndys,292901484,2020-02-21 10:03:32,,city,"Bojonggede, Indonesia",Indonesia
73,20.792313800000002,39.86475477,Panagakis Pepe,292901524,2020-03-03 06:48:07,,city,", ",
33460,-93.2620465,44.9706105,Katastic NerdHerder ,292901550,2020-03-21 00:34:24,"Minneapolis, MN",city,"Minneapolis, MN",United States
26420,-95.46836978,29.73971232,Anthony Garcia,2929016473,2020-02-14 00:59:18,"Houston, TX",city,"Houston, TX",United States
21,-47.8180015,-21.2139225,SAMANTA ANDRADE,292901670,2020-04-11 22:05:43,,city,"Ribeiro Preto, Brasil",Brasil
171,124.570758,7.741971,myeon,2929019514,2020-04-15 06:25:57,somewhere over the rainbow,city,"Maguing, Autonomous Region Of Muslim Mindanao",Republic of the Philippines
18580,-97.373825,27.680020000000003,kay,2929019826,2020-05-29 03:23:39,"Portland, TX",poi,Bahama Bucks,United States
19740,-105.068348,39.8992865,,29290206,2020-02-15 19:50:10,C,city,"Westminster, CO",United States
88,130.407229,33.539868,dai-ryu,2929021472,2020-02-14 08:04:54,,city,  ,
119,-98.1542665,19.0322295,LEONARDO,2929022035,2020-02-14 13:36:53,,city,"Puebla, Mxico",Mxico
33,-70.87149099999998,-35.2246935,valeria diaz benitez,292902482,2020-02-16 16:10:53,curiico.....chile,city,"Curic, Chile",Chile
35620,-73.9685415,40.780709,rob has THOUGHTS,2929025782,2020-03-15 22:56:50,"New York, NY",city,"Manhattan, NY",United States
88,139.73951449999998,35.56689400000001,,2929026156,2020-02-15 10:51:11, ,city, ,
200,36.196564,36.999596000000004,Bahadr Ate,292902712,2020-04-27 11:58:48,Hatay-Erzin,poi,arabuk Mah.,Trkiye
82,77.215519,28.615268,Sunil Chaurasiya,2929027784,2020-03-26 09:00:31,Gurugram Delhi NCR ,poi,New Delhi |  ,India
119,-99.39686,19.538610000000002,Happy Tails,2929028424,2020-02-14 14:52:14,"Jilotzingo, Mxico",city,"Jilotzingo, Mxico",Mexico
26420,-95.4464865,29.838495,,2929029091,2020-06-02 23:24:54,,city,"Houston, TX",United States
21,-46.225711,-23.9548165,Filho do Homi ,2929029323,2020-02-14 22:56:59,"Guaruj,Curitiba ",city,"Guaruj, Brasil",Brasil
28660,-97.75384,31.0793065,Kadin,2929029958,2020-02-18 05:46:37,"Texas, USA",city,"Killeen, TX",United States
222,110.401169,-7.772658,roisatul mahmudah,2929030110,2020-03-08 09:28:21,,poi,Pondok Pesantren Wahid Hasyim,Indonesia
26,80.39771,8.350087,Rasika Nuwan Ambuldeniya ,2929030242,2020-05-28 03:34:51,Sri Lanka,poi,Ruwanvelisaya Temple,Sri Lanka
88,139.32304,36.146633,,2929031310,2020-03-03 06:46:38,,city, ,
45220,-84.26617399999999,30.4762155,Samuel Perez,292903433,2020-02-27 02:17:59,,city,"Tallahassee, FL",United States
33100,-80.09012799999998,26.279642000000006,Samuel Perez,292903433,2020-03-17 16:05:55,,city,"Lighthouse Point, FL",United States
47900,-77.487441,39.043769,Jordan Williams,2929035202,2020-04-17 00:18:15,PAVA,poi,"Ashburn, VA",United States
205,-0.092633,51.358931,Mala Thapar,292903593,2020-05-19 18:31:45,UK,city,"Croydon, London",United Kingdom
33460,-93.080797,45.167403,Jason Yamamoto,2929035985,2020-03-19 12:28:13,,city,"Lino Lakes, MN",United States
88,139.696814,35.647746000000005,,292903766,2020-02-14 09:17:53,,city, ,
29820,-115.149,36.1675,JRB3,2929039411,2020-03-29 04:35:40,"California, USA",city,"Las Vegas, NV",United States
38060,-112.379447,33.6466545,B A I L L I E,2929039728,2020-02-17 01:08:24,"Arizona, USA",city,"Surprise, AZ",United States
21,-44.3657935,-23.032432500000002,geovana,2929040488,2020-03-08 13:11:58,"Angra dos Reis, Brasil",city,"Angra dos Reis, Brasil",Brasil
38,-76.3486225,3.5704285,Gabriel Coronado,292904051,2020-03-26 01:40:53,,city,"Palmira, Colombia",Colombia
19740,-105.1139685,39.775192,D'Evelyn Athletics,2929041014,2020-02-15 02:54:09,,city,"Wheat Ridge, CO",United States
30780,-92.342322,34.721886,Ladarius Burnes,2929041621,2020-02-16 19:57:32,"Little Rock, AR",city,"Little Rock, AR",United States
37860,-87.2675465,30.5267425,Bernard C Yates,292904207,2020-03-24 00:32:24,"Pensacola, Florida",city,"Ensley, FL",United States
88,139.8767675,36.596727,,2929042250,2020-02-15 03:17:45,,city, ,
119,-103.117,21.4333,BlingedTiger23,2929043383,2020-05-02 18:43:09,West wendover,city,"Juchipila, Zacatecas",Mexico
21220,-114.078162,40.734555,BlingedTiger23,2929043383,2020-05-24 20:21:33,West wendover,city,"West Wendover, NV",United States
205,-0.162392,51.507781,Alicent,292904485,2020-03-02 14:41:43,"London, England",poi,Hyde Park,United Kingdom
88,133.52131200000002,33.9363115,,2929044901,2020-04-11 01:22:08,,city,"Shikokuchuo-shi, Ehime",Japan
46060,-110.89292125,32.23453845,Gabe : Truth,2929046444,2020-03-11 07:17:38,"Tucson, AZ",city,"Tucson, AZ",United States
222,110.74756799999999,-7.627903999999999,Tio,2929046886,2020-04-11 01:42:45,,city,"Wonosari, Indonesia",Indonesia
12580,-76.62048200000002,39.284713,A.W. Stephens,292904694,2020-03-14 21:24:20,"Baltimore, MD",city,"Baltimore, MD",United States
175,46.685077,24.7219435,SHAHER ,2929047860,2020-04-01 07:07:42, ,city,",   ",  
41700,-98.5406515,29.417501,Elsa Diaz,2929047998,2020-04-18 18:39:35,,city,"San Antonio, TX",United States
175,46.685077,24.7219435,Eric Barragn Paz,292904937,2020-02-26 14:55:13,"Riad, Reino de Arabia Saudi",city,"Riad, Reino de Arabia Saudi",Reino de Arabia Saudi
222,106.770877,-6.562181000000002,Elly Yustikasari,2929049688,2020-02-21 05:41:40,"Bogor,Indonesia",city,"Bogor Barat, Indonesia",Indonesia
120,101.59331800000001,3.1918919999999997, Fizie Iskandar ,2929050578,2020-04-09 16:05:48,Malaysia,poi,park avenue condo damansara damai,Malaysia
14460,-70.74608649999998,41.9937215,what??,292905118,2020-02-17 01:11:57,,city,"Kingston, MA",United States
39300,-71.4218325,41.817084,what??,292905118,2020-03-05 20:43:01,,city,"Providence, RI",United States
49340,-71.80534850000002,42.582977,what??,292905118,2020-03-10 05:23:43,,city,"Fitchburg, MA",United States
39300,-71.4218325,41.817084,what??,292905118,2020-03-11 13:49:45,,city,"Providence, RI",United States
49340,-71.80534850000002,42.582977,what??,292905118,2020-03-13 05:50:54,,city,"Fitchburg, MA",United States
39300,-71.4218325,41.817084,what??,292905118,2020-03-13 21:18:51,,city,"Providence, RI",United States
49340,-71.80534850000002,42.582977,what??,292905118,2020-03-24 03:05:23,,city,"Fitchburg, MA",United States
39300,-71.4218325,41.817084,what??,292905118,2020-03-26 22:59:10,,city,"Providence, RI",United States
14460,-70.74608649999998,41.9937215,what??,292905118,2020-04-05 00:43:42,,city,"Kingston, MA",United States
39300,-71.4218325,41.817084,what??,292905118,2020-04-10 22:09:40,,city,"Providence, RI",United States
14460,-70.74608649999998,41.9937215,what??,292905118,2020-04-22 00:30:54,,city,"Kingston, MA",United States
39300,-71.4218325,41.817084,what??,292905118,2020-04-24 15:29:06,,city,"Providence, RI",United States
14460,-70.74608649999998,41.9937215,what??,292905118,2020-04-28 00:22:18,,city,"Kingston, MA",United States
39300,-71.4218325,41.817084,what??,292905118,2020-05-02 22:22:21,,city,"Providence, RI",United States
171,121.104887,14.646970999999999,Nel | MatchaAlter,2929051706,2020-02-14 00:58:09,"Marikina City, National Capita",city,"Marikina City, National Capital Region",Republic of the Philippines
178,24.7627,-28.74,Charles Zamile Mtibe,292905340,2020-04-03 10:00:37,Kimberley south africa,city,"Kimberley, South Africa",South Africa
14,90.865714,23.992283,JD Osman,2929054202,2020-02-14 10:59:05,"Narsingdi,Dhaka,Bangladesh",poi,Methikanda Railway Station,Bangladesh
200,29.0052225,41.0213205,zkan Deer,292905539,2020-02-28 19:27:57,"Vezneciler, stanbul",city,"stanbul, Trkiye",Trkiye
21660,-123.1224015,44.065621,Heels,2929055922,2020-02-14 16:20:28,,city,"Eugene, OR",United States
46520,-157.799589,21.3199435,Heels,2929055922,2020-03-02 03:53:48,,city,"Honolulu, HI",United States
222,115.162057,-8.725477999999999,Heels,2929055922,2020-03-06 07:42:03,,city,"Kuta, Indonesia",Indonesia
242,121.23213999999999,24.854815,Heels,2929055922,2020-03-21 14:05:45,,city,"Taoyuan County, Taiwan",Taiwan
46520,-157.799589,21.3199435,Heels,2929055922,2020-03-23 13:21:28,,city,"Honolulu, HI",United States
21660,-123.1224015,44.065621,Heels,2929055922,2020-03-25 09:31:10,,city,"Eugene, OR",United States
38900,-122.630908,45.536402,swagz,2929055922,2020-05-17 05:30:42,,city,"Portland, OR",United States
21660,-123.1224015,44.065621,swagz,2929055922,2020-05-18 00:42:00,,city,"Eugene, OR",United States
21,-43.2260155,-22.913132, ,2929056052,2020-02-25 01:50:50,"Rio de Janeiro, Brasil",neighborhood,"Maracan, Rio de Janeiro",Brasil
12060,-84.43310600000001,33.7671945,Jordyn Easterling,2929056389,2020-02-15 16:03:21,"Atlanta, GA",city,"Atlanta, GA",United States
33,-71.51564599999999,-33.0263575,Fernando_Calderon,292905703,2020-05-31 13:10:18,"Chile,Via Del Mar",city,"Via del Mar, Chile",Chile
42660,-122.3306025,47.614816999999995,Jihad Abdul-haqq,2929058520,2020-05-28 16:31:20,"Seattle, WA",city,"Seattle, WA",United States
35380,-90.309235,29.9650825,Nikki Trudeaux,2929061658,2020-02-16 04:49:16,,city,"St Rose, LA",United States
88,139.2138955,35.573609499999996,hiroshun,292906207,2020-03-01 03:01:26,,city, ,
225,55.271809999999995,25.208387,Liam Mcwhirter,292906237,2020-04-01 05:17:59,Scunthorpe/Dubai,poi,Blue Marlin Ibiza,United Arab Emirates
17460,-81.53635750000002,41.4951315,Moonya,2929063494,2020-02-27 15:49:27,"Cleveland, OH",city,"University Heights, OH",United States
31080,-118.25232,33.9157145,DvdMrtz,2929064503,2020-02-16 00:36:34,,city,"Willowbrook, CA",United States
19820,-83.52915999999998,42.528303,Clarenceria Jackson,2929064743,2020-02-23 21:43:58,"Wixom, MI",city,"Wixom, MI",United States
222,106.837755,-6.293493,Fauzan Khalifa,2929066266,2020-04-12 04:56:31,"Medan Kota, Indonesia",city,"Pasar Minggu, Indonesia",Indonesia
205,0.0600265,52.271552,llll   llll,292906632,2020-02-14 08:49:40,"40.7571 N, 73.8458 W",city,"Oakington, England",United Kingdom
173,30.358620000000002,59.762032999999995, ,292906660,2020-02-15 12:10:24,,poi,Hilton,
120,101.770181,2.9490515,ross,2929067972,2020-02-14 13:37:00,Malaysia,city,"Kajang, Selangor",Malaysia
120,101.53280274,3.16023837,el,2929068709,2020-02-15 03:41:13,"root, foundation.",city,"Sungai Buloh, Selangor",Malaysia
14860,-73.19911850000001,41.1856745,Quise Da God(Music Artist),2929068837,2020-02-28 02:30:22,"Bridgeport, CT",city,"Bridgeport, CT",United States
205,-0.127896,51.502395,James O Bridge,29290691,2020-03-09 18:08:45,United Kingdom,poi,Foreign and Commonwealth Office,United Kingdom
41700,-98.3801845,29.518532500000003,Sarah Reed,2929069382,2020-02-29 22:10:47,,city,"Windcrest, TX",United States
200,32.0006573,36.54206153,Batuhan Temiz,2929070882,2020-02-20 18:13:23,stanbul/Pendik,city,"Alanya, Trkiye",Trkiye
222,106.88464,-6.2316775,Rio,292907153,2020-02-24 11:48:45,Sector 5 GBK Stadium,city,"Jatinegara, Indonesia",Indonesia
152,4.898798,52.373133,Emil,292907202,2020-04-07 10:56:41,Amsterdam,poi,Oudezijds Achterburgwal,The Netherlands
73,27.612486999999998,36.222708000000004,Emil,292907202,2020-05-15 08:59:03,Amsterdam,poi, (Halki),Hellas
152,4.904053500000001,52.354728,Emil,292907202,2020-05-16 10:59:03,Amsterdam,city,"Amsterdam, The Netherlands",The Netherlands
40900,-121.08762,38.896454999999996,n i c k y ,2929073642,2020-06-08 17:41:52,uc davis ,city,"Auburn, CA",United States
36220,-102.344087,31.8738385,timothywynne,2929073702,2020-03-13 04:22:18,Odessa Texas,city,"Odessa, TX",United States
42020,-120.66966716,35.15289593,Margie Valine,2929073981,2020-02-18 15:21:30,,city,"Pismo Beach, CA",United States
88,139.70549,35.692215000000004,BBOY  THE JOKER,2929074260,2020-02-22 05:22:18,,poi, ,
222,112.65767050000001,-7.851689,Mas WiDji,292907484,2020-04-29 20:48:42,"Malang, Indonesia",city,"Singosari, Indonesia",Indonesia
151,3.9144010000000002,7.496271000000001,Abdullahi Abubakar S ,292907555,2020-03-29 05:32:53,"Lagos, Nigeria",poi,Zoological gardens University of ibadan.,Nigeria
41700,-98.5406515,29.417501,LOUII V ,2929075946,2020-02-20 18:25:15,Texas,city,"San Antonio, TX",United States
26420,-95.4464865,29.838495,Alexis ,2929076527,2020-05-27 19:17:06,University of Houston ,city,"Houston, TX",United States
173,37.2467245,55.82946999999999,Soukrom Krkonoe,2929077833,2020-03-22 14:12:31,Rottenberg,city,", ",
178,28.1799355,-26.2288285,Andrew,2929077930,2020-06-09 16:12:52,"Germiston, South Africa",city,"Germiston, South Africa",South Africa
158,174.75433850000005,-41.2529975,Cheryl,29290781,2020-04-07 00:15:44,"Wellington City, New Zealand",city,"Wellington City, New Zealand",New Zealand
31080,-118.4119065,34.0207895,Lisa Johnson,2929078309,2020-02-14 01:40:04,,city,"Los Angeles, CA",United States
95,126.66298049999999,37.654499,/,2929080997,2020-03-31 10:22:42,,city, ,
88,135.50092229,34.66181175,2/2319,292908149,2020-02-14 22:35:55,2/23   7th ,city,  ,
88,135.74115,35.010067,,2929081950,2020-03-04 14:39:36,,poi, ,
88,139.3881,35.562427500000005,,2929083564,2020-04-12 06:57:25,,city, ,
173,30.328698,59.934148,,292908424,2020-02-14 06:56:28,", ",city,"-, ",
88,132.44895200000002,34.3857005,,2929084538,2020-03-12 22:41:57,,city,  ,
91,36.6557,-1.3617,Greenyard Junior School,2929085013,2020-02-28 08:28:55,"Ngong, Kenya Opp.Milele Mall",city,"Ngong, Kenya",Kenya
47900,-77.0143985,38.898603,Basil Mossaidis,29290851,2020-04-09 15:22:23,,city,"Washington, DC",United States
73,20.856669,39.671731, ! ,292908591,2020-05-29 21:04:49,,poi,  (Ioannina Lake),
88,137.8409265,36.194508500000005,Miz,2929086224,2020-02-15 14:20:44,,city, ,
58,15.758306,50.034691,Kamil Faist,292908834,2020-02-27 17:55:44,Pardubice,city,"Pardubice, esk republika",esk republika
45300,-82.62980300000001,28.269358500000003,Chris Neitzel,2929088704,2020-03-07 18:01:26,"New Port Richey, FL",city,"River Ridge, FL",United States
45780,-83.7887135,41.522137,Christina Short,2929088742,2020-03-07 00:21:45,,city,"Whitehouse, OH",United States
222,112.7171085,-7.325964,Yulis Wima,292908879,2020-02-20 05:02:14,,city,"Jambangan, Indonesia",Indonesia
41860,-122.2286855,37.791994,Christine C,2929090044,2020-03-22 02:00:27,"Oakland, CA",city,"Oakland, CA",United States
222,112.65138799999998,-7.1620395000000014,bulangerimis,2929090045,2020-02-14 10:47:49,sby,city,"Gresik, Indonesia",Indonesia
222,106.87885849999999,-6.6987025,fariedise,2929090086,2020-04-05 04:18:36,,city,"Ciawi, Indonesia",Indonesia
205,-0.298552,52.556886,Dawn Stewart,29290905,2020-02-22 18:00:29, England,poi,The Granary (Beefeater),United Kingdom
175,46.685077,24.7219435, ,292909107,2020-02-28 19:29:31,",   ",city,",   ",  
193,98.970177,18.797916, ,2929092030,2020-03-15 07:53:17,,poi,LARK LAI (),
205,-0.02480758,51.46801628,Brockley Market,292909270,2020-03-24 20:05:13,"SE4 1UT, London",city,"Lewisham, London",United Kingdom
91,36.80341,-1.1665899999999998,KingBunja,292909365,2020-03-19 00:07:00,Nairobi,city,"Kiambu, Kenya",Kenya
120,101.7125291,3.16708338,Fernando Faiz,292909403,2020-02-15 17:08:42,"221B, Baker Street",city,"Kuala Lumpur City, Kuala Lumpur Federal Territory",Malaysia
222,107.185461,-6.2976855,Atika Marta,2929094148,2020-04-12 22:28:36,"Cikarang, Indonesia",city,"Lemahabang, Indonesia",Indonesia
205,-0.14893599999999999,51.500091999999995,ah.s,2929094335,2020-04-03 23:20:20,"Bristol, Uk",city,"London, England",United Kingdom
175,39.2541285,21.5857105,ah.s,2929094335,2020-06-11 15:20:42,"Bristol, Uk",city,",   ",  
31080,-118.666298,34.1631765,,2929094623,2020-03-27 03:41:04,Doin somethin fye,city,"Hidden Hills, CA",United States
200,29.0052225,41.0213205,Mustafa Tekin,2929094877,2020-06-01 15:04:19,,city,"stanbul, Trkiye",Trkiye
41860,-122.43597849999999,37.7706565,Charles Desmarais,29290968,2020-02-27 04:12:01,San Francisco,city,"San Francisco, CA",United States
42220,-122.5300435,38.3612155,Charles Desmarais,29290968,2020-03-13 21:03:17,San Francisco,city,"Glen Ellen, CA",United States
41860,-122.43597849999999,37.7706565,Charles Desmarais,29290968,2020-03-15 18:15:00,San Francisco,city,"San Francisco, CA",United States
42220,-122.5300435,38.3612155,Charles Desmarais,29290968,2020-04-22 19:38:20,San Francisco,city,"Glen Ellen, CA",United States
41860,-122.43597849999999,37.7706565,Charles Desmarais,29290968,2020-04-24 03:22:55,San Francisco,city,"San Francisco, CA",United States
186,-0.88312904,41.65637814,Sergi,292909863,2020-02-16 19:00:51,snapchat : sergi4197,city,"Zaragoza, Espaa",Espaa
29820,-115.1678655,36.1075595,Anunna Balance,2929100162,2020-04-13 13:11:36,"Las Vegas, NV",neighborhood,"The Las Vegas Strip, Paradise",United States
14860,-73.093867,41.317708,Tanya,29291007,2020-02-21 01:13:29,United States,poi,Luscious Locks and Lashes,United States
200,29.0052225,41.0213205,Abdurrahman yeter,292910070,2020-03-24 16:37:43,,city,"stanbul, Trkiye",Trkiye
71,12.091097999999999,54.078527,Yannik,292910198,2020-03-08 19:22:25,"Germany, Europe",poi,Zoo Rostock,Deutschland
60,25.018623,60.159471,Olli E. Kangas,2929101995,2020-02-15 06:28:55,"Finland, Helsinki",city,"Helsinki, Suomi",Suomi
222,112.72601599999999,-7.3300005000000015,TAHUN TIKUS,2929102448,2020-02-14 03:55:16,RS BHAYANGKARA SBY,city,"Gayungan, Indonesia",Indonesia
222,122.390671,-3.9228870000000002,harpin,292910265,2020-03-29 05:56:10,kendari,city,"Sampara, Indonesia",Indonesia
40060,-77.58889350000001,37.599557,Holly,29291046,2020-02-14 02:59:59,"Richmond, Virginia",city,"Tuckahoe, VA",United States
16820,-78.487448,38.0400365,Holly,29291046,2020-03-07 20:32:54,"Richmond, Virginia",city,"Charlottesville, VA",United States
40060,-77.58889350000001,37.599557,Holly,29291046,2020-03-09 01:43:16,"Richmond, Virginia",city,"Tuckahoe, VA",United States
88,138.65765,35.16475,,2929104908,2020-03-05 05:18:18,,poi,EF Curry,
186,-6.171641999999999,37.5550315,Eugenio,292910542,2020-05-28 12:53:10,"Sevilla, Espaa",city,"Gerena, Espaa",Espaa
96,48.1019075,29.170201000000002,,2929105489,2020-03-02 16:47:15,Pondicherrykuwait,city,"Al Egaila, Kuwait",Kuwait
24,-81.25,42.9833,Darien Fraher,292910568,2020-05-08 16:21:54,"London, Ontario",city,"London, Ontario",Canada
200,27.36083039,38.15495133,Ahmet Kavak,2929105863,2020-05-03 10:44:40,,city,"Torbal, Trkiye",Trkiye
119,-103.335882,20.676652,CarlosCampos,2929105906,2020-02-28 15:33:15,"Wien, sterreich",city,"Guadalajara, Jalisco",Mexico
222,106.7536885,-6.254589,Reef,292910646,2020-02-25 02:07:40,Depok Rock City,city,"Pesanggrahan, Indonesia",Indonesia
186,-3.6846690000000004,40.2460205,Escobarich,292910648,2020-03-09 06:34:20,Madrid,city,"Pinto, Espaa",Espaa
178,18.7096565,-33.8815305,Amangile Beja,292910710,2020-05-03 03:09:28,Cape town,city,"Brackenfell, South Africa",South Africa
91,39.745176,-3.9478685,Njoro Kuria,29291087,2020-03-26 14:42:45,Kenya,city,"Mtwapa, Kenya",Kenya
55,-89.23630870000001,13.6785465,El hombre de la radio ,292910887,2020-02-14 22:28:27,El Salvador,city,"Ciudad Arce, El Salvador",El Salvador
175,46.757893,24.614138, ,2929109294,2020-05-13 01:32:14,,poi,    ,  
31080,-117.7823605,33.689732,   LVLUP EXPO 519,2929109415,2020-02-14 22:08:59, : LVLUP EXPO!!!,city,"Irvine, CA",United States
29820,-115.13516499999999,36.060964500000004,   LVLUP EXPO 519,2929109415,2020-02-21 19:37:26, : LVLUP EXPO!!!,city,"Paradise, NV",United States
55,-89.25591,13.66896,Nelson Serrano,292911047,2020-03-15 02:56:37,,city,"Ciudad Arce, El Salvador",El Salvador
82,77.498726,28.545556,SuNnY ,292911155,2020-03-24 15:55:26,"New Delhi, India",city,"Noida, India",India
88,139.783857,35.550246,,2929112058,2020-03-29 03:00:21, ,poi,1  (Terminal 1 North Wing),
21,-43.183436,-22.972441,Diba ,2929112645,2020-03-02 02:34:08,"Rio de Janeiro, Brasil",poi,Praia de Copacabana,Brasil
193,100.584323,13.78328,BecuzofYU,2929113774,2020-02-14 10:51:27,Levi Akerman,city,", ",
19100,-96.831956,32.590083,TopFlight Jef ,292911379,2020-04-13 03:16:48,"Dallas, TX",poi,Sno Cone Shaq,United States
12420,-97.754724,30.3233455,Ethan ,2929114892,2020-02-15 19:08:22,"Buda, TX",city,"Austin, TX",United States
36540,-95.92874573,41.26420521,Kate Q. Renz,29291156,2020-02-18 05:42:33,,city,"Omaha, NE",United States
33460,-93.20821683,44.8226231,Kate Q. Renz,29291156,2020-03-18 21:31:39,,city,"Eagan, MN",United States
88,139.87015050000002,35.82460349999999,,292911680,2020-02-28 16:50:40,,city, ,
60,25.018623,60.159471,Heidi Heinonen,292911709,2020-02-29 09:46:08,"Helsinki, Finland",city,"Helsinki, Finland",Finland
153,10.721525999999999,59.97240550000001,Ravinder Singh,2929117624,2020-02-28 18:30:29,,city,"Oslo, Norge",Norge
171,121.06321171,14.55993627,Christopher Mejia,2929118838,2020-02-16 00:28:32,"Calabarzon, Republic of the Ph",city,"Makati City, National Capital Region",Republic of the Philippines
24,-73.70958900000001,45.60556800000001,Gaetane Legault,292911946,2020-03-07 18:03:08,Laval,city,"Laval, Qubec",Canada
38,-72.88367,5.51831,jeison gutierrez,2929119488,2020-03-06 02:19:14,,city,"Aquitania, Colombia",Colombia
28940,-83.9638415,35.982470500000005,BriKnow,29291195,2020-02-28 21:42:14,"Nashville, TN",city,"Knoxville, TN",United States
34980,-86.791549,36.200008000000004,BriKnow,29291195,2020-03-01 02:34:47,"Nashville, TN",city,"Nashville, TN",United States
222,106.93233500000001,-6.2391475,haidude,2929119698,2020-02-17 06:38:41,"Jakarta, West Java, Indonesia",city,"Duren Sawit, Indonesia",Indonesia
21660,-123.1224015,44.065621,sak,2929120273,2020-03-21 21:48:08,,city,"Eugene, OR",United States
41420,-123.02901499999999,44.935084,sak,2929120273,2020-04-10 03:11:26,,city,"Salem, OR",United States
47900,-77.2735,38.7764,Nicolas Nouvel,29291217,2020-02-14 00:57:47,"Rockville, Md",city,"Burke, VA",United States
19100,-96.69960400000001,33.1946515,Cody Clower,2929122306,2020-04-13 22:28:54,,city,"McKinney, TX",United States
88,135.5170071,34.73938304,,2929122518,2020-02-16 03:13:45,+63k -150,city,  ,
175,39.2541285,21.5857105,  -,292912425,2020-03-06 17:51:31,",   ",city,",   ",  
82,78.3852855,17.3950375,Raghu ram,2929124538,2020-03-21 04:32:15,"Hyderabad, India",city,"Rajendra Nagar, India",India
8,-60.72034264,-31.60607847,Pabloo,2929125016,2020-03-19 23:24:30,Santa Fe,city,"Santa F, Argentina",Argentina
186,-4.274365,36.734428, Zule ,292912535,2020-04-04 17:35:51,"Mlaga, Espaa",city,"Rincn de la Victoria, Espaa",Espaa
88,136.91950649999998,35.161598999999995,Yusuke Kato,2929125451,2020-04-01 05:55:27,  ,city,  ,
33100,-80.1783915,26.03968,Michael Chelus,292912894,2020-02-16 12:25:57,"Orchard Park, NY",city,"Hollywood, FL",United States
15380,-78.870807,42.89967,Michael Chelus,292912894,2020-02-23 13:23:38,"Orchard Park, NY",poi,Buffalo Tikka House,United States
24,-79.04356999999999,43.17259,Michael Chelus,292912894,2020-03-04 22:59:49,"Orchard Park, NY",city,"Lewiston, NY",United States
15380,-78.69746500000001,43.024443,Michael Chelus,292912894,2020-03-08 12:33:09,"Orchard Park, NY",poi,Almaza Grill,United States
24,-79.04356999999999,43.17259,Michael Chelus,292912894,2020-03-13 22:50:40,"Orchard Park, NY",city,"Lewiston, NY",United States
15380,-78.86381,42.948029999999996,Michael Chelus,292912894,2020-03-15 02:41:30,"Orchard Park, NY",city,"Buffalo, NY",United States
42220,-122.86262031,38.60388082,Michael Chelus,292912894,2020-04-03 21:59:09,"Orchard Park, NY",city,"Healdsburg, CA",United States
15380,-78.74389000000001,42.76719,Michael Chelus,292912894,2020-04-06 01:04:51,"Orchard Park, NY",city,"Orchard Park, NY",United States
40140,-116.237907,33.7446325,Gabriela Vasilj,2929129141,2020-05-08 05:14:49,,city,"Indio, CA",United States
120,101.2025985,4.6471325,kakteng,2929130101,2020-03-09 11:29:54,Ipoh ,city,"Hulu Kinta, Perak",Malaysia
222,106.7536885,-6.254589,Narita Hilarijanti S.,2929130575,2020-03-27 04:33:56,"Jakarta Barat, DKI Jakarta",city,"Pesanggrahan, Indonesia",Indonesia
46020,-121.05818799999999,39.215572,Amy Martin,2929130867,2020-05-30 23:03:42,,city,"Grass Valley, CA",United States
55,-89.417034,14.1412605,Ingrid,2929131086,2020-02-15 00:08:06,"Metapn, El Salvador ",city,"San Antonio Pajonal, El Salvador",El Salvador
33460,-93.4648835,45.1085325,Brody Graff,2929131716,2020-02-17 23:34:51,"North Dakota, USA",city,"Maple Grove, MN",United States
152,4.3063955,52.07686800000001,Geziena-Caro,292913325,2020-05-29 12:25:34,TARDIS,city,"The Hague, The Netherlands",The Netherlands
17460,-81.738281,41.489292,RunCleverPotato,2929134113,2020-04-04 23:00:28,Earth,poi,Edgewater Park,United States
41700,-98.5406515,29.417501,J,2929134990,2020-02-19 13:37:45,"San Antonio, TX",city,"San Antonio, TX",United States
82,79.5390275,28.2099875, ,2929135014,2020-02-28 18:28:16,"Bareilly, India",city,"Faridpur, India",India
38060,-111.8808735,33.2824505,Veronica Jantzen-Nez,2929135068,2020-03-11 04:59:10,"Arizona, USA",city,"Chandler, AZ",United States
161,67.611038,26.691964000000002,GhulamMustafa,292913640,2020-05-24 03:34:41,"Johi, Pakistan",city,"Johi, Pakistan",Pakistan
40140,-117.5621525,34.12167,twitch.tv/chaobyte,2929137306,2020-02-29 17:29:06,"Rancho Cucamonga, CA",city,"Rancho Cucamonga, CA",United States
31080,-117.890736,33.973046000000004,CH405,2929137306,2020-05-27 22:59:20,"Rancho Cucamonga, CA",city,"Rowland Heights, CA",United States
171,120.9839865,14.5914565,C L O U D J O O O,2929137991,2020-02-14 16:47:22,,city,"Manila City, National Capital Region",Republic of the Philippines
88,139.78598799999997,35.713206,,2929139209,2020-04-24 11:39:03,,city, ,
29700,-99.50169,27.571759999999998,jesus gerardo,2929139971,2020-02-15 14:44:53,,poi,Johnny Carino's,United States
26420,-95.19268000000001,29.972668,J ,2929140566,2020-02-16 06:36:50,"Texas, USA",city,"Atascocita, TX",United States
31080,-117.643819,33.5513865,jared,2929141154,2020-06-08 17:37:44,"Tempe, AZ",city,"Ladera Ranch, CA",United States
40140,-117.21792,33.921924000000004,jared,2929141154,2020-06-09 16:53:28,"Tempe, AZ",city,"Moreno Valley, CA",United States
82,74.32905199999998,25.738073999999997,LALIT SHARMA,2929141194,2020-05-09 15:29:04,,city,"Asind, India",India
29820,-115.13516499999999,36.060964500000004,ahsinoj.,2929141833,2020-03-02 06:40:32,TX,city,"Paradise, NV",United States
26420,-95.4464865,29.838495,ahsinoj.,2929141833,2020-03-16 22:01:23,TX,city,"Houston, TX",United States
32820,-89.81487899999998,35.230487,ahsinoj.,2929141833,2020-05-17 21:48:50,TX,city,"Bartlett, TN",United States
222,123.067753,0.5170330000000001,IcantbeNORMAL,2929143968,2020-02-14 08:23:51,"Gorontalo, Indonesia",city,"Kota Selatan, Indonesia",Indonesia
173,37.592769,55.779904,leraslavna,292914460,2020-03-07 17:57:29,"-, ",poi,,
38,-72.994963,11.2312005,Zeger Iguarn,292914613,2020-06-03 22:27:13,,city,"Riohacha, Colombia",Colombia
119,-105.199009,21.48501,Campervanmatters,2929147317,2020-02-28 03:32:33,,poi,Plaza de Aticama,Mexico
222,106.89483,-6.143265,Emmy,292914949,2020-06-01 14:58:48,Jakarta Capital Region,poi,Dihatimuu :3,Indonesia
178,28.1799355,-26.2288285,jose pregueiro,292914967,2020-02-19 12:32:18,,city,"Germiston, South Africa",South Africa
40900,-121.747321,38.5386,,2929150526,2020-02-23 00:12:25,BARCELONA,poi,UC Davis Arboretum,United States
41860,-122.2795215,37.875845500000004,,2929150526,2020-02-24 01:35:37,BARCELONA,city,"Berkeley, CA",United States
31080,-118.4119065,34.0207895,Fernando,2929151405,2020-02-22 03:49:03,Los Angeles ,city,"Los Angeles, CA",United States
37100,-119.2289915,34.289689499999994,Fernando,2929151405,2020-04-16 22:26:39,Los Angeles ,city,"Ventura, CA",United States
88,136.90699676,35.16317897,KEBU,2929151732,2020-02-15 08:09:52, ,city,  ,
82,77.095086,28.638489500000002, ,2929151868,2020-05-12 16:36:30,"Okhla, New Delhi",city,"New Delhi, India",India
178,28.015008,-26.188369,jaycore,2929154170,2020-03-13 07:44:53,"Rustenburg, South Africa",poi,University of Johannesburg,South Africa
65,6.486637,48.1639345,Magnum la Radio,292915603,2020-02-21 23:12:40,Lorraine / Haute-Marne / Alsace,city,"Epinal, France",France
47900,-77.10208,38.964059999999996,Courtenay Miller,2929156521,2020-06-08 21:14:48,"Silver Spring, Maryland",city,"Bethesda, MD",United States
82,75.16248449999999,30.6952345,gurpreet Singh,2929156796,2020-05-07 13:15:10,,city,"Moga, India",India
88,136.949815,36.8686255,,2929157617,2020-02-14 02:26:09,,city, ,
186,-3.7035075,40.4777945,Samuel Navarro Ferna,2929158958,2020-03-25 07:14:29,Madrid,city,"Madrid, Espaa",Espaa
24,-119.49071370000001,49.886066799999995,Erik,2929159026,2020-02-16 06:22:53,"Kelowna, British Columbia",city,"Kelowna, British Columbia",Canada
85,10.974769,45.440886,Lukasz,2929159257,2020-03-18 14:44:23,Italia,poi,Skatepark Galliano,Italy
171,120.612449,15.480779,Louisa_,2929159824,2020-03-26 21:21:23,Tarlac City,city,"Tarlac City, Central Luzon",Republic of the Philippines
153,10.795975,59.906337,Kashif Khan,292916120,2020-02-15 10:20:05,"Oslo, Norway",poi,Rema 1000,Norge
82,72.57023199999999,23.013959,Crim_Ruwan,2929161587,2020-02-20 11:57:29,"Scotland, United Kingdom",city,"Ahmadabad City, India",India
178,27.874292500000006,-26.1427115,LINK.,292916172,2020-02-14 09:07:04,(SA) IG:gmlinkin,city,"Roodepoort, South Africa",South Africa
39300,-71.43666999999998,41.698940500000006,Bill Reilly,29291625,2020-03-17 21:32:18,,city,"Warwick, RI",United States
88,139.815545,35.715131,()g ,2929164516,2020-02-15 03:50:08,,city, ,
82,77.095086,28.638489500000002,Deepin,2929164955,2020-02-14 05:04:42,"New Delhi, India",city,"New Delhi, India",India
88,137.73301899999998,34.839948,Junya,2929165495,2020-02-16 01:07:02,  ,poi,,
19500,-88.9366835,39.854585,Mia Klek,2929165932,2020-02-26 20:42:37,,city,"Decatur, IL",United States
17460,-81.705467,41.49593950000001,Mia Klek,2929165932,2020-03-11 21:30:31,,city,"Cleveland, OH",United States
35620,-73.9685415,40.780709,Mia Klek,2929165932,2020-03-13 02:29:48,,city,"Manhattan, NY",United States
19500,-88.9366835,39.854585,Mia Klek,2929165932,2020-03-16 14:11:07,,city,"Decatur, IL",United States
17460,-81.84886,41.470205,Mia Klek,2929165932,2020-03-26 14:36:24,,city,"Rocky River, OH",United States
19500,-88.9366835,39.854585,Mia Klek,2929165932,2020-04-16 15:59:07,,city,"Decatur, IL",United States
37900,-89.2756645,40.7172815,Mia Klek,2929165932,2020-05-08 17:16:45,,city,"Eureka, IL",United States
17460,-81.84886,41.470205,Mia Klek,2929165932,2020-05-13 19:02:43,,city,"Rocky River, OH",United States
31900,-82.475571,40.748333,Mia Klek,2929165932,2020-05-25 23:18:30,,city,"Mansfield, OH",United States
17460,-81.84886,41.470205,Mia Klek,2929165932,2020-06-02 15:26:24,,city,"Rocky River, OH",United States
35620,-74.19130602,40.74058513,Nina Attia,292916710,2020-04-28 17:03:42,,city,"Newark, NJ",United States
222,112.64843,-7.57212,yah.,2929167320,2020-02-29 01:51:58,"Sidoarjo, Jatim",poi,Ranu Manduro,Indonesia
41740,-117.320879,33.226316,Konnie Kern,2929171303,2020-03-21 01:10:08,,city,"Oceanside, CA",United States
222,113.2186215,-8.127243,Izzat Abdi,2929171627,2020-02-22 23:34:15,"Lumajang, Indonesia",city,"Lumajang, Indonesia",Indonesia
40900,-121.33945200000001,38.566431,neidelyn,2929171970,2020-05-02 03:55:13,,poi,West Wind Sacramento 6 Drive-In,United States
42100,-122.0311865,36.97937500000001,neidelyn,2929171970,2020-05-22 09:36:43,,city,"Santa Cruz, CA",United States
88,139.33045022,36.81494729,,2929172515,2020-02-22 04:20:00,,city, ,
9,115.9283185,-32.1501005,Luke van der Beeke,292917263,2020-02-14 00:03:59,"Usually Perth, WA. ",city,"Perth, Western Australia",Australia
24,-113.49261750000001,53.5558195,Madison Holland,29291730,2020-02-28 17:22:58,YYC/YEG,city,"Edmonton, Alberta",Canada
31080,-118.131964,34.17731,Grimstyles,2929174363,2020-05-19 14:15:34,Bakersfield or somewhere else,city,"Pasadena, CA",United States
33460,-93.2620465,44.9706105,Grimstyles,2929174363,2020-05-27 20:40:09,Bakersfield or somewhere else,city,"Minneapolis, MN",United States
65,5.11677,46.28263,Fanny Dutel-Pillon,2929174587,2020-03-09 22:40:19,Mcon,city,"Saint-Martin-le-Chtel, France",France
186,-3.791864,40.2887025,Kano,2929176922,2020-03-09 12:58:30,,city,"Fuenlabrada, Espaa",Espaa
205,-0.12731805,51.50711486,Nancy Mathausova,292917706,2020-02-16 21:09:52,"London, England",city,"London, England",United Kingdom
22780,-92.60676,38.161642,Mix 92.7 Radio,2929177274,2020-02-17 17:24:44,Lake of the Ozarks,city,"Osage Beach, MO",United States
30060,-92.65032291,38.13523844,Mix 92.7 Radio,2929177274,2020-05-04 11:43:26,Lake of the Ozarks,city,"Laguna Beach, MO",United States
22780,-92.62706999999999,38.15348,Mix 92.7 Radio,2929177274,2020-05-29 13:41:49,Lake of the Ozarks,city,"Osage Beach, MO",United States
27620,-92.74870634,38.20766832,Mix 92.7 Radio,2929177274,2020-06-02 02:03:15,Lake of the Ozarks,city,"Four Seasons, MO",United States
30060,-92.65032291,38.13523844,Mix 92.7 Radio,2929177274,2020-06-04 15:34:27,Lake of the Ozarks,city,"Laguna Beach, MO",United States
27620,-92.5790153,38.34915272,Mix 92.7 Radio,2929177274,2020-06-05 14:40:00,Lake of the Ozarks,city,"Eldon, MO",United States
30060,-92.75559,38.002990000000004,Mix 92.7 Radio,2929177274,2020-06-11 12:36:49,Lake of the Ozarks,city,"Camdenton, MO",United States
91,37.094411,-1.0531840000000001,Gretsa University,2929177546,2020-04-30 17:45:31,Thika,city,"Thika, Kenya",Kenya
178,27.968098,-26.2761385,Kayla  WITH EXO,2929178337,2020-02-19 05:08:53,"EXO Planet , South Africa ",city,"Johannesburg, South Africa",South Africa
95,126.66298049999999,37.654499,,2929178550,2020-05-03 18:19:10,,city, ,
31080,-118.2445,34.0564,Michael Grimaldo,29291803,2020-04-30 23:07:01,Los Angeles,city,"Los Angeles, CA",United States
9,150.931975,-33.848244,Geoff Rupp,29291806,2020-05-19 11:55:27,Sydney,city,"Sydney, New South Wales",Australia
120,101.94114,2.692246,Merak Kayangan,2929180961,2020-05-24 10:38:39,Sombansterdam - PIS,poi,Somban n9,Malaysia
173,37.6156,55.7522, ,2929181535,2020-03-28 17:47:08,--,city,", ",
41980,-66.058368,18.384165499999998,Pacfico,29291820,2020-02-18 12:42:23,nomadic,city,"San Juan, USA",United States
35620,-73.9487755,40.655138,Jade Schulz,29291825,2020-02-18 18:36:55,"New York, NY",city,"Brooklyn, NY",United States
171,121.37039750000001,14.232507,pot,2929182997,2020-03-10 00:42:46,Pagsanjan Laguna,city,"Pila, Calabarzon",Republic of the Philippines
21,-43.018208,-22.821465,juninPlay,2929183229,2020-02-14 17:32:56,,city,"So Gonalo, Brasil",Brasil
30700,-96.6965625,40.803235,Lexi,2929183728,2020-02-18 03:18:55,UNL '20,city,"Lincoln, NE",United States
35380,-90.01100799999999,29.982601000000003,honorable,2929184004,2020-02-27 08:07:00,southside ,city,"New Orleans, LA",United States
27140,-90.1580165,32.230987,honorable,2929184004,2020-03-06 21:28:12,southside ,city,"Jackson, MS",United States
26420,-95.340375,29.72151,Jorge,2929184335,2020-02-17 22:10:02,"Houston, TX ",poi,Classroom and Business Building,United States
20900,-96.093124,29.326595,Jorge,2929184335,2020-02-21 23:49:49,"Houston, TX ",city,"Wharton, TX",United States
26420,-95.4464865,29.838495,Jorge,2929184335,2020-02-27 19:56:18,"Houston, TX ",city,"Houston, TX",United States
20900,-96.093124,29.326595,Jorge,2929184335,2020-02-28 02:12:16,"Houston, TX ",city,"Wharton, TX",United States
186,-3.5665660000000003,40.696827500000005,Emy D.,292918549,2020-03-12 12:28:55,,city,"El Molar, Espaa",Espaa
96,47.98580850000001,29.3811865,hayoooona,292918553,2020-03-09 08:36:13,,city,"Al Sharq, Kuwait",Kuwait
171,121.10992900000001,14.2538655,Ja,292918601,2020-05-28 17:40:37,,city,"Cabuyao, Calabarzon",Republic of the Philippines
41860,-122.420965,37.751953,Sitara Ramesh,2929186236,2020-05-08 21:59:46,"San Francisco, CA",poi,Papalote Mexican Grill,United States
95,127.30929099999999,36.282218, ,292918667,2020-02-18 10:39:42,,city, ,
200,36.9317,37.5875,mer Burak KURUAY,292918720,2020-02-23 18:10:26,Kahramanmara,city,"Kahramanmara, Trkiye",Trkiye
85,13.22104981,43.70908789999999,Pasin Latina,2929187693,2020-04-01 09:25:59,,city,"Senigallia, Marche",Italia
186,-4.674251,37.8476005,anselmo gonzalez gar,292919001,2020-02-16 22:23:49,"cordoba,espaa",city,"Crdoba, Espaa",Espaa
88,139.2957855,35.6581635,t,292919090,2020-03-21 14:10:14, ,city, ,
88,139.73951449999998,35.56689400000001,,2929191024,2020-02-15 04:25:45,,city, ,
205,-0.22436,51.504008,Alice in Wonderland ,292919202,2020-02-29 11:22:25,"Lagos, Nigeria",poi,"Dorsett Shepherds Bush, London",United Kingdom
151,3.9052964999999995,7.4290745,Michael,292919202,2020-04-15 12:49:55,"Lagos, Nigeria",city,"Ibadan, Nigeria",Nigeria
171,121.01080300000001,14.483414000000002,Georgie ,292919262,2020-02-14 02:29:24,Goryeo,city,"Paranaque City, National Capital Region",Republic of the Philippines
21,-51.1593095,-30.099836,tiago zaniratti,29291933,2020-02-14 20:52:25,Brasil,city,"Porto Alegre, Brasil",Brasil
164,-8.452306,40.225451,tiago zaniratti,29291933,2020-02-21 17:07:57,Brasil,city,"Coimbra, Portugal",Portugal
21,-51.0952005,-29.918787,tiago zaniratti,29291933,2020-06-03 10:35:20,Coimbra,city,"Cachoeirinha, Brasil",Brasil
82,80.88440750000002,26.8251695,Singh Rahul,2929193612,2020-03-04 05:00:21,lucknow,city,"Lucknow, India",India
205,-2.1168695,53.54286550000001,Tandle Accountancy,292919528,2020-04-03 16:59:15,"Royton, Oldham ",city,"Oldham, England",United Kingdom
24,-79.3872,43.648,Nicole Gallucci,29291955,2020-02-24 11:55:20,"T: 43.7644046,-79.3531568",city,"Toronto, Ontario",Canada
222,98.667,3.583,Rolly Sianipar,292919669,2020-05-27 00:35:24,"Medan Kota, Indonesia",city,"Medan Polonia, Indonesia",Indonesia
205,-3.1451010000000004,52.660917500000004,Aaron Parker-Bowles,292919727,2020-03-19 16:51:11,Wales,city,"Welshpool, Wales",United Kingdom
171,120.6319,14.9659,Kath,2929198633,2020-03-31 18:27:22,Guagua Pampanga,city,"Guagua, Central Luzon",Republic of the Philippines
205,-0.061,51.553999999999995,LAND CHOCOLATE,292919879,2020-02-25 10:15:57,London,city,"Hackney, London",United Kingdom
31080,-117.7823605,33.689732,,2929199839,2020-02-25 08:37:34,San Francisco,city,"Irvine, CA",United States
41860,-122.43597849999999,37.7706565,,2929199839,2020-03-28 18:49:48,San Francisco,city,"San Francisco, CA",United States
119,-103.4847745,20.790657000000003,Edgar R. Jurez R.,29292005,2020-02-14 13:53:32,Zapopan,city,"Zapopan, Jalisco",Mxico
175,39.8016865,21.389833000000007,  ((   )),292920075,2020-02-21 20:20:04,  ,city," ,   ",  
175,39.619578999999995,24.446488000000002,Aisha ali,2929202347,2020-02-24 16:58:35,,poi,  Castello Coffee,  
85,13.8756965,42.92747,AnDReA ,292920323,2020-02-14 21:49:29,San Benedetto del Tronto,city,"San Benedetto del Tronto, Marche",Italia
205,-3.109263,55.94733299999999,ColonelJack71,2929204169,2020-04-15 10:12:09,United Kingdom,poi,Magdalene,United Kingdom
82,78.782726,28.453745,yasar,292920441,2020-04-05 21:23:44,,poi,chandausi,India
38940,-80.430818,27.268039,Kendricko Stukes,292920516,2020-05-27 19:18:54,"Port St Lucie, FL",poi,Bagel Brothers of New York,United States
82,77.5584485,12.9231145,N.DHAYALAN,2929205900,2020-04-30 01:26:25,"Bengaluru South, India",city,"Bengaluru South, India",India
12420,-97.754724,30.3233455,,292920764,2020-02-16 18:03:12,"San Marcos, TX",city,"Austin, TX",United States
28660,-97.75384,31.0793065,,292920764,2020-03-14 19:50:48,"San Marcos, TX",city,"Killeen, TX",United States
12420,-97.754724,30.3233455,,292920764,2020-03-18 16:44:08,"San Marcos, TX",city,"Austin, TX",United States
28660,-97.75384,31.0793065,,292920764,2020-03-21 21:33:49,"San Marcos, TX",city,"Killeen, TX",United States
171,121.01423806,14.737619800000001,tokyo ,2929208017,2020-04-04 05:40:03,National Capital Region,city,"Caloocan City, National Capital Region",Republic of the Philippines
82,77.59501622,12.97223261,Ganga Kariappa,292920851,2020-03-01 07:00:22,Bangalore,city,"Bengaluru, India",India
41940,-121.8737305,37.331159,Avadh Radadiya,292920965,2020-02-18 02:27:18,"San Jose, CA & Gujarat, INDIA",city,"San Jose, CA",United States
41860,-122.31542150000001,37.552481,Avadh Radadiya,292920965,2020-04-07 23:26:32,"San Jose, CA & Gujarat, INDIA",city,"San Mateo, CA",United States
41940,-121.8737305,37.331159,Avadh Radadiya,292920965,2020-05-24 18:45:44,"San Jose, CA & Gujarat, INDIA",city,"San Jose, CA",United States
82,76.0324995,28.76545,Mr. Dev,2929211222,2020-04-05 03:10:42,BHIWANI,city,"Bhiwani, India",India
17300,-87.3221685,36.5509835,Jesus Avila,2929211918,2020-02-20 00:32:23,"Pyeongtaek-si, Republic of Korea",city,"Clarksville, TN",United States
38900,-123.111898,45.52213550000001,absolute buffoon idiot fool,2929212216,2020-02-16 19:55:48,"Forest Grove, OR",city,"Forest Grove, OR",United States
55,-89.190947,13.697817,David Campos ,292921469,2020-04-06 12:54:40,"Cuscatlan, El Salvador",poi,Centro Histrico,El Salvador
82,80.88440750000002,26.8251695,Help U Educational and Charitable Trust,2929214863,2020-02-16 10:19:14,"Lucknow, India",city,"Lucknow, India",India
173,92.896721,56.022817,v,2929215419,2020-04-04 07:17:44,"Novosibirsk, Russia",city,", ",
205,-2.9783505,53.175228,Paul Jones,2929216113,2020-02-16 08:47:19,,city,"Broughton, Wales",United Kingdom
26420,-95.4464865,29.838495,Dr. Kayne M. Smith,2929216189,2020-03-13 00:24:03,"Cypress, TX",city,"Houston, TX",United States
200,29.0052225,41.0213205,Ecenur ztrk,292921642,2020-04-17 19:03:23,"stanbul, Trkiye",city,"stanbul, Trkiye",Trkiye
31080,-118.4119065,34.0207895,Helen Garcia,2929216706,2020-06-04 01:54:58,"Lake Balboa, Los Angeles",city,"Los Angeles, CA",United States
88,139.69462172,36.12323331,,2929217017,2020-04-17 09:18:39,,city, ,
222,106.774506,-6.185601999999999,Ivan Tanu,2929218433,2020-03-28 05:23:11,,city,"Kebon Jeruk, Indonesia",Indonesia
242,121.561476,25.085756,,2929218614,2020-03-10 22:06:01,Taiwan,city,", ",
205,-2.366933,51.3796495,Clea2011,29292212,2020-02-18 13:39:59,West Country Girl Forever,city,"Bath, England",United Kingdom
186,-1.1177955,37.916841,Jos Miguel Snchez Carrin,292922169,2020-04-19 10:59:48,MURCIA,city,"Murcia, Espaa",Espaa
14460,-71.326858,42.636247999999995,,292922230,2020-02-14 17:21:04,"Massachusetts, USA",city,"Lowell, MA",United States
38,-74.82788000000001,11.01558,Alejandro Name,292922255,2020-02-24 22:59:08,Barranquilla,poi,Mall Plaza Buenavista,Colombia
222,110.581181,-7.3431095000000015,ema,2929223107,2020-02-14 10:45:50,,city,"Suruh, Indonesia",Indonesia
82,73.5528525,18.7866785,Chetan Balsara,2929224228,2020-02-27 08:56:19,,city,"Lonavala, India",India
135,5.9033195,49.6902845,MNHNL - natur muse,2929224743,2020-02-17 11:49:35,"25, rue Mnster Luxembourg",city,"Hobscheid, Luxembourg",Luxembourg
173,61.3889,55.16, | ,2929224765,2020-03-17 12:09:04,,city,", ",
88,136.60893000000002,36.51538,@Oh Glory JYs Rail,292922521,2020-02-23 17:08:23,:,city, ,
119,-96.2293965,19.183953,JuliaHA,29292263,2020-05-29 01:46:38,,city,"Veracruz, Veracruz de Ignacio de la Llave",Mexico
60,25.009806,60.4566105,Satu Haapsaari-Caldw,2929227112,2020-02-14 17:57:42,"Tuusula, Suomi",city,"Tuusula, Suomi",Suomi
205,-6.656581,55.206596999999995,Satu Haapsaari-Caldw,2929227112,2020-03-29 17:48:12,"Tuusula, Suomi",poi,Portrush Harbour,Yhdistynyt kuningaskunta
60,25.009806,60.4566105,Satu Haapsaari-Caldw,2929227112,2020-04-11 11:57:33,"Tuusula, Suomi",city,"Tuusula, Suomi",Suomi
173,30.345398,59.941441000000005, ,292922821,2020-02-23 15:31:50,"-, ",poi,Sidreria,
200,41.2655875,39.9100375,Cemal Bagcicek,2929229397,2020-03-14 17:48:33,,city,"Erzurum, Trkiye",Trkiye
200,28.88727749,41.1810358,Aman  ,2929229889,2020-03-03 19:17:44,,neighborhood,"Gktrk, stanbul",Turkey
31080,-118.4119065,34.0207895,William,2929230683,2020-03-06 11:01:33,,city,"Los Angeles, CA",Estados Unidos
200,29.0052225,41.0213205,Captain Caveman,292923145,2020-02-29 07:19:40,Suriye,city,"stanbul, Trkiye",Trkiye
205,-1.87512511,53.75788614,Holdsworth House,292923286,2020-03-05 18:39:57,West Yorkshire | 01422 240024,city,"Halifax, England",United Kingdom
88,136.991902,35.160666,,2929233522,2020-02-15 12:03:12,,poi,,
32580,-98.24567449999999,26.24069,EvaCarmona,2929233602,2020-03-15 12:11:43,,city,"McAllen, TX",United States
31080,-118.4119065,34.0207895,Ben Holgerson,2929234140,2020-05-18 02:33:44,,city,"Los Angeles, CA",United States
38060,-111.8808735,33.2824505,Ben Holgerson,2929234140,2020-05-23 20:23:50,,city,"Chandler, AZ",United States
40140,-117.603783,34.0451585,Youre Damien,2929234196,2020-02-14 05:47:44,"California, USA",city,"Ontario, CA",United States
31080,-117.918989,33.810485,Youre Damien,2929234196,2020-02-21 06:57:17,"California, USA",poi,Disneyland Park,United States
40140,-117.72176100000001,33.9725155,Youre Damien,2929234196,2020-02-21 07:14:56,"California, USA",city,"Chino Hills, CA",United States
31080,-117.77291699999999,34.0654505,Youre Damien,2929234196,2020-03-02 20:40:46,"California, USA",city,"Pomona, CA",United States
40140,-117.603783,34.0451585,Youre Damien,2929234196,2020-03-03 05:48:28,"California, USA",city,"Ontario, CA",United States
31080,-117.918989,33.810485,Youre Damien,2929234196,2020-03-07 08:41:25,"California, USA",poi,Disneyland Park,United States
40140,-117.603783,34.0451585,Youre Damien,2929234196,2020-03-08 22:17:06,"California, USA",city,"Ontario, CA",United States
193,100.64512328,13.97701966,ntw,292923462,2020-03-01 14:45:37,,city,"Prachathipat, Thailand",Thailand
24,-79.25193,43.848620000000004,www.artland.ca,2929234699,2020-03-21 19:42:20,"Markham, Ontario",city,"Markham, Ontario",Canada
82,80.935999,26.863165999999996, ,2929235046,2020-06-05 03:29:40,"Lucknow, India",poi,Lucknow University,India
28660,-97.76607299999999,31.141933,Alex J. Garcia,2929237058,2020-06-06 04:18:59,"Houston, TX",poi,Fort Hood,United States
200,29.018079999999998,41.05701,Kutsal Stolu,2929238099,2020-06-06 19:50:41,"stanbul, Trkiye",city,"stanbul, Trkiye",Trkiye
171,121.259866,14.6541465,Jandajellica,2929238216,2020-05-05 14:48:38,@RibeirooTricias,city,"Antipolo City, Calabarzon",Republic of the Philippines
44020,-94.831536,43.402905,Rob Pork,2929238221,2020-05-23 02:07:50,,city,"Estherville, IA",United States
65,2.347003,48.8588335,Ready To Storm The Bastille,2929238332,2020-04-06 22:08:47,"Paris, France",city,"Paris, France",France
82,93.9441,24.8149,Ian Deepak Lall,2929238366,2020-04-01 06:30:07,"Imphal, Manipur, India",city,"Imphal, India",India
31080,-118.66260600000001,34.13726,Mot.,29292395,2020-03-15 03:55:33,Atlanta ,city,"Calabasas, CA",United States
171,120.74527150000002,18.0821395,e l j a y ,2929240098,2020-02-27 03:35:58,"Piddig, Ilocos Region",city,"Dingras, Ilocos Region",Republic of the Philippines
222,112.601336,-7.411073,HARTA TAHTA SALSABILA,2929242242,2020-03-05 14:44:35,anak mm buatan pp,city,"Krian, Indonesia",Indonesia
88,139.65954499999998,35.572207500000005,,2929242313,2020-02-14 02:32:19,,city,"Kawasaki City Nakahara Ward, Kanagawa",Japan
205,-0.0706035,51.464686,,2929242313,2020-02-29 21:23:21,,city,"Camberwell, London",United Kingdom
205,0.13187000000000001,51.443846,loucathwil,29292435,2020-02-14 08:10:32,"South East, England",city,"Bexley, London",United Kingdom
38340,-73.272674,42.347553999999995,CIS,29292439,2020-02-28 15:10:12,"East Greenbush, NY",city,"Lenox, MA",United States
65,4.81275798,45.78548899,Club Pernod Lyon,2929245159,2020-02-14 18:48:21,lyon,city,"Lyon, France",France
24,-125.34178200000001,50.0113245,knova ,2929245421,2020-05-25 02:45:18,,city,"Campbell River, British Columbia",Canada
58,14.249498,49.3158425,k,2929246546,2020-03-19 20:39:03,"Psek, esk republika",city,"Kluky, esk republika",esk republika
117,56.1087365,22.9036575, ,2929246837,2020-04-25 14:26:06,",  ",city,",  ", 
171,126.04044,9.7464465,Bill Boncaros,2929247197,2020-03-01 00:58:42,Surigao City,city,"Dapa, Caraga",Republic of the Philippines
35620,-74.6077,40.5698,Meg Mo,29292475,2020-03-17 22:43:37,RiderU,city,"Somerville, NJ",United States
9,151.113523,-33.775647,Vern Castillo,2929248446,2020-02-22 04:24:52,Philippines,poi,Macquarie University Library,Australia
205,-2.4837505,53.728524,Rob McGibbon,292924854,2020-02-20 00:33:03,"Salford, England",city,"Blackburn, England",United Kingdom
178,28.184066499999997,-25.752605499999998,Shortcake.,2929250609,2020-03-14 17:41:39,South africa,city,"Pretoria, South Africa",South Africa
28140,-94.5824462,39.0826589,tokkuni,292925173,2020-02-24 01:54:41,,city,"Kansas City, MO",United States
88,139.69862890000002,35.659588899999996,tokkuni,292925173,2020-02-25 12:36:07,,city, ,
88,130.527721,33.513443,komirage,292925178,2020-02-14 15:28:42,,city, ,
65,5.0322865,47.33191100000001,GB,2929251945,2020-02-15 15:08:59,KR / US / UK / FR / NL / D / B,city,"Dijon, France",France
152,5.6789135,51.235454,GB,2929251945,2020-03-02 11:27:27,KR / US / UK / FR / NL / D / B,city,"Weert, Nederland",The Netherlands
65,5.0322865,47.33191100000001,GB,2929251945,2020-03-16 00:07:51,KR / US / UK / FR / NL / D / B,city,"Dijon, France",France
205,-0.2605355,52.2236985,Rachel Bundy,2929251975,2020-02-14 14:01:52,Cambridgeshire,city,"Saint Neots, England",United Kingdom
45220,-84.26617399999999,30.4762155,Lisa,29292541,2020-03-13 18:40:41,"Tallahassee, FL",city,"Tallahassee, FL",United States
200,32.559968,39.984221000000005,Emre  ,2929254407,2020-03-19 05:29:44,"Sincan, Ankara",poi,Sincan Devlet Hastanesi Organize Semt Poliklinigi,Trkiye
205,-2.980541,53.394293999999995,Miss T cosplay,2929255085,2020-03-11 20:07:28,,poi,Camp & Furnace,United Kingdom
161,74.3584865,31.5318195,,2929255925,2020-02-14 09:25:40, Pakistan,city,"Lahore, Pakistan",Pakistan
120,110.333,1.55,piss,2929256802,2020-05-24 06:42:34,Malaysia,city,"Kuching, Sarawak",Malaysia
186,-6.05131,37.37583,Guilherme Ribeiro,2929257275,2020-03-15 19:04:36,,city,"Tomares, Espaa",Espaa
171,120.5884405,16.402279999999998,id b.,292925772,2020-04-26 16:21:53,,city,"Baguio City, Cordillera Admin Region",Republic of the Philippines
171,121.6264105,13.940447500000001,Hvn,2929259268,2020-02-18 12:06:02,Zachary,city,"Lucena City, Calabarzon",Republic of the Philippines
88,139.3881,35.562427500000005,,292925959,2020-02-15 09:58:53,,city, ,
31080,-118.47083300000001,33.994539,Cameron Devon,2929259755,2020-05-13 12:32:59,"Hollywood, Los Angeles",poi,New Bethel Baptist Church,United States
82,75.2906,19.8334,SanKet Lambe,2929260991,2020-03-30 03:47:01,Aurangabad,poi,Kanchanwadi,India
171,123.67839450000001,10.368178,kay.l,2929261034,2020-03-17 10:54:28,,city,"Toledo City, Central Visayas",Republic of the Philippines
205,-2.6406669999999997,53.658577,Nathan Fox,2929261335,2020-04-22 17:53:59,"England, United Kingdom ",poi,Astley Park,United Kingdom
222,112.60138,-7.943830999999999,Ulil Absor ,2929261645,2020-04-06 13:53:44,,poi,Telon Segaran,Indonesia
82,80.185955,13.03758,Yugendran,2929263248,2020-04-24 21:51:48,Chennai,poi,Ramapuram,India
82,73.19235499999998,19.270371,Girish Dixit,2929263292,2020-02-15 15:14:21,,city,"Kalyan Dombivali, India",India
205,0.024996,51.544821500000005,Girish Dixit,2929263292,2020-03-09 17:46:11,,city,"Stratford, London",United Kingdom
16980,-88.3381637,41.8583016,Crosstown Batavia,2929263492,2020-02-17 17:33:17,"1890 Mill Street Batavia,IL",city,"Batavia, IL",United States
242,121.79611315,24.85771066,Neo Chao,292926371,2020-03-26 06:18:24,Taipei,city,", ",
200,28.994315000000004,41.039590000000004,Fatih YILMAZ,292926375,2020-02-22 16:51:56,"Trabzon, Trkiye",poi,Vodafone Park,Trkiye
171,125.55598799999999,9.7973035,mizza,2929263906,2020-03-17 13:02:07,,city,"Surigao City, Caraga",Republic of the Philippines
178,26.2233,-29.1182,Lerato Mohapi,292926430,2020-03-10 06:09:02,"Bloemfontein, South Africa",city,"Bloemfontein, South Africa",South Africa
88,138.8624695,35.288426,,2929264646,2020-03-13 16:47:33,,city, ,
186,-0.13183,38.54373,Paco Portero,2929264889,2020-02-20 20:07:53,Marbella,city,"Benidorm, Espaa",Espaa
65,6.85367957,45.62676859,Paco Portero,2929264889,2020-06-03 09:41:41,Marbella,city,"Montvalezan, France",Francia
186,-4.8855,36.509,Paco Portero,2929264889,2020-06-04 18:48:38,Marbella,city,"Marbella, Espaa",Espaa
41620,-111.583845,40.598397,Hanna Conklin,2929265203,2020-02-25 05:42:29,"Salt Lake City, UT",poi,Brighton Ski Resort,United States
39340,-111.8665535,40.407070000000004,Hanna Conklin,2929265203,2020-02-28 05:13:47,"Salt Lake City, UT",city,"Lehi, UT",United States
41620,-111.917026,40.765805,Hanna Conklin,2929265203,2020-04-13 00:00:50,"Salt Lake City, UT",city,"Salt Lake City, UT",United States
41700,-98.434972,29.657462,Chad Elseth,292926577,2020-06-03 15:25:24,,poi,"Claudia Taylor ""Lady Bird"" Johnson High School Library",United States
88,139.474459,35.876045,FitTBT,2929266127,2020-03-14 06:59:28, ,poi,  ,
113,-7.199635000000001,30.563653499999997,,2929266243,2020-05-02 18:36:25,"Paris, France",city,"Taznakht, Royaume du Maroc",Royaume du Maroc
200,29.0052225,41.0213205,Banu Saraclar,2929266598,2020-02-27 17:20:51,"stanbul, Trkiye",city,"stanbul, Trkiye",Trkiye
82,77.597645,12.971117,Shugufta Parveen,292926804,2020-04-12 08:13:46,Jammu and kashmir,city,"Bengaluru, India",India
82,88.59740049,27.31625634,Suyog Pradhan,2929268454,2020-02-17 02:41:01,,city,"Gangtok, India",India
205,-0.320442,51.75244,Head of Prep | St Columba's College,2929268741,2020-06-08 20:47:18,"St Albans, Hertfordshire",city,"Saint Albans, East",United Kingdom
193,100.524902,13.831233,Kuymot nana,292926954,2020-02-14 06:25:58,Bangkok. Thailand,city,", ",
205,-1.2334334999999998,51.75428599999999,Xavier Rees,29292696,2020-03-28 10:58:35,London & Oxfordshire,city,"Oxford, England",United Kingdom
186,2.0746740000000004,41.355198,Juan Couto,292927081,2020-02-14 09:46:07,Cornella (BCN),city,"Cornell de Llobregat, Espaa",Espaa
186,-3.7035075,40.4777945,Carballo no,2929271,2020-02-15 18:32:32,"Madrid, Espaa",city,"Madrid, Espaa",Espaa
205,-4.328935,55.9270165,Milngavie FC,2929272051,2020-02-15 12:21:32,,city,"Milngavie, Scotland",United Kingdom
152,4.904053500000001,52.354728,Jaron Blonk,292927388,2020-03-16 12:54:33,Amsterdam,city,"Amsterdam, The Netherlands",The Netherlands
200,28.791347,41.054048,Mahmut Polat,2929274547,2020-02-14 19:40:10,Konya Takent,poi,ArenaPark,Trkiye
171,121.18178200000001,13.939445000000001,Joy,2929274696,2020-02-29 04:59:46,"Lipa City, Calabarzon",city,"Lipa City, Calabarzon",Republic of the Philippines
12660,-89.74405250000002,43.4628585,Tony Tomassi ,2929276090,2020-05-25 18:33:33,"Chicago, IL",city,"Baraboo, WI",United States
40420,-89.0298,42.26695,Tony Tomassi ,2929276090,2020-05-26 19:58:39,"Chicago, IL",city,"Rockford, IL",United States
51,-6.579388000000001,52.4597335,Derm,2929276857,2020-04-28 19:26:41,Craggy Island or Central Perk.,city,"Wexford, Ireland",Ireland
82,80.8035725,20.739566,Shreyansh Jain,2929277480,2020-05-04 07:12:39,", ",city,"Rajnandgaon, India",India
8,-58.8445,-27.4748,Lucas Mourglia,2929277680,2020-02-22 21:32:34,"Corrientes, Argentina",city,"Corrientes, Argentina",Argentina
88,139.70370300000002,35.88194,,2929277820,2020-02-15 23:56:18, ,city,  ,
222,105.327114,-4.3281410000000005,koko,2929277899,2020-02-21 07:37:41,"Bandar Lampung, Lampung",city,"Banjar Agung, Indonesia",Indonesia
21,-43.441578,-22.911421500000003,fucked,292927846,2020-02-14 17:00:42,021,city,"Rio de Janeiro, Brasil",Brasil
171,121.03332103,14.4576015,  ,2929279058,2020-04-08 14:14:06,Las Pias City,city,"Paranaque City, National Capital Region",Republic of the Philippines
200,29.0052225,41.0213205,,292927996,2020-04-14 10:59:51,,city,"stanbul, Trkiye",Trkiye
119,-100.29983730000001,25.657255499999998,Ramn Montoya,2929280292,2020-04-28 06:48:44,,city,"Monterrey, Nuevo Len",Mxico
65,2.2518689999999997,48.7957285,Diabano,2929280627,2020-04-10 14:44:11,Clamart,city,"Clamart, France",France
34980,-86.40961,35.84742,steph,2929281204,2020-02-16 18:58:41,,city,"Murfreesboro, TN",United States
88,136.950655,35.078540999999994,M,292928128,2020-03-30 14:21:41,,poi, (Narumi Sta.) (NH27),
119,-99.15234,19.328383,Gerson H.,292928136,2020-02-17 05:37:27,"Distrito Federal, Mxico",city,"Coyoacn, Distrito Federal",Mxico
82,77.93734,30.2427275,Abhishek Bansal,2929281522,2020-03-09 04:58:50,"Haridwar,Uttrakhand,India",city,"Dehra Dun Rural, India",India
151,7.0312755000000005,4.82463,OMA,292928191,2020-02-19 10:08:09,Zion,city,"Port Harcourt, Nigeria",Nigeria
171,121.063639,14.346662,ChristoffASFAQ!,2929282968,2020-03-07 06:43:55,MNL.PH,poi,Pacita Complex,Republic of the Philippines
19100,-96.7349005,33.06124250000001,Mark,29292836,2020-02-21 04:10:54,"Dallas, TX",city,"Plano, TX",United States
88,135.80778700000002,34.890526,,2929283912,2020-04-11 06:58:20,(),poi,,
88,139.60288342,35.45843754,,292928471,2020-03-02 13:52:06,  ,city,  ,
33700,-120.98746799999999,37.663817,*,2929285106,2020-03-30 06:49:18,,city,"Modesto, CA",United States
15180,-97.165246,26.084929000000002,MARCUS ,2929286076,2020-05-18 02:38:57,"Donna, TX ",poi,South Padre Island,United States
32580,-98.0619645,26.1891085,MARCUS ,2929286076,2020-05-18 03:57:49,"Donna, TX ",city,"Donna, TX",United States
15180,-97.16866999999999,26.132057,MARCUS ,2929286076,2020-06-05 20:56:24,"Donna, TX ",poi,South Padre Island,United States
32580,-98.0619645,26.1891085,MARCUS ,2929286076,2020-06-07 16:59:17,"Donna, TX ",city,"Donna, TX",United States
21,-51.1469,-29.76,GuiSardinhaH,292928718,2020-02-25 11:20:53,"Sapucaia do Sul, Brasil",city,"So Leopoldo, Brasil",Brasil
117,56.631961,24.279028500000006,  ,2929288525,2020-02-21 20:51:23,,city,",  ", 
88,140.3131775,38.138809,,2929289491,2020-03-08 01:17:25,,city, ,
38060,-111.928142,33.392883999999995,yo mama,29292903,2020-03-07 04:06:29,"Arizona, USA",city,"Tempe, AZ",United States
119,-105.1485805,20.6970525,yo mama,29292903,2020-03-07 21:11:27,"Arizona, USA",city,"Puerto Vallarta, Jalisco",Mexico
38060,-112.1246765,33.5528625,yo mama,29292903,2020-03-15 23:56:21,"Arizona, USA",city,"Phoenix, AZ",United States
46060,-110.91557350000001,32.1893905,yo mama,29292903,2020-03-17 14:57:14,"Arizona, USA",city,"Tucson, AZ",United States
35620,-73.9487755,40.655138,Deliver Healthy,2929291791,2020-04-05 12:17:16,New York City,city,"Brooklyn, NY",United States
20740,-91.50971899999999,44.819522,Trevor Sigdahl,2929292354,2020-04-17 00:17:41,,city,"Eau Claire, WI",United States
85,8.880844999999999,44.449498999999996,Elismay,292929323,2020-03-15 17:56:20,"Genoa, Liguria",city,"Genova, Liguria",Italia
85,14.152270000000001,40.955236,COMPAGNIAdel FITNESS,292929337,2020-04-26 05:54:02,Parete (CE) - ITALY,city,"Parete, Campania",Italia
82,77.095086,28.638489500000002,chetnaagarwal ,2929294988,2020-03-22 15:44:02,,city,"New Delhi, India",India
14740,-122.6692365,47.5618015,D_addy_k,2929295000,2020-02-15 18:21:26,,city,"Bremerton, WA",United States
42660,-122.3306025,47.614816999999995,D_addy_k,2929295000,2020-02-15 21:45:24,,city,"Seattle, WA",United States
14740,-122.668747,47.55332799999999,D_addy_k,2929295000,2020-02-21 20:22:35,,city,"Navy Yard City, WA",United States
42660,-122.5934165,47.32544950000001,D_addy_k,2929295000,2020-03-07 02:31:42,,city,"Gig Harbor, WA",United States
14740,-122.6692365,47.5618015,D_addy_k,2929295000,2020-03-15 01:54:19,,city,"Bremerton, WA",United States
36260,-111.94228500000001,41.190698,Weber State Wildcats,29292957,2020-02-15 18:45:34,"Ogden, UT",poi,Weber State University - Swenson/Stromberg Gym,United States
14010,-88.9613865,40.2221845,Jo Finger,292929758,2020-02-22 17:24:46,,city,"Wapella, IL",United States
193,100.595536,13.7169105,MaKhamPom,2929297614,2020-03-03 20:02:54,,city,", ",
205,-0.115406,51.4603395,Heidi Vella,29292978,2020-04-04 10:19:40,London,city,"Lambeth, London",United Kingdom
9,151.20797,-33.867509999999996,JWH Millinery,2929299135,2020-03-13 03:50:13,"London, England",city,"Sydney, New South Wales",Australia
120,116.1405425,5.9882775000000015,baby,2929301059,2020-03-05 09:34:38,Sabah,city,"Kota Kinabalu, Sabah",Malaysia
33,-73.16689550000002,-39.8334805,ObservatorioCiudadan,292930198,2020-03-05 20:15:19,Santiago / Temuco - CHILE,city,"Valdivia, Chile",Chile
82,77.498726,28.545556,   ,2929302608,2020-02-15 18:11:11,"New Delhi, India ",city,"Noida, India",India
18880,-86.4564905,30.398178,Matthew Bodon,2929303723,2020-03-17 01:15:16,,city,"Destin, FL",United States
34660,-88.32464949999998,36.61234949999999,Matthew Bodon,2929303723,2020-03-26 16:59:08,,city,"Murray, KY",United States
186,2.18629,41.4300308,Dr. Ferran Abat,2929305178,2020-03-21 14:12:52,Barcelona,city,"Barcelona, Espaa",Espaa
191,8.7694105,47.3419355,Reto Steinmann,29293066,2020-03-28 07:49:16,"Seegrben, Zurich, Switzerland",city,"Seegrben, Schweiz",Schweiz
65,2.347003,48.8588335,Charles-Emmanuel,29293085,2020-02-27 19:07:56,"Paris, France",city,"Paris, France",France
71,6.95708,50.9412749,Charles-Emmanuel,29293085,2020-03-02 22:10:29,"Paris, France",city,"Cologne, Germany",Germany
65,2.28005203,48.85024011,Charles-Emmanuel,29293085,2020-06-01 20:03:33,"Paris, France",city,"Paris, France",France
88,130.778367,32.802527000000005,shimady,292930931,2020-03-30 01:32:10,kumamoto ,city,"Kumamoto-shi, Kumamoto",Japan
222,95.390438,5.5412385,Muhammad Djuwanda,2929309472,2020-04-21 14:14:25,"Nangro Aceh Darussalam, Indone",city,"Ulee Kareng, Indonesia",Indonesia
193,100.60489100000001,13.597465,jubjibjeojang D-1 to GATPAT ,2929310144,2020-02-21 23:56:26,,poi, (Streesmutprakan School),Thailand
44700,-121.3004255,37.980826,Stunna,2929310744,2020-06-07 23:06:16,,city,"Stockton, CA",United States
85,11.331656,44.488735,Il Pallone Gonfiato,2929311256,2020-03-20 15:05:09,Bologna,city,"Bologna, Emilia Romagna",Italia
119,-99.18408690000001,19.4405022,SIMPLE Comunicacin,2929311982,2020-04-27 14:34:20,"Guanajuato, Mxico",city,"Miguel Hidalgo, Distrito Federal",Mxico
186,1.245609,41.109984000000004,Xiquets del Serrallo,292931205,2020-02-28 20:27:00,Tarragona,poi,Port de Tarragona,Espanya
100,24.1286565,56.971492500000004,Peter Gearing,292931351,2020-02-29 17:30:49,"Edenbridge, Kent",city,"Riga, Latvia",Latvia
205,-0.092633,51.358931,Peter Gearing,292931351,2020-03-06 08:45:59,"Edenbridge, Kent",city,"Croydon, London",United Kingdom
29820,-115.223125,36.232915000000006,RhiannonWitchOfOcean,29293136,2020-02-16 00:36:05,"Lone Mountain, Las Vegas",city,"Las Vegas, NV",United States
41460,-97.617175,38.8270215,Vicki Schmidt,2929314223,2020-05-13 16:08:53,"Kansas, USA",city,"Salina, KS",United States
22660,-105.06394250000001,40.5641905,Vicki Schmidt,2929314223,2020-05-21 15:23:21,"Kansas, USA",city,"Fort Collins, CO",United States
151,3.39004008,6.54070934,BerryMaz Standard ,2929316850,2020-05-27 23:38:27,"Lagos, Nigeria",city,"Lagos, Nigeria",Nigeria
40140,-117.31304499999999,34.086383000000005,Tony,2929318645,2020-03-12 20:27:08,,poi,SBVC - Library,United States
31,69.19537199999999,34.518956,Mir Khan,2929319456,2020-03-12 03:10:52,Dubai,poi,Ghazi Stadium,Afghanistan
21,-45.2514045,-20.941994,Anapaula Simao,2929320081,2020-04-24 04:02:54,campo belo,city,"Campo Belo, Brasil",Brasil
40900,-121.356406,38.715599,Allyson ,2929320367,2020-04-30 10:51:26,"California, USA",city,"Antelope, CA",United States
205,-0.021686,51.514362,Meenu Niranjan,2929320535,2020-04-02 17:12:37,,poi,Bartlett Park,United Kingdom
178,27.968098,-26.2761385,SYMPATHY,2929321875,2020-05-16 04:39:56,"Johunnesburg, South Africa",city,"Johannesburg, South Africa",South Africa
38,-74.24367099999999,4.2622835,Diego Rojas,292932247,2020-02-16 22:15:53,,city,"Bogot, D.C., Colombia",Colombia
31080,-118.48042,34.022688,Loren Piretra,29293228,2020-02-14 01:28:59,LA + NYC,city,"Santa Monica, CA",United States
9,150.931975,-33.848244,that's absurd,2929324002,2020-02-14 00:14:17,"Sydney, New South Wales",city,"Sydney, New South Wales",Australia
152,5.380326500000002,51.650879499999995,Ton Boer,292932497,2020-05-24 08:00:00,Nederasselt,city,"Sint-Michielsgestel, Nederland",Nederland
186,-0.427346,42.136529,AlbaLC,292932504,2020-03-15 13:31:10,"Loarre, Huesca.",city,"Huesca, Espaa",Espaa
65,2.347003,48.8588335,Candice Teo,2929325070,2020-03-20 13:38:51,"Paris, France",city,"Paris, France",France
21,-46.225711,-23.9548165,,2929325828,2020-05-20 00:44:48,"Guaruj, Brasil",city,"Guaruj, Brasil",Brasil
9,145.0531355,-37.9725665,Bernie van Eeken,2929325892,2020-03-22 06:53:43,,city,"Melbourne, Victoria",Australia
19100,-96.5426045,33.018460499999996,Misty,2929327106,2020-02-21 18:02:04,,city,"Wylie, TX",United States
200,27.006511,38.4079305,ayegl,2929327131,2020-05-01 18:37:51,zser'alpina,city,"zmir, Trkiye",Trkiye
205,-3.0299840000000002,51.645594,Pontnewynydd AFC,2929329064,2020-02-23 19:15:10,"The Ruffetts, Pontnewynydd",city,"Cwmbran, Wales",United Kingdom
205,0.250404,50.964812,Egerton House,292933153,2020-02-28 20:17:11,"Bloxham School, Bloxham",city,"Heathfield, England",United Kingdom
222,106.834852,-6.2213485,pseudologiaphantasica,29293327,2020-02-24 16:37:52,"T: -0.956099,100.367233",city,"Setia Budi, Indonesia",Indonesia
82,78.3852855,17.3950375,Vellala nagesh ,2929334887,2020-03-05 02:37:41,,city,"Rajendra Nagar, India",India
36740,-81.3677725,28.5016785,Neil J. Young,292933514,2020-02-14 01:34:31,New York,city,"Orlando, FL",United States
16980,-87.732013,41.8335845,Neil J. Young,292933514,2020-02-15 00:39:55,New York,city,"Chicago, IL",United States
36740,-81.3417295,28.6001855,Neil J. Young,292933514,2020-02-19 18:44:23,New York,city,"Winter Park, FL",United States
16980,-87.732013,41.8335845,Neil J. Young,292933514,2020-02-21 22:12:23,New York,city,"Chicago, IL",United States
36740,-81.3417295,28.6001855,Neil J. Young,292933514,2020-02-22 14:26:54,New York,city,"Winter Park, FL",United States
33100,-80.03926150000002,26.682503999999998,Neil J. Young,292933514,2020-03-03 18:31:20,New York,city,"Palm Beach, FL",United States
36740,-81.3417295,28.6001855,Neil J. Young,292933514,2020-03-06 00:54:15,New York,city,"Winter Park, FL",United States
35620,-73.8311875,40.6708795,Neil J. Young,292933514,2020-03-13 17:06:41,New York,city,"Queens, NY",United States
36740,-81.3417295,28.6001855,Neil J. Young,292933514,2020-03-17 23:29:25,New York,city,"Winter Park, FL",United States
26420,-94.836926,29.814575,Neil J. Young,292933514,2020-05-30 00:17:41,New York,city,"Cove, TX",United States
41700,-98.6624185,29.6965575,Neil J. Young,292933514,2020-05-30 16:41:14,New York,city,"Scenic Oaks, TX",United States
31080,-118.399639,34.082496500000005,Neil J. Young,292933514,2020-06-02 00:03:11,New York,city,"Beverly Hills, CA",United States
41740,-117.253906,33.045009,Neil J. Young,292933514,2020-06-03 13:38:09,New York,city,"Encinitas, CA",United States
31080,-118.4119065,34.0207895,Neil J. Young,292933514,2020-06-09 16:58:35,New York,city,"Los Angeles, CA",United States
19740,-104.98360001,39.7391,NO CHAINZ,29293360,2020-03-25 00:49:14,Wherever I wanna be,city,"Denver, CO",United States
35620,-73.98959745,40.74311178,NO CHAINZ,29293360,2020-05-23 05:10:11,Wherever I wanna be,city,"Manhattan, NY",United States
44860,-95.602,33.1341,NO CHAINZ,29293360,2020-05-24 14:35:34,Wherever I wanna be,city,"Sulphur Springs, TX",United States
12060,-84.35244449999998,33.943456999999995,J Jeffrey Marshall,292933647,2020-03-04 12:13:59,"Georgia, USA",city,"Sandy Springs, GA",United States
26420,-95.4464865,29.838495,seghen k.,2929336693,2020-03-06 18:48:30,,city,"Houston, TX",United States
12060,-84.3596965,33.848208,4,2929337197,2020-05-08 18:27:13,,neighborhood,"Lenox, Atlanta",United States
29420,-114.3106095,34.491052999999994,(MewZ) Yuzuki,2929338265,2020-06-01 05:41:36,"Lakewood, CA",city,"Lake Havasu City, AZ",United States
88,133.74231550000002,34.543449,,2929338482,2020-02-24 13:24:01,,city, ,
88,140.86318500000002,37.013777000000005,,2929339524,2020-03-03 12:54:42,,poi,21,
85,9.2789,45.5285,Chicca,2929339737,2020-02-14 07:37:44,Cologno Monzese,city,"Cologno Monzese, Lombardia",Italia
205,-2.22764565,53.41074105,Chicca,2929339737,2020-02-17 22:37:14,Cologno Monzese,city,"Manchester, England",Regno Unito
85,9.2789,45.5285,Chicca,2929339737,2020-02-21 16:22:03,Cologno Monzese,city,"Cologno Monzese, Lombardia",Italia
205,-2.1556405,53.41460849999999,Bernard Kufuor,29293398,2020-03-06 12:57:52,"Stockport, England",city,"Stockport, England",United Kingdom
200,29.0052225,41.0213205,Kenan yarc,292934036,2020-05-15 19:44:41,"stanbul, Trkiye",city,"stanbul, Trkiye",Trkiye
205,-3.153898,51.500329,Dyniaethau Bro Edern,2929340685,2020-03-10 11:27:07,"Penylan, Caerdydd",poi,Ysgol Bro Edern,United Kingdom
88,139.61335300000002,36.143075, ,2929340984,2020-02-16 13:24:38,,city, ,
85,13.239453,46.0594545,UfficioStampaAutovie,2929341195,2020-03-23 16:21:37,,city,"Udine, Friuli-Venezia Giulia",Italia
186,-3.65717053,40.52118046,DecoTania,2929341549,2020-05-31 02:24:14,,city,"Alcobendas, Spain",Spain
65,2.417815,49.0701495,Kvin,2929341712,2020-02-27 08:03:43,Paris,city,"Mareil-en-France, France",France
117,56.42824,20.0157885,Salim AL-Abri,2929342206,2020-02-14 18:37:13,,city,",  ", 
128,4.375364,50.82067050000001,Luca Bellomo,292934224,2020-03-11 18:08:14,"Bruxelles, Belgique",city,"Elsene, Belgi",Belgio
82,72.57023199999999,23.013959,Paresh Sharma,2929342830,2020-04-05 05:41:45,India,city,"Ahmadabad City, India",India
71,8.37158,50.0276035,Marcus Hesse,29293435,2020-04-25 12:38:22,"Hochheim am Main, Hessen, Deut",city,"Hochheim am Main, Deutschland",Deutschland
117,58.4641695,23.549159000000003, ,2929343821,2020-06-11 09:18:46, ,city,",  ", 
171,126.130396,8.979308,JobenealMicutuan,2929347512,2020-02-24 13:52:59,"City Of Bislig, Caraga",city,"Tago, Caraga",Republic of the Philippines
88,139.38299999999998,36.15,,2929348412,2020-05-16 03:00:50,,city, ,
88,135.614653,34.8784265,UCHIDA INDUSTRY,2929348423,2020-04-20 13:08:27,,city, ,
40140,-117.21792,33.921924000000004,Rina,2929348964,2020-02-20 03:26:36,"California, USA",city,"Moreno Valley, CA",United States
31080,-117.824049,33.810159000000006,Rina,2929348964,2020-05-04 00:49:12,"California, USA",city,"Orange, CA",United States
27140,-90.1580165,32.230987,Coach A. Gibbs,292935000,2020-02-15 02:24:34,"Lexington, MS",city,"Jackson, MS",United States
32940,-89.127042,32.776623,Coach A. Gibbs,292935000,2020-03-08 22:19:56,"Lexington, MS",city,"Philadelphia, MS",United States
27140,-90.12433850000001,32.42939250000001,Coach A. Gibbs,292935000,2020-03-09 00:35:12,"Lexington, MS",city,"Ridgeland, MS",United States
151,3.3180660000000004,6.590611,OMO-IBILE YOUTH TRANSFORMATION PROGRAMME,2929350279,2020-04-14 09:21:03,Lagos | Nigeria,city,"Ikeja, Nigeria",Nigeria
31080,-118.48042,34.022688,Carol Rosenthal,292935177,2020-05-31 20:37:23,Los Angeles ,city,"Santa Monica, CA",United States
151,3.3386055,6.4931125000000005,   | oleka ,292935195,2020-02-16 05:55:33,"Lagos, Nigeria",city,"Lagos, Nigeria",Nigeria
117,56.631961,24.279028500000006,Awf,2929353757,2020-02-26 02:16:06,    ,city,"Sohar, Oman",Oman
9,138.61115999999998,-35.000767,BraceMateApp,2929354470,2020-03-02 03:27:01,"Brisbane, Australia",city,"Adelaide, South Australia",Australia
205,-0.14893599999999999,51.500091999999995,BraceMateApp,2929354470,2020-04-18 23:22:09,"Brisbane, Australia",city,"London, England",United Kingdom
9,138.61115999999998,-35.000767,BraceMateApp,2929354470,2020-05-27 00:25:10,"Brisbane, Australia",city,"Adelaide, South Australia",Australia
117,58.15478450000001,23.650904999999998,Buthaina,2929355366,2020-02-25 06:36:42,,city,"Al Seeb, Oman",Oman
200,28.557143,41.0119835,Onur Erouz,292935573,2020-03-26 15:58:47,"stanbul, Trkiye",city,"Bykekmece, Trkiye",Trkiye
95,129.317,35.5372,hoonlae.jang(),292935605,2020-02-25 10:57:27,,city, ,
21,-47.796623,-15.776254000000002,Nathlia Llis,29293568,2020-03-18 19:36:37,Brasil,city,"Braslia, Brasil",Brasil
34380,-84.772176,43.593853,Carl Werth,2929357125,2020-05-01 18:13:35,"Mount Pleasant, MI",city,"Mount Pleasant, MI",United States
71,13.4246065,52.506701,Kai Bartsch,292935831,2020-02-16 01:28:53,"Berlin, DE",city,"Berlin, Deutschland",Deutschland
16980,-87.732013,41.8335845,isa watson,292935837,2020-02-14 20:01:14,"NYC, or a suitcase",city,"Chicago, IL",United States
14460,-71.2786385,42.299398,isa watson,292935837,2020-02-24 21:50:33,"NYC, or a suitcase",city,"Wellesley, MA",United States
35620,-73.784609,40.645122,isa watson,292935837,2020-02-26 11:01:15,"NYC, or a suitcase",poi,John F. Kennedy International Airport (JFK),United States
20500,-79.02601999999997,35.91944150000001,isa watson,292935837,2020-03-26 14:17:26,in a squad,city,"Chapel Hill, NC",United States
82,77.095086,28.638489500000002,Suresh C Chhabra,2929358821,2020-03-17 09:58:10,"New Delhi, India",city,"New Delhi, India",India
88,140.8751675,38.0423455,,2929360818,2020-04-06 08:17:44,,city, ,
88,135.4993445,34.657384,,2929360915,2020-02-26 06:01:12,,city,  ,
222,109.2158115,-7.422475,Nisa Aprilia Cahyani,2929361869,2020-03-18 09:58:27,Purwokerto City,city,"Purwokerto Barat, Indonesia",Indonesia
171,125.04440100000001,7.841577,Mar,2929362277,2020-02-26 12:32:42,,poi,Barangay Dologon,Republic of the Philippines
38,-75.2322,4.43889,Jaider Perdomo,292936249,2020-03-19 18:41:31,IBAGUE COLOMBIA,city,"Ibagu, Colombia",Colombia
117,58.4641695,23.549159000000003, ,2929365042,2020-03-07 18:29:31,,city,",  ", 
200,26.738259999999997,38.408356,Ender lger,2929366186,2020-04-27 19:42:18,,poi,Urla,Trkiye
205,-1.87085881,50.71750617,Anne Fisher,2929367369,2020-02-21 11:14:59,"Dorset, UK",city,"Bournemouth, England",United Kingdom
44700,-121.211991,37.9778015,Megan Ott,2929367822,2020-05-08 18:17:53,,city,"Garden Acres, CA",United States
19100,-96.835249,33.1501395,cowboysrangersstars,292936808,2020-04-07 02:46:07,,city,"Frisco, TX",United States
82,79.404517,28.9838925,Pravendra Sharma,292936869,2020-05-19 16:15:17,"Rudrapur, India",city,"Rudrapur, India",India
31080,-118.48042,34.022688,kelli,2929370066,2020-02-14 00:19:31,the dirty d ,city,"Santa Monica, CA",United States
40140,-116.5172895,33.8250795,kelli,2929370066,2020-02-26 03:15:03,the dirty d ,city,"Palm Springs, CA",United States
31080,-118.4119065,34.0207895,kelli,2929370066,2020-06-03 14:19:13,"Santa Monica, CA",city,"Los Angeles, CA",United States
222,112.277,-7.544237,Fathins,2929370634,2020-03-10 12:32:34,MDN-JBG-SBY PP 52K,poi,Pondok Pesanten Darul 'Ulum,Indonesia
173,29.884694000000003,59.8653175,Koshmarnuitip,292937103,2020-03-06 19:43:13,Saint- P,city,", ",
38,-74.24367099999999,4.2622835,Andrs.Music,292937104,2020-03-30 00:59:09,"Bogot, DC, Colombia",city,"Bogot, D.C., Colombia",Colombia
120,100.4271165,6.2663975,faris,292937171,2020-02-15 13:00:40,"Alor Star, Kedah",city,"Jitra, Kedah",Malaysia
39580,-78.4598895,35.647526,GregTAnderson,292937239,2020-03-27 18:48:14,Brooklyn New York,city,"Clayton, NC",United States
205,-1.3784395,53.043902,Janet Lawn,2929372456,2020-02-21 12:19:33,Derbyshire,city,"Codnor, England",United Kingdom
119,-100.955511,22.3111195,Lorena PZ,2929374074,2020-02-19 21:46:01,Mxico ,city,"San Luis Potos, Mxico",Mxico
186,2.9553825000000002,42.074181,JOSEP PALOU DIAZ,2929375642,2020-03-21 11:49:50,,city,"Sant Jordi Desvalls, Espanya",Espanya
82,77.270235,11.045211,Anbalagan D,2929376846,2020-02-15 09:49:43,,city,"Palladam, India",India
205,-7.67963,54.429494999999996,Ruth Miller,29293770,2020-02-14 22:01:42,Magherafelt,poi,Manor House Hotel,United Kingdom
8,-58.442643,-34.604315,YElAsadoPaCuando,2929377814,2020-03-26 04:10:04,Ciudad Autnoma de Buenos Aire,city,"Ciudad Autnoma de Buenos Aires, Argentina",Argentina
222,110.3433205,-6.977263000000001,Kharisa Icha,2929377990,2020-04-14 07:43:23,,city,"Tugu, Indonesia",Indonesia
88,139.722443,35.761055999999996,Anmy,2929378321,2020-03-01 10:44:01,,poi, ,
31080,-118.10343799999998,33.885101,,2929378603,2020-03-10 06:32:16,Gym,poi,LA Fitness,United States
21,-45.8852749,-23.2399622,vale cursos Educacional,292937895,2020-04-30 12:49:38,so jos dos campos ,city,"So Jos dos Campos, Brasil",Brasil
186,-3.7035075,40.4777945,andreu,292937923,2020-02-14 19:17:13,madrid ,city,"Madrid, Espaa",Espaa
21,-40.062181,-18.7968105,lara,2929379242,2020-03-26 23:47:53,"Esprito Santo, Brasil",city,"So Mateus, Brasil",Brasil
82,74.822499,34.063303000000005,@sandhyasmakeover,2929379334,2020-03-06 17:19:38,,city,"Anantnag, Jammu And Kashmir",
178,28.184066499999997,-25.752605499999998,Erica,2929380179,2020-02-14 07:50:03,"Pretoria, South Africa",city,"Pretoria, South Africa",South Africa
82,77.498726,28.545556,omsingh,2929382192,2020-03-30 04:45:03,,city,"Noida, India",India
82,74.736304,34.177133999999995,touseef,2929383001,2020-03-29 17:06:44,,city,"Baramula, Jammu And Kashmir",
12060,-84.47324917,33.92540802,Era,292938321,2020-05-31 16:14:55,"Atlanta, GA",city,"Marietta, GA",United States
82,77.095086,28.638489500000002,Jitendra Dhaker,2929383212,2020-05-09 20:42:58,"East of Kailash, New Delhi",city,"New Delhi, India",India
175,46.685077,24.7219435,M,2929384182,2020-06-07 20:20:13,  ,city,",   ",  
65,2.324815,48.857031,Monde des Grandes coles et Universits,292938504,2020-02-19 13:14:00,Paris,poi,"Ministre de l'Environnement, de l'nergie et de la Mer",France
153,10.721525999999999,59.97240550000001,Crayon,2929386021,2020-02-17 11:20:40,Worldwide,city,"Oslo, Norway",Norway
205,0.1979755,52.063265,MFL Birchwood High,2929386789,2020-02-27 18:58:40,Bishop's Stortford,city,"Great Chesterford, East",United Kingdom
151,3.39583,6.45306,Mobolaji David,292938740,2020-02-17 09:07:02,Nigeria,city,"Lagos, Nigeria",Nigeria
160,-71.9722,-13.525,Xapiri,2929390031,2020-05-11 20:42:57,"Cusco, Peru",city,"Cusco, Peru",Peru
171,121.03234701,14.65604467,JERICHO,2929390867,2020-02-23 11:24:00,,city,"Quezon City, National Capital Region",Republic of the Philippines
33100,-80.07066,26.46193,Corey Spencer,29293914,2020-02-17 02:41:25,South Florida,city,"Delray Beach, FL",United States
37340,-80.56925923,28.09759265,Corey Spencer,29293914,2020-05-18 16:54:24,South Florida,city,"Indialantic, FL",United States
33100,-80.10173,26.391759999999998,Corey Spencer,29293914,2020-05-28 04:54:43,South Florida,city,"Boca Raton, FL",United States
57,15.4389,47.0703,Aerithiel,2929391943,2020-05-25 13:54:43,,city,"Graz, sterreich",sterreich
200,33.54521932,37.72149405,fahret akca,2929392640,2020-03-08 08:40:35,"Sandkl, Karapnar",city,"Karapnar, Trkiye",Trkiye
12940,-91.0907995,30.4591,$kendall$,2929392878,2020-02-14 09:10:32,"Monroe, LA",city,"Baton Rouge, LA",United States
222,106.92712,-6.324923,ADITTIYA RKSNI,292939367,2020-04-11 03:20:13,Bekasi 17432,poi,rumah gue !,Indonesia
65,2.347003,48.8588335,Apsys,2929393839,2020-05-20 05:47:07,Paris,city,"Paris, France",France
21,-43.0475,-22.55345,J,292939410,2020-03-05 18:41:33,"Rio de Janeiro, Brasil",city,"Mag, Brasil",Brasil
38300,-79.9806895,40.431389,Gavita Durhan,2929394493,2020-04-05 19:41:21,,city,"Pittsburgh, PA",United States
171,120.96064550000001,14.676312,nerkyyaaa~,2929394839,2020-02-17 14:29:37,DavaoCity,city,"Malabon City, National Capital Region",Republic of the Philippines
46340,-95.31704,32.315661500000004,,2929395303,2020-02-29 06:19:33,Rose city ,city,"Tyler, TX",United States
205,-1.4514655,51.9181375,Ed Hall,292939591,2020-05-03 15:13:16,"London, Dover, or the Solent",city,"Enstone, England",United Kingdom
32820,-89.92202900000002,35.1335205,Ginger Falls,2929396514,2020-02-22 20:18:39,"Clarksdale,Memphis",city,"Memphis, TN",United States
21340,-106.2609715,31.6455525,angel,2929397491,2020-02-14 19:04:18,915,city,"Socorro, TX",United States
29500,-101.955576,32.7381235,angel,2929397491,2020-02-17 04:50:44,915,city,"Lamesa, TX",United States
21340,-106.2609715,31.6455525,angel,2929397491,2020-02-21 05:38:15,915,city,"Socorro, TX",United States
29500,-101.955576,32.7381235,angel,2929397491,2020-02-25 05:25:30,915,city,"Lamesa, TX",United States
21340,-106.2609715,31.6455525,angel,2929397491,2020-03-01 23:33:59,915,city,"Socorro, TX",United States
29500,-101.955576,32.7381235,angel,2929397491,2020-03-06 00:42:58,915,city,"Lamesa, TX",United States
21340,-106.2609715,31.6455525,angel,2929397491,2020-03-08 19:02:02,915,city,"Socorro, TX",United States
29500,-101.955576,32.7381235,angel,2929397491,2020-03-13 23:53:43,915,city,"Lamesa, TX",United States
21340,-106.2609715,31.6455525,angel,2929397491,2020-03-17 00:24:29,915,city,"Socorro, TX",United States
29500,-101.955576,32.7381235,angel,2929397491,2020-04-02 23:46:45,915,city,"Lamesa, TX",United States
21340,-106.2609715,31.6455525,angel,2929397491,2020-05-04 03:29:46,915,city,"Socorro, TX",United States
29500,-101.955576,32.7381235,angel,2929397491,2020-05-08 08:50:21,915,city,"Lamesa, TX",United States
31080,-117.7823605,33.689732,OT Level: LXIX,29293999,2020-05-17 12:25:06,Parts Unknown,city,"Irvine, CA",United States
32420,-67.11021099999999,18.2083945,Esther M. Acosta ,2929399901,2020-05-28 23:21:51,,city,"Mayagez, Puerto Rico",United States
85,11.21166992,44.85219079,Marialuisabigi,2929400495,2020-05-30 08:18:17,,city,"Finale Emilia, Emilia Romagna",Italia
21,-49.26931,-16.70758,MeninosdeGoisDionny,2929401083,2020-02-19 15:29:22,"Goinia, Brasil",city,"Goinia, Brasil",Brasil
88,139.65925049999998,35.7060655,Norihito Yusa,292940289,2020-04-12 17:33:29,,city, ,
154,87.547937,26.660319,Govinda Rokka,2929406952,2020-04-02 18:27:35,Nepal -Kathmandu & Morang,poi,Pathari,Nepal
33,-70.6596155,-33.4521615,jose artal,2929407365,2020-03-28 17:00:55,"Santiago, Chile",city,"Santiago, Chile",Chile
193,100.94345799999999,13.277666, ,2929408586,2020-02-19 05:29:14,Golden Closet.,poi,WE : ,
28140,-94.3783325,39.0880045,Jennifer Kanagawa Selter,2929409459,2020-03-23 21:53:14,"Blue Springs, MO",city,"Independence, MO",United States
82,76.879092,11.022624,NandhaKumar Gurusamy,2929409832,2020-03-26 19:20:09,,city,"Coimbatore, India",India
38,-74.19830999999999,4.6275699999999995,Jose Torres,2929410287,2020-03-08 19:47:02,Santana Boyaca,city,"Bogot, D.C., Colombia",Colombia
222,106.94990800000001,-6.295911,Nama Disamarkan,2929410710,2020-02-22 15:36:05,"Pondokgede, Indonesia",city,"Jatiasih, Indonesia",Indonesia
21,-41.653212,-22.204575,Tamires Carreira,292941133,2020-02-14 03:21:01,Carapebus,city,"Carapebus, Brasil",Brasil
205,-4.2589999999999995,55.858000000000004,Jimmy McKee,29294144,2020-04-25 12:46:55,"Glasgow, Scotland",city,"Glasgow, Scotland",United Kingdom
193,100.53331,13.745479999999999,,2929414573,2020-02-23 05:14:41,"Bangkok, Thailand",poi,Abc Siam Clinic,Thailand
200,39.78204223,40.99434688,Adem Takn,292941629,2020-06-04 14:22:45,Trkiye,city,"Trabzon, Trkiye",Trkiye
88,136.5454115,34.985632,,2929416968,2020-02-18 01:53:17,,city, ,
222,106.816208,-6.220801,BAAAACOOOODDD,292941731,2020-05-15 21:33:09,piaman,poi,Dog park woof woof woof,Indonesia
91,36.88008662,-1.28505874,halima_mwema,292942044,2020-04-27 13:53:54,,city,"Nairobi, Kenya",Kenya
31080,-118.207673,33.886352,Jeremy Treat,29294223,2020-02-29 06:53:34,Los Angeles,poi,Catalina Island,United States
119,-103.40758100000001,20.489709,Cesar Meza,2929422774,2020-02-14 01:56:58,"Tlajomulco de Ziga, Jalisco",city,"Tlajomulco de Ziga, Jalisco",Mxico
186,-3.6734400000000003,40.40683,l cd,292942549,2020-03-04 11:07:07,Madrid,city,"Madrid, Espaa",Espaa
186,-0.44978999999999997,39.12616,Drea.,292942554,2020-04-18 14:19:04,en la mierda.,city,"Carcaixent, Espaa",Espaa
21,-49.2884605,-25.4952495,vitoriaaaa,2929425809,2020-03-11 23:56:20,"Curitiba, Brasil",city,"Curitiba, Brasil",Brasil
82,72.87424399999999,19.174139999999998,faisal khan,2929425973,2020-04-03 07:49:55,"Bandra West, Mumbai",city,"Mumbai, India",India
222,119.47065049999999,-5.2106615000000005,kiki,2929426063,2020-04-28 14:21:31,kepo,city,"Sombaopu, Indonesia",Indonesia
19820,-83.0507,42.3368,Drumlion,2929426169,2020-03-19 01:08:28,"Dublin,Ireland",city,"Detroit, MI",United States
119,-102.5382358,22.76265065,Drumlion,2929426169,2020-03-21 11:55:51,"Dublin,Ireland",city,"Zacatecas, Mxico",Mexico
164,-9.18333333,38.7,Drumlion,2929426169,2020-03-28 19:53:45,"Dublin,Ireland",city,"Lisbon, Portugal",Portugal
24,-79.27282,43.6877,Drumlion,2929426169,2020-03-29 22:02:59,"Dublin,Ireland",city,"Toronto, Ontario",Canada
31140,-85.5576145,38.1947435,Tim Noland,292942712,2020-02-20 03:36:42,"Louisville, Ky",city,"Jeffersontown, KY",United States
200,30.680889,36.89007,K Dedektifi,2929428123,2020-02-15 16:56:36,,city,"Antalya, Trkiye",Trkiye
9,144.433,-37.6833,Old Married Couple,2929430126,2020-05-09 22:18:38,"Bacchus Marsh, Victoria",city,"Bacchus Marsh, Victoria",Australia
41740,-117.10498899999999,32.810012,Gavin Hammar,292943066,2020-03-01 14:18:19,"London, England",city,"San Diego, CA",United States
205,-0.28494400000000003,51.693215,Gavin Hammar,292943066,2020-03-05 22:09:28,"London, England",city,"Shenley, East",United Kingdom
41740,-117.167971,32.710135,Gavin Hammar,292943066,2020-03-07 10:21:34,"London, England",poi,Manchester Grand Hyatt Grand Lobby Bar,United States
82,77.5584485,12.9231145,KHADER BASHA KK,2929430792,2020-02-17 14:55:12,"Bengaluru, India",city,"Bengaluru South, India",India
205,-0.14893599999999999,51.500091999999995,Jake  UTAG,292943285,2020-02-14 08:48:03,Hackney,city,"London, England",United Kingdom
33460,-93.3606,44.895222,Debra Marshall,29294335,2020-04-11 01:50:56,,city,"Edina, MN",United States
88,139.71509400000002,35.7291085,haru,2929434271,2020-02-14 11:59:35,,city, ,
200,29.206801000000002,40.884428,Mrs. opticians,292943432,2020-02-25 14:11:13,stanbul-Konya,poi,STMarina AVM,Trkiye
119,-103.348324,20.592133,CSerros,292943543,2020-04-03 03:38:19,GDL Jal.,city,"Tlaquepaque, Jalisco",Mxico
9,150.931975,-33.848244,Tom Usher,2929435873,2020-05-14 13:31:20,"Sydney, New South Wales",city,"Sydney, New South Wales",Australia
82,77.597645,12.971117,Sathish Magi,2929436061,2020-03-25 08:10:39,"Bengaluru, India",city,"Bengaluru, India",India
88,139.636314,35.894856,@,2929437258,2020-02-23 14:13:07,,poi,MOVIX ,
35620,-73.8311875,40.6708795,Sazzad Hossain,29294395,2020-03-12 17:18:18,"New York, NY",city,"Queens, NY",United States
12060,-84.43310600000001,33.7671945,Natalie S. Everett,29294398,2020-02-14 13:47:25,"Atlanta, GA",city,"Atlanta, GA",United States
88,135.809922,34.890578000000005,YQ.Kei,2929439978,2020-04-19 14:25:15,,poi,,
33100,-80.132706,25.777378,gelyan,2929440111,2020-04-02 03:21:02,,poi,ARTECHOUSE,United States
36740,-81.7332615,28.5381695,gelyan,2929440111,2020-04-11 00:39:41,,city,"Clermont, FL",United States
45300,-82.7001,27.8518,Renee Haggerty,292944100,2020-03-11 20:01:54,"Treasure Island, Florida",city,"Pinellas Park, FL",United States
13820,-86.8238,33.2312,Renee Haggerty,292944100,2020-05-23 15:38:22,"Treasure Island, Florida",city,"Alabaster, AL",United States
178,22.112045499999997,-34.1833735,Tshomela ka Matsho,292944494,2020-02-17 03:29:27,"Mossel Bay, South Africa",city,"Mossel Bay, South Africa",South Africa
65,-1.135494,43.46756050000001,Sbastien Bareyre,292944497,2020-05-19 10:51:45,Pays Basque,city,"Bidache, France",France
171,120.612449,15.480779,Paul Harvey,2929446578,2020-02-18 13:06:15,,city,"Tarlac City, Central Luzon",Republic of the Philippines
82,72.87424399999999,19.174139999999998,blehh,2929446924,2020-03-06 03:46:52,"Mumbai, India",city,"Mumbai, India",India
38,-75.434214,9.315605499999998,David Montalvo,2929448181,2020-02-15 02:09:55,Colombia,city,"Sincelejo, Colombia",Colombia
222,110.145125,-7.893897999999999,bibAhmad,2929448785,2020-05-22 00:34:59,"Kulon Progo, Yogyakarta",poi,"Bendungan, wates",Indonesia
33,-71.51564599999999,-33.0263575,Cano Ruiz,2929449581,2020-04-16 22:47:15,,city,"Via del Mar, Chile",Chile
171,121.0627355,14.683012,RA Garcia (  ),292945084,2020-02-14 08:42:53,"Quezon City, National Capital Region",city,"Quezon City, National Capital Region",Republic of the Philippines
117,56.1087365,22.9036575,   ,2929451083,2020-02-16 02:40:01,",  ",city,",  ", 
39900,-119.82718200000001,39.512436,Holly English,292945138,2020-02-14 08:51:18,"Reno, NV",city,"Reno, NV",United States
29420,-114.017707,35.2237525,Holly English,292945138,2020-03-30 08:27:48,"Reno, NV",city,"Kingman, AZ",United States
39900,-119.82718200000001,39.512436,Holly English,292945138,2020-04-02 06:59:35,"Reno, NV",city,"Reno, NV",United States
21,-52.548291000000006,-22.8738385,Lucas Gabriel,2929451429,2020-02-22 05:08:51,"Paranava, Brasil",city,"Paranava, Brasil",Brasil
38060,-111.7311935,32.925569,Greg Huff,292945162,2020-04-24 02:17:31,near STL Missouri,city,"Casa Grande, AZ",United States
91,35.504204,0.6654154999999999,Daisy Yator,2929451667,2020-05-04 10:27:34,Kenya,city,"Iten Tambach, Kenya",Kenya
175,50.193882,26.305441,Maiyouya,292945220,2020-02-21 16:43:56,Dammam,city,"Al Khobar, Kingdom of Saudi Arabia",Kingdom of Saudi Arabia
71,11.642021000000002,52.127018,ADFC Sachsen-Anhalt,2929452562,2020-02-19 09:04:26,Sachsen-Anhalt,city,"Magdeburg, Deutschland",Deutschland
128,4.3951975,50.833552000000005,Roberto Segura,292945261,2020-02-26 11:59:02,"Bruselas, Blgica",city,"Etterbeek, Belgi",Blgica
21,-42.54964374,-22.31795667,Projeto Ana,2929453893,2020-02-23 21:02:28,,city,"Nova Friburgo, Brasil",Brasil
71,9.3726795,53.6798865,Sven Scharf,2929454223,2020-02-15 20:51:58,,city,"Hamburg, Deutschland",Deutschland
222,106.791,-6.58972,Irfan Muslim,2929455222,2020-04-15 07:59:44,"Bogor, Jawa Barat",city,"Bogor Barat, Indonesia",Indonesia
38,-74.24367099999999,4.2622835,CataNava  #ParoNacional,292945565,2020-02-16 21:35:21,Bogot,city,"Bogot, D.C., Colombia",Colombia
205,-3.4529605,51.7185625,Tracey Edmunds,2929457769,2020-02-27 20:12:43,,city,"Aberdare, Wales",United Kingdom
222,100.6325,-0.22444444,Yurizal,292945794,2020-06-05 00:43:18,,city,"Payakumbuh Utara, Indonesia",Indonesia
151,7.0312755000000005,4.82463,Maryam,2929457974,2020-03-16 12:20:17,,city,"Port Harcourt, Nigeria",Nigeria
117,56.829269999999994,24.22963,Ali Alhosni,2929458973,2020-02-25 18:07:17,,poi,Sohar -OMAN, 
88,136.090495,35.117796000000006,20201.5,2929459824,2020-04-01 19:59:39, ,poi,,
200,29.0052225,41.0213205,Mr Baig,2929460384,2020-04-16 05:00:12,"stanbul, Trkiye",city,"stanbul, Trkiye",Turkey
82,77.5584485,12.9231145,Nazeer Sagri,2929460413,2020-05-30 18:12:54,"Bengaluru, India",city,"Bengaluru South, India",India
19100,-96.7977,32.7774,CHINA LATINA DFW,292946093,2020-02-16 22:34:06,"Dallas, TX",city,"Dallas, TX",Estados Unidos
42100,-121.9472905,36.997949,Mitchell Slater,292946268,2020-03-21 21:17:19,"Soquel, CA",city,"Soquel, CA",United States
24,-79.27256949999999,43.629311,Soccerking Paulo,2929463572,2020-02-14 02:45:34,"TORONTO, CANADA",city,"Toronto, Ontario",Canada
88,134.0487445,34.272571500000005,,292946407,2020-03-23 09:06:34,,city, ,
205,-1.8900305,53.729572999999995,Neil Mourinho,292946559,2020-02-15 14:11:28,west yorkshire,city,"Halifax, England",United Kingdom
186,-1.857034,37.229676,Roma Criado,292946629,2020-03-23 12:06:27,Vera,city,"Vera, Espaa",Espaa
178,27.9574575,-26.0197195,Palesa Magadla,292946663,2020-02-20 15:31:24,Home is where my heart is.,city,"Randburg, South Africa",South Africa
38,-76.747398,7.960482499999999,Valentina Padilla C.,292946677,2020-03-05 17:34:53,Turbo - Antioquia,city,"Turbo, Colombia",Colombia
175,44.3223565,17.5818875,A.Z.Z.K(^o^),2929467517,2020-02-27 03:39:44,,city,",   ",  
88,135.44021049999998,34.551635499999996,,2929467564,2020-04-04 16:06:14,,city,  ,
71,8.738439999999999,50.3725,Alex Jahn,2929467820,2020-02-21 17:08:40,,city,"Bad Nauheim, Deutschland",Deutschland
9,150.621746,-33.767373,Toni Krasicki,292946898,2020-06-06 12:51:58,Sydney,poi,2773 Glenbrook,Australia
29820,-115.223125,36.232915000000006,alessa ,2929471073,2020-02-28 21:17:54,cher & pauly :),city,"Las Vegas, NV",United States
82,83.42306500000002,27.430398,Ritesh agrahari,2929472959,2020-04-05 15:49:46,"Nautanwa, India",city,"Nautanwa, India",India
186,-3.665667,40.3005505,DEL PUERTO DJ,2929473449,2020-02-14 15:02:05,Espaa,city,"Getafe, Espaa",Espaa
38,-74.24367099999999,4.2622835,CH-MAX,292947365,2020-02-14 01:57:36,Colombia,city,"Bogot, D.C., Colombia",Colombia
222,106.11373049999999,-6.041327,Riza Bagus,2929473980,2020-02-15 13:34:42,"Kota Tegal, Jawa Tengah",city,"Kramat Watu, Indonesia",Indonesia
34820,-78.688827,33.82451399999999,shawnee.,292947407,2020-03-09 11:23:43,Pennsylvania | South Carolina,city,"North Myrtle Beach, SC",United States
88,130.88560068,33.89015222,Ark,292947413,2020-02-22 07:22:32,,city,  ,
205,-4.2219125,57.471961,Discothequewreck ,2929474823,2020-03-22 21:38:59,,city,"Inverness, Scotland",United Kingdom
21,-45.506655,-23.0860165,Dona Fr ,2929476261,2020-04-30 19:57:30,"Taubat, Brasil",city,"Taubat, Brasil",Brasil
88,137.06816,34.9495995,,2929477430,2020-02-20 13:27:04,,city, ,
175,46.685077,24.7219435, ,292947783,2020-03-24 17:36:24,,city,",   ",  
178,31.077550800000004,-29.73909256,JSbu -Lethokuhle ft Nonji Now Out!,2929479358,2020-02-27 17:38:29,"KwaZulu, South Africa",city,"Umhlanga, South Africa",South Africa
222,107.60600000000001,-6.912780000000001,Habibulloh Ramdhani,2929479582,2020-03-23 02:07:29,Bandung,city,"Sumurbandung, Indonesia",Indonesia
55,-89.2124635,13.681588,Carlos Funes,292948002,2020-03-30 22:05:18,,city,"Aguilares, El Salvador",El Salvador
186,-4.4240309999999985,36.764878,Angela Delgado,292948092,2020-04-14 08:59:06,Mlaga,city,"Mlaga, Espaa",Espaa
178,18.6333175,-33.890275,Gelndewagen,2929481483,2020-03-18 10:19:41,KwaBhaca,city,"Bellville, South Africa",South Africa
205,-1.8906405,52.493966500000006,Sarah Warnes,2929481962,2020-04-07 11:01:31,,city,"Birmingham, England",United Kingdom
82,82.93295549999998,25.3733755,Santosh Yadav,2929482818,2020-04-08 18:04:45,", ",city,"Varanasi, India",India
35620,-73.985812,40.75757,,2929483580,2020-05-07 18:01:07,,poi,Times Square,United States
8,-65.031131,-42.75162450000001,Daira,2929483631,2020-03-26 07:19:31,"Puerto Madryn, Argentina",city,"Puerto Madryn, Argentina",Argentina
184,103.955501,1.376034,thejokids,2929484335,2020-03-18 12:32:50,,poi,E!hub Downtown East,Singapore
47900,-77.3244645,38.8969455,Andy Volciak,2929484411,2020-05-19 22:57:05,"Fairfax, VA",city,"Oakton, VA",United States
9,145.0531355,-37.9725665,F1-Insider.com,2929486281,2020-03-11 21:38:29,Instagram @f1insidercom,city,"Melbourne, Victoria",Australia
71,7.0076420000000015,51.054140999999994, ,2929487034,2020-02-19 14:10:10,,city,"Leverkusen, Deutschland",Deutschland
200,29.0052225,41.0213205,elik,292948782,2020-02-16 15:28:01,stanbul,city,"stanbul, Trkiye",Trkiye
24660,-79.85736349999998,36.090397,Theo Crockett,2929487909,2020-04-10 09:43:10,,city,"Greensboro, NC",United States
82,79.0327905,20.9882585,Sumedh Bagade,2929488295,2020-06-10 18:03:35,"Nagpur, India",city,"Nagpur, India",India
82,72.87424399999999,19.174139999999998,Hitesh Mehta,2929488936,2020-04-18 05:10:04,"Vasai, Mumbai, India",city,"Mumbai, India",India
152,6.6284160000000005,53.1119385,TokkelientjedJ,2929488983,2020-06-06 10:09:55,,city,"Tynaarlo, Nederland",Nederland
82,81.63,21.25,Bipul Kumar Gupta,292948905,2020-02-21 18:27:16,RAIPUR,city,"Raipur, India",India
200,29.0052225,41.0213205,EMRE AKYILDIZ,2929489108,2020-02-24 12:04:58,"Beykoz, stanbul",city,"stanbul, Trkiye",Trkiye
205,-0.1923765,51.8071275,Gamble,2929490423,2020-03-23 21:05:03,London,city,"Welwyn Garden City, East",United Kingdom
88,139.77416100000002,35.711853999999995,Singer,2929490774,2020-03-19 07:00:07,World is one,poi,,
88,130.622654,33.729446,@R25,292949291,2020-02-23 14:01:46,,poi,,
242,121.28913,24.966720000000002,apple_huang,2929492952,2020-03-15 01:09:36,Taiwan,poi,,
205,-2.1886148999999997,53.3753495,The Chiverton Tap,2929493861,2020-02-19 13:33:45,"Cheadle Hulme, Stockport",city,"Cheadle, England",United Kingdom
205,-0.278464,51.390063,Alison Sidebottom,2929493945,2020-04-23 17:22:26,Worcester Park,city,"Kingston upon Thames, London",United Kingdom
173,104.2525225,52.307016, ,2929494178,2020-02-16 08:01:49,,city,", ",
65,5.1825975,46.209747,Campus de Bourg,2929494557,2020-02-15 13:28:47,Bourg-en-Bresse,city,"Saint-Denis-ls-Bourg, France",France
128,4.385111,50.8625045,Vincent Rif,29294948,2020-03-03 11:44:53,Bruxelles,city,"Schaerbeek, Belgique",Belgique
46520,-157.98333333,21.46666667,CKT,2929495168,2020-03-14 01:29:10,Hawaii,city,"Mililani Mauka, HI",United States
35620,-73.8494415,40.8503475,kior,2929496152,2020-03-16 05:47:03,B,city,"Bronx, NY",United States
117,58.15478450000001,23.650904999999998, Khalfan,2929496190,2020-02-24 16:42:59,"Al Seeb, Oman",city,"Al Seeb, Oman",Oman
27260,-81.62368640000001,30.12015594,Kenny Hensley,292949641,2020-03-10 11:56:01,"Jacksonville, Florida, USA",city,"Fruit Cove, FL",United States
36740,-81.46643228,28.45066272,Kenny Hensley,292949641,2020-06-01 19:46:40,"Jacksonville, Florida, USA",city,"Orlando, FL",United States
19100,-97.379056,32.449328,Joshua ISD,292949710,2020-06-06 23:29:41,"Joshua, TX",poi,Owl Stadium,United States
47900,-77.0143985,38.898603,Bradley Jardine ,2929498157,2020-02-15 21:37:54,"Washington, DC",city,"Washington, DC",United States
117,58.15478450000001,23.650904999999998,Munib Al-Hussaini,2929498256,2020-03-09 09:40:23,,city,"Al Seeb, Oman",Oman
152,4.3063955,52.07686800000001,Camping Onbestemd,2929500724,2020-02-19 06:47:49,Nieuw Nederland,city,"Den Haag, Nederland",Nederland
85,13.32618966,38.20328423,Info Viajera,2929503111,2020-03-25 00:00:35,Argentina,city,"Palermo, Sicilia",Italia
21,-43.18322182,-22.97175251,Info Viajera,2929503111,2020-04-02 00:36:08,Argentina,city,"Ro de Janeiro, Brasil",Brasil
46520,-157.69778,21.33361,Info Viajera,2929503111,2020-04-28 22:14:48,Argentina,city,"Waimanalo Beach, HI",Estados Unidos
9,153.61277990000002,-28.64694,Info Viajera,2929503111,2020-05-28 21:42:17,Argentina,city,"Byron Bay, New South Wales",Australia
46700,-122.22473000000001,38.12543,Info Viajera,2929503111,2020-06-01 22:16:36,Argentina,city,"Vallejo, CA",Estados Unidos
9,151.21528655,-33.8567783,Info Viajera,2929503111,2020-06-09 21:26:49,Argentina,city,"Sydney, New South Wales",Australia
41700,-98.5406515,29.417501,John Niaves,2929503439,2020-02-14 03:26:19,"San Antonio, TX",city,"San Antonio, TX",United States
171,123.5319275,9.183065,Tristan Acenas,292950364,2020-05-30 08:54:01,"CGY-MNL, PH",city,"Siquijor, Central Visayas",Republic of the Philippines
88,139.6800149,35.46133991,,2929506265,2020-02-15 18:35:38,,city,  ,
173,39.917883,43.422042,Lydia,292950714,2020-02-16 17:15:22,,poi, ,
35620,-74.066663,40.7180015,Ravi Verma,2929507245,2020-05-27 19:48:04,,city,"Jersey City, NJ",United States
