currentGEOID,lon,lat,name,author_Id,created_at,location,place_type,place_full_name,place_country
128,4.385111,50.8625045,Gr Es ,932009523954536448,2020-04-21 02:11:31,"Bruxelles, Belgique",city,"Schaerbeek, Belgique",Belgique
186,2.0983669999999996,41.548854999999996,Asun Sanchez - ,932009663176101889,2020-02-22 06:31:56,,city,"Sabadell, Spain",Spain
33100,-80.14917249999999,26.150368,4/22,932009675767377925,2020-04-22 04:01:54,"Memphis, TN",city,"Fort Lauderdale, FL",United States
88,135.498311,34.667066999999996,,93200970,2020-02-16 11:40:32,,poi, ,
8,-58.442643,-34.604315,SILVIA SusanaMaripil,932010204530642944,2020-04-14 16:14:15,CABA,city,"Ciudad Autnoma de Buenos Aires, Argentina",Argentina
205,-0.36544299999999996,51.442023,Asli Coleman,932010528393912320,2020-03-26 09:11:12,,poi,Sunbury on Thames,United Kingdom
29820,-115.172684,36.112193,Big Drakkkooo,932010813988143105,2020-03-04 04:47:41,"Dayton, OH",poi,The Las Vegas Strip,United States
21,-52.814691,-28.458382,Raissa Hauenstein,93201091,2020-02-14 16:12:01,"Panambi, Brasil",city,"No-Me-Toque, Brasil",Brasil
88,137.60773094,34.78165186,,932011248559865856,2020-03-09 08:00:05,,city, ,
200,27.26209,37.86408,AHMET HAMMAL,932011342315302913,2020-04-28 09:10:24,"zmir, Trkiye",poi,Kuadas Sahili,Turkey
21,-46.6333,-23.55,Ecard Junior,932011405,2020-02-19 01:34:18,So Paulo,city,"So Paulo, Brasil",Brasil
23420,-119.7824645,36.786042,Brickhouse Cidery,932011540739375104,2020-02-29 16:27:07,"Fresno, CA",city,"Fresno, CA",United States
41740,-117.16658531,32.71554234,Alex Salvi,932011810235891712,2020-04-18 20:55:24,"San Diego, CA",city,"San Diego, CA",United States
31080,-118.36116955,34.08537883,Alex Salvi,932011810235891712,2020-05-31 05:13:34,United States,city,"Los Angeles, CA",United States
41740,-117.16519143,32.71567426,Alex Salvi,932011810235891712,2020-05-31 21:04:16,United States,city,"San Diego, CA",United States
16980,-87.66693087,41.88613201,Alex Salvi,932011810235891712,2020-06-06 17:49:36,United States,city,"Chicago, IL",United States
40900,-121.3820915,38.4215345,veronika :),932012224071086080,2020-02-14 18:23:36,"Elk Grove, CA",city,"Elk Grove, CA",United States
21,-46.4539065,-23.39208,,932012633796104193,2020-03-28 00:07:05,,city,"Guarulhos, Brasil",Brasil
35620,-73.9685415,40.780709,Suman Gollamudi,932013067579330563,2020-02-19 16:24:18,"Manhattan, NY",city,"Manhattan, NY",United States
36260,-111.9090835,40.984473,Daniel Warner,932013305647869952,2020-02-20 15:30:48,"Farmington, UT",city,"Farmington, UT",United States
33,-71.393221,-32.744063999999995,Constanza Palacios Faras,932013478503768064,2020-02-23 17:17:00,,city,"Puchuncav, Chile",Chile
73,24.9435445,41.136476,deniz korak,932013713187622912,2020-04-02 15:36:52,"Xanthi, Greece",city,", ",
120,101.389219,3.223504,Neyynaaa,932013788,2020-03-07 01:52:26,Kluang,city,"Ujong Permatang, Selangor",Malaysia
37980,-75.11567,39.989028499999996,Fr Matthew Schneider LC,932013864,2020-05-30 18:55:05,"Philly metro area, PA, USA",neighborhood,"Kensington, Philadelphia",United States
39740,-76.08050899999999,40.3309135,Fr Matthew Schneider LC,932013864,2020-06-06 19:42:24,"Philly metro area, PA, USA",city,"Wernersville, PA",United States
160,-71.586502,-13.174732,jungle time,932013920331751424,2020-03-06 22:57:17,,poi,Wayqecha,Peru
200,30.680889,36.89007,brahim Aybugn,932014040179724288,2020-02-16 15:42:26,,city,"Antalya, Trkiye",Trkiye
65,1.6903285,46.802327000000005,Chteauroux Ensemble,932014154386497536,2020-03-02 22:58:57,Chteauroux,city,"Chteauroux, France",France
26580,-82.68177800000002,38.48005000000001,Tracy Keyes,932014689109860352,2020-06-02 22:16:33,United States,city,"Westwood, KY",United States
35380,-90.01100799999999,29.982601000000003,Nicholas Sandoval,932014797205450752,2020-05-19 16:04:03,"New Orleans, LA",city,"New Orleans, LA",United States
46060,-110.91557350000001,32.1893905,Rogelio Sanz,932015766932684807,2020-02-20 03:26:45,"Tucson, AZ",city,"Tucson, AZ",United States
129,113.93526899999999,22.31537,Tk Adam,932015795391090691,2020-02-18 00:05:21,Bykada,poi,Hong Kong International Airport  (HKG),
222,115.204629,-8.650534,Tk Adam,932015795391090691,2020-02-18 13:40:24,Bykada,city,"Denpasar Barat, Indonesia",Indonesia
205,-3.5148765,50.72094,Tk Adam,932015795391090691,2020-06-01 19:04:19,Bykada,city,"Exeter, England",United Kingdom
21,-51.3378565,-26.92675,mini,932016090804342785,2020-03-23 21:52:15,E a pinguinha?,city,"Arroio Trinta, Brasil",Brasil
85,13.79266841,45.62252558,Andrea Spena,932016104,2020-02-16 13:22:42,,city,"Trieste, Friuli-Venezia Giulia",Italia
60,24.93622332,60.20312798,Minttu Pyrhnen,932016548,2020-03-02 15:27:35,"Helsinki, Finland",city,"Helsinki, Finland",Finland
65,6.8807055,43.629020000000004,Grgory  Gnoato,932016701172015105,2020-02-17 20:31:39,,city,"Peymeinade, France",France
21,-39.2755505,-7.1809935,Elleferson Adan,93201672,2020-02-14 03:06:29,Juazeiro do Norte - CE,city,"Juazeiro do Norte, Brasil",Brasil
222,108.2207,-7.3262,Fahmy Bulakan,932016938917576704,2020-03-05 07:43:38,"Salopa, Indonesia",city,"Cipedes, Indonesia",Indonesia
88,139.797218,35.77808899999999,@3,932017135,2020-02-14 09:44:24,,city, ,
47900,-77.0143985,38.898603,DC Psychological Association,932017167331143680,2020-03-06 14:55:05,"Washington, DC",city,"Washington, DC",United States
88,133.50985500000002,33.5703455,,932017679782653952,2020-03-07 21:15:30,,city,"Kochi-shi, Kochi",Japan
39580,-78.68056867,35.77215941,Kristy Gardner,932018191,2020-02-16 01:40:19,,city,"Raleigh, NC",United States
16740,-80.795103,35.205164,Kristy Gardner,932018191,2020-02-23 04:28:04,,city,"Charlotte, NC",United States
39580,-78.79482188,35.87634975,Kristy Gardner,932018191,2020-03-05 17:47:42,,city,"Raleigh, NC",United States
178,27.874292500000006,-26.1427115,vongizzle,932018489493159937,2020-04-01 20:24:54,,city,"Roodepoort, South Africa",South Africa
200,30.029372499999997,40.724826,kartepeli ORHAN.,932018494190899206,2020-02-14 08:17:05,"Kartepe, Kocaeli-artvin..",city,"Kartepe, Trkiye",Trkiye
16980,-88.14251150000003,41.519556,AJ,932018548276432896,2020-02-14 01:18:30,,city,"Joliet, IL",United States
38700,-88.6309025,40.878799,AJ,932018548276432896,2020-05-03 20:10:15,,city,"Pontiac, IL",United States
16980,-88.14251150000003,41.519556,AJ,932018548276432896,2020-05-05 04:02:19,,city,"Joliet, IL",United States
222,106.8983735,-6.191323000000001,BRSTWN,93201886,2020-05-07 00:12:48,EASTREME JAKARTA ,city,"Pulo Gadung, Indonesia",Indonesia
21,-43.441578,-22.911421500000003,SANTA CRIME OFICIAL,932018886664425473,2020-02-21 12:39:57,Santa Crime,city,"Rio de Janeiro, Brasil",Brasil
21,-43.343545,-22.885606,Kettlen Djeiny ,932019081288577024,2020-03-23 00:06:34,"Miami Beach, FL",poi,Posto Melhor do Campinho,Brasil
8,-58.54075699999999,-34.4902185, ,932019228630282240,2020-04-02 06:27:59,"San Isidro, Argentina",city,"San Isidro, Argentina",Argentina
151,3.3180660000000004,6.590611,Hope Andy,932019240,2020-05-04 08:41:25,"Lagos, Nigeria",city,"Ikeja, Nigeria",Nigeria
186,-0.31946199999999997,39.512749,jose luis otero,932019292274659329,2020-06-05 19:22:23,"Valencia, Espaa",poi,Platja de Port Saplaya Nord,Espaa
96,47.903131,29.283279999999998,,932019320338702337,2020-02-20 04:39:01,,poi,, 
38900,-122.921586,45.502091,Jamil Cabalitasan,932019556238929920,2020-02-23 11:13:46,"Hillsboro, OR",poi,24 Hour Fitness,United States
36740,-81.3677725,28.5016785,rachelbillick ,932019834,2020-04-22 16:58:39,,city,"Orlando, FL",United States
26140,-82.5990145,28.894810999999997,rachelbillick ,932019834,2020-04-25 21:58:41,,city,"Crystal River, FL",United States
36740,-81.3677725,28.5016785,rachelbillick ,932019834,2020-04-27 22:10:00,,city,"Orlando, FL",United States
26140,-82.32862399999998,28.844094000000002,rachelbillick ,932019834,2020-04-27 22:28:47,,city,"Inverness, FL",United States
36740,-81.3677725,28.5016785,rachelbillick ,932019834,2020-04-29 17:16:51,,city,"Orlando, FL",United States
26140,-82.32862399999998,28.844094000000002,rachelbillick ,932019834,2020-04-30 14:11:53,,city,"Inverness, FL",United States
37460,-85.8720485,30.215828,rachelbillick ,932019834,2020-05-02 03:52:25,,city,"Panama City Beach, FL",United States
36740,-81.7332615,28.5381695,rachelbillick ,932019834,2020-05-04 21:40:47,,city,"Clermont, FL",United States
29460,-81.62554850000002,28.1080205,rachelbillick ,932019834,2020-05-06 17:48:13,,city,"Haines City, FL",United States
36740,-81.7332615,28.5381695,rachelbillick ,932019834,2020-05-07 16:14:09,,city,"Clermont, FL",United States
37100,-119.16538899999999,34.181956,Sebas,932020755100876800,2020-02-14 00:04:22,"California, USA",city,"Oxnard, CA",United States
31080,-118.34613799999998,33.914068,Sebas,932020755100876800,2020-02-14 16:20:37,"California, USA",city,"Hawthorne, CA",United States
96,47.694488,29.3416835,   (   ),932021994450833413,2020-02-16 16:17:50,    ,city,",  ", 
222,110.385989,-7.239416,jerapahbantet,932022550116175872,2020-05-15 13:43:38,"Ambarawa, Indonesia",city,"Ambarawa, Indonesia",Indonesia
222,112.743,-7.2647,- Oktarika -,932022654,2020-06-06 10:13:07,indonesia,city,"Genteng, Indonesia",Indonesia
113,-9.5101995,29.2216535,Shay ,932022934188773376,2020-05-10 01:29:44,,city,"Ifrane Atlas Saghir, Royaume du Maroc",Royaume du Maroc
49,-78.5566815,-0.16657049999999998,Ramiro Gmez,932022969643171842,2020-02-14 14:59:53,"Quito, Ecuador",city,"Quito, Ecuador",Ecuador
193,100.61146600000001,13.651448,,93202307,2020-04-10 06:05:34,london,poi,189 Resort,
88,139.5210305,35.557981,,932023108952760320,2020-03-27 03:25:12,  ,city,"Yokohama-shi Aoba, Kanagawa",Japan
27140,-90.1580165,32.230987,jaquerius :),932023615792603137,2020-02-15 18:46:39,"Mississippi, USA",city,"Jackson, MS",United States
46980,-91.042766,31.876037,jaquerius :),932023615792603137,2020-02-17 06:00:45,"Mississippi, USA",poi,Alcorn State University,United States
25620,-89.338039,31.310637,jaquerius :),932023615792603137,2020-03-07 15:35:57,"Mississippi, USA",city,"Hattiesburg, MS",United States
32940,-88.64202499999998,31.6738545,jaquerius :),932023615792603137,2020-03-08 01:52:37,"Mississippi, USA",city,"Waynesboro, MS",United States
29860,-89.1491505,31.7028555,jaquerius :),932023615792603137,2020-03-12 22:34:16,"Mississippi, USA",city,"Laurel, MS",United States
32940,-88.64202499999998,31.6738545,jaquerius :),932023615792603137,2020-03-13 19:43:58,"Mississippi, USA",city,"Waynesboro, MS",United States
46980,-91.042766,31.876037,jaquerius :),932023615792603137,2020-04-14 02:07:03,"da county, MS",poi,Alcorn State University,United States
32940,-88.64202499999998,31.6738545,jaquerius :),932023615792603137,2020-04-14 22:57:34,"da county, MS",city,"Waynesboro, MS",United States
27140,-90.1580165,32.230987,jaquerius :),932023615792603137,2020-05-12 22:51:38,"da county, MS",city,"Jackson, MS",United States
32940,-88.64202499999998,31.6738545,jaquerius :),932023615792603137,2020-05-14 21:06:55,"da county, MS",city,"Waynesboro, MS",United States
27140,-90.1580165,32.230987,jaquerius :),932023615792603137,2020-05-16 01:32:05,"da county, MS",city,"Jackson, MS",United States
32940,-88.64202499999998,31.6738545,jaquerius :),932023615792603137,2020-05-16 03:49:46,"da county, MS",city,"Waynesboro, MS",United States
29820,-115.223125,36.232915000000006,sway,932023636369686528,2020-03-01 06:56:32,"Nevada, USA",city,"Las Vegas, NV",United States
37980,-75.544487,40.091258,Jerry Cabrera,932024943365246977,2020-04-04 03:56:20,,poi,Great Valley Nature Center,United States
222,106.79668,-6.292728,Pulp BARTON,93202536,2020-03-09 23:54:33,Jakville South,city,"Cilandak, Indonesia",Indonesia
18140,-82.985772,39.9946835,Connie Palmer,932026219431940096,2020-02-18 00:27:47,"Ohio, USA",city,"Columbus, OH",United States
82,76.4763085,18.427528,Cvkreddy,932026267485872128,2020-02-15 16:58:28,,city,"Latur, India",India
49,-80.091193,-2.512995,Industrias Stark,932027778718986240,2020-03-08 20:34:09,,city,"Guayaquil, Ecuador",Ecuador
88,135.60422350000002,34.571586,OKAZA KISS,932028043551326209,2020-06-08 16:38:09, ,city,"Fujiidera-shi, Osaka",Japan
178,27.714258500000003,-32.9599725,Liyabona,932028136879001600,2020-04-16 19:48:24,"East London, South Africa",city,"Mdantsane, South Africa",South Africa
45,9.51083,56.02375,philiphoyos,93202826,2020-04-08 16:54:52,Denmark,city,"Silkeborg, Danmark",Denmark
211,-66.8589635,10.4579305,Juan Carlos Aponte H,93202837,2020-05-31 21:30:17,"T: 10.222287,-67.995436",city,"Nuestra Seora del Rosario de Baruta, Venezuela",Venezuela
186,-5.3554010000000005,35.850096,Javier Arce|,932028445923651584,2020-02-23 22:33:21,"Ceuta, Espaa",poi,Espaa - CEUTA,Reino de Marruecos
21,-49.2884605,-25.4952495,P,932028699033178113,2020-02-15 22:56:57,"Capo Raso, Curitiba",city,"Curitiba, Brasil",Brasil
119,-94.84003,18.21901,Jazmin Lizeth Gonzalez Hernandez,932028798081564672,2020-04-18 23:12:52,Minatitln,city,"Mecayapan, Veracruz de Ignacio de la Llave",Mxico
17460,-81.302022,41.680689,Leah Temple,932028833771020288,2020-03-23 19:52:51,"Mentor, OH",poi,SPC Sports,United States
49660,-80.841792,41.296174,Leah Temple,932028833771020288,2020-06-01 00:30:56,"Mentor, OH",city,"Champion Heights, OH",United States
151,7.422322500000001,10.511245,Shirley Gold,932028865886740480,2020-04-01 08:17:01,"Kaduna, Kaduna",city,"Kaduna, Nigeria",Nigeria
205,0.206629,51.4402245,Meridian VP FC,932030520,2020-02-19 23:14:27,"Charlton, London, SE7 8QS",city,"Dartford, South East",United Kingdom
57,14.5495815,48.368832,Meridian VP FC,932030520,2020-02-29 09:32:19,"Charlton, London, SE7 8QS",city,"Pregarten, sterreich",Austria
205,0.206629,51.4402245,Meridian VP FC,932030520,2020-03-05 18:16:11,"Charlton, London, SE7 8QS",city,"Dartford, South East",United Kingdom
36260,-112.0176885,41.1004905,Daken Barnes,932030598561984512,2020-03-12 03:00:19,"Clearfield, UT",city,"Clearfield, UT",United States
88,139.543121,35.7362125,death,932030760436899840,2020-02-14 11:17:21,,city, ,
82,85.353985,25.7498995,BABLU KUMAR,932030930,2020-06-10 02:14:06, ()  ,city,"Hajipur, India",India
88,139.62478950000002,35.453922,turumidake66,932031000825040896,2020-02-23 20:53:45,,city,  ,
42660,-122.2054375,47.306631,Frsh Bread,932031027140206599,2020-02-21 19:44:21,,city,"Auburn, WA",United States
119,-103.348324,20.592133,Jesus Roberto,932031703564062720,2020-03-08 04:39:47,"Tlaquepaque, Jalisco",city,"Tlaquepaque, Jalisco",Mxico
103,-10.696174000000001,6.271701999999999,Cyrus Amara Success Kuyateh,932031776326864897,2020-05-05 22:35:50," Paynesville City, Liberia ",poi,Paynesville City Hall,Liberia
33,-70.65468800000001,-33.497650500000006,Ma Alejandra Aguayo,932031999006728194,2020-02-14 00:22:04,,city,"San Miguel, Chile",Chile
71,9.942889,48.387547,Lio Wonka,932032238,2020-02-27 14:09:26,,city,"Ulm, Deutschland",Deutschland
21,-43.441578,-22.911421500000003,Val,932032239222841344,2020-05-18 21:15:36,"Rio de Janeiro, Brasil",city,"Rio de Janeiro, Brasil",Brasil
71,6.61504,51.0395,Bernd Lauter Photography,93203236,2020-03-03 07:48:25,"Based in Bonn, Germany",city,"Grevenbroich, Deutschland",Deutschland
200,29.0052225,41.0213205,hasan saka,93203245,2020-02-16 15:20:34,turkey,city,"stanbul, Trkiye",Turkey
26420,-95.39483,29.68256,808,932032465643896832,2020-02-23 20:37:47,"Houston, TX",city,"Houston, TX",United States
88,139.66756940000002,35.660650399999994,hideo54,932032663,2020-02-14 04:07:32,"Tokyo, Japan",city, ,
171,121.12055600000001,14.549868,Zhenna Dela Pea,932032774571147264,2020-05-05 22:17:30,Taytay Rizal,poi,At my room,Republic of the Philippines
119,-104.90338600000001,21.494436,Babu Ben Frik ,93203289,2020-02-19 03:22:55,"Tepic, Nayarit",poi,Taco Vato,Mxico
186,-16.686911000000002,28.058772,Ricardo Cubas,932033414,2020-02-17 17:03:34,,city,"Arona, Espaa",Espaa
88,139.67017650000003,35.847469,,93203349,2020-05-15 11:28:31,,city,  ,
85,12.80244816,43.87587365,RESEART,932034354,2020-03-01 09:26:59,"Roma, Lazio",city,"Pesaro, Marche",Italia
151,8.549453999999999,12.036443499999999,Prof Abdulmumin Ibrahim Waziri,932034424358801408,2020-05-04 08:14:51,Tudun wada,city,"Tudun Wada, Nigeria",Nigeria
38,-75.34533449999999,6.428846,Mateo Gmez C.,932034566,2020-03-02 01:39:13,Barbosa - Antioquia,city,"Barbosa, Colombia",Colombia
205,-0.33394250000000003,53.765817000000006,mehmet,932034827628498944,2020-02-29 12:16:44,"Hull, England",city,"Hull, England",United Kingdom
222,112.0518584,-7.733002000000001,Raraa,932035113419862016,2020-03-14 05:42:19,,city,"Papar, Indonesia",Indonesia
119,-103.62168,25.886198,Jos Santos Guilln Arguijo,932035256454017024,2020-03-14 19:51:40,"Durango, Mxico",poi,Bermejillo,Mxico
171,121.033212,14.5464995,FrancesAnn Mancenido,932035489,2020-02-15 22:46:49,"San Francisco, CA",city,"Makati City, National Capital Region",Republic of the Philippines
21,-53.5509335,-30.207065000000004,f,932035509513281536,2020-04-07 04:24:22,"So Sep, Brasil",city,"So Sep, Brasil",Brasil
30780,-92.342322,34.721886,Bryan Vault,932035565855428609,2020-03-11 17:50:52,"Little Rock, AR",city,"Little Rock, AR",United States
88,139.2957855,35.6581635,,932035771837464576,2020-02-25 04:05:59,,city, ,
38060,-111.7375655,33.4057545,Aray Michael Aromaz,932035917455400960,2020-05-03 19:19:42,Area 51,city,"Mesa, AZ",United States
21,-46.5955455,-23.682803,Adenilton Lima,932036340,2020-04-26 22:11:18,,city,"So Paulo, Brasil",Brasil
24,-123.123581,49.257639000000005,Jennifer Summer Ashley,932036643422269440,2020-04-26 22:06:16,,city,"Vancouver, British Columbia",Canada
178,27.699714500000002,-26.230929000000003,Mosa_hnA,932037013066473478,2020-05-19 05:41:59,"Mohlakeng, South Africa",city,"Mohlakeng, South Africa",South Africa
205,-3.205818,55.946507,BRiAN QUiNN,932037243585400833,2020-02-28 15:14:44,Ireland,poi,Filmhouse,United Kingdom
51,-6.267696,53.350243999999996,BRiAN QUiNN,932037243585400833,2020-03-04 21:04:49,Ireland,poi,Cineworld,Ireland
171,124.09611399999999,13.596766,Jefson,932037748977934336,2020-05-21 02:51:33,"Virac, Bicol Region - UPLB",poi,Port Of San Andres,Republic of the Philippines
21,-43.315089,-22.857136999999998,Victor ,932037795354415105,2020-02-15 22:29:11,"Belford Roxo, Brasil",poi,Morro do Juramento,Brasil
88,132.7088955,33.880532,Aoba,932038065597513728,2020-03-05 07:05:01,,city, ,
88,135.46139135,34.46791925,good  speed 501,932038873525379073,2020-02-15 04:15:13,,city, ,
35300,-73.05374499999998,41.224028000000004,Genevieve Bernatchez,932038875127562240,2020-02-20 16:06:12,"Irvine, CA",city,"Milford, CT",United States
21,-43.3697645,-22.7854705,MC Marcelinho ,932038963463970819,2020-02-14 01:05:30,,city,"So Joo de Meriti, Brasil",Brasil
34820,-78.688827,33.82451399999999,@ladychuahua,932039252,2020-03-25 23:01:50,,city,"North Myrtle Beach, SC",United States
88,139.77348700000002,35.714675,,932039751065944064,2020-04-06 06:15:52, ,poi, (Ueno Park),Japan
96,47.713665999999996,29.318407500000003,  ,932040092,2020-04-29 21:22:15,"Manchester, England ",city," ,  ", 
8,-56.973183,-37.256524,llh HAKH-barsinson [(;},932040556758425601,2020-03-19 02:53:12,"Phoenix, South Africa",city,"Villa Gesell, Argentina",Argentina
99,35.487973,33.901555,Izzat Kreidieh,93204067,2020-03-04 15:29:10,Beirut,poi,Corniche El Manara,Lebanon
19660,-81.0442415,29.2917005,Gerald Scott,932040673729105920,2020-02-14 22:12:20,,city,"Ormond Beach, FL",United States
88,139.84049199999998,35.8244765,,932040699976892418,2020-06-06 20:16:33,,city, ,
88,139.742604,35.692772,junya OHNO,93204087,2020-03-30 09:17:28,3-8-11,poi,,
21,-44.9367105,-20.113882999999998,Isa  bela,932041494906667010,2020-05-17 02:46:56,"Divinpolis, Brasil",city,"Divinpolis, Brasil",Brasil
88,130.439438,33.5816955,,932041720765693952,2020-03-12 08:51:02,,city,  ,
24,-64.80061649999999,46.114532000000004,David Tingley,932041766571773954,2020-02-14 16:22:08,"Moncton, New Brunswick",city,"Moncton, New Brunswick",Canada
205,-1.8906405,52.493966500000006,Mark Cornbill,93204184,2020-05-24 11:02:19,"Birmingham, UK",city,"Birmingham, England",United Kingdom
119,-100.2935915,25.6417185,,932041961539887104,2020-02-15 18:39:17,Mi Casa,city,"Monterrey, Nuevo Len",Mxico
21,-38.50825037,-12.99755806,eu que lute,93204197,2020-03-07 18:31:45,,city,"Salvador, Brazil",Brazil
35620,-73.320828,40.881215000000005,Ricky Leon,932041978048638976,2020-03-27 18:43:49,,city,"East Northport, NY",United States
200,35.384702000000004,36.56428,Meri Gltekin,932042391023996929,2020-06-11 12:58:32,WORLD,poi,Karata Sahili,Trkiye
19100,-97.123582,33.194199,Mrs. Glock ,93204272,2020-03-16 20:55:05,"Texas, USA",poi,Applebee's Grill + Bar,United States
88,139.810157,35.6450615,AUDI,932043016432271360,2020-05-18 06:35:17,,city, ,
21,-43.018208,-22.821465,UBUNTO,932043322172035072,2020-02-17 01:35:37,"Raul Veiga, So Gonalo",city,"So Gonalo, Brasil",Brasil
200,29.0052225,41.0213205,g/g,932043621381103616,2020-04-27 18:38:38,"stanbul, Trkiye",city,"stanbul, Trkiye",Trkiye
33,-71.0158865,-29.834815000000003,JUAN CARVAJAL,93204364,2020-02-15 08:34:12,RENGO HOUSE,city,"La Serena, Chile",Chile
205,-2.8516565,53.415257,Kevin Storey,932043686,2020-02-15 11:29:37,United Kingdom,city,"Huyton-with-Roby, England",United Kingdom
9,152.9931965,-27.382143,Just Jason,932043899257761792,2020-02-15 01:06:43,,city,"Brisbane, Queensland",Australia
88,135.79389799999998,34.922236,,932044000785178624,2020-02-14 09:38:57,,city,"Kyoto City Fushimi Ward, Kyoto",Japan
12580,-76.51079200000001,38.969966,Brian Kramer,932044001007501312,2020-02-28 15:50:18,"Silver Spring, MD",city,"Annapolis, MD",United States
47900,-76.8537235,38.9615525,Brian Kramer,932044001007501312,2020-02-28 22:16:42,"Silver Spring, MD",city,"Lanham, MD",United States
21,-46.5955455,-23.682803,A procura de um emprego,932044065394298880,2020-02-20 22:24:43,"So Paulo, Brasil",city,"So Paulo, Brasil",Brasil
8,-57.5814305,-38.01158750000001,Sergio Pafundi,932044422,2020-05-06 02:48:58,"Mar del Plata, Argentina",city,"Mar del Plata, Argentina",Argentina
65,2.1500045,48.896420000000006,Nahas,932044670,2020-02-14 09:33:24,Paris,city,"Chatou, France",France
21,-43.0596095,-22.904549000000006,insta: tayline.almeida,932044795115114496,2020-02-20 21:59:31,"Fonseca, Niteri         ",city,"Niteri, Brasil",Brasil
88,136.948527,34.9677375,kazukazugood,932044966322302976,2020-02-16 19:55:27, ,city, ,
186,-14.010143,28.682979,pablo,932045002515066881,2020-05-26 13:03:08,"Granada, Spain",poi,El Cotillo,Espaa
21,-43.441578,-22.911421500000003,BELIN,932045151052103680,2020-03-12 20:31:32,,city,"Rio de Janeiro, Brasil",Brasil
211,-70.0758975,10.1708205,Daniel Hidalgo,932045288428261376,2020-03-10 02:49:58,,city,"Carora, Venezuela",Venezuela
175,39.6540485,24.462089000000002,,932045577889730562,2020-03-01 12:47:25,,city," ,   ",  
29820,-115.149,36.1675,Jay Dolla,932045588740186112,2020-03-09 20:25:53,"Las Vegas, NV",city,"Las Vegas, NV",United States
193,102.7174335,16.075454999999998,  ,932045638547599360,2020-06-03 08:45:18,"Bangkok, Thailand",city,", ",
41860,-122.59844950000002,37.990377,ARTI NOEL,932045686895394816,2020-03-02 06:28:42,"San Rafael, CA",city,"Fairfax, CA",United States
33,-70.60265749999998,-33.454414,Pancho Flores,93204603,2020-06-10 22:39:02,Chile,city,"uoa, Chile",Chile
16980,-87.6991955,42.045437,Chris Green,932046246814126080,2020-02-16 03:30:14,"Golf, IL",city,"Evanston, IL",United States
38,-75.554389,6.311329,Jhonatan Muoz Gmez,932046725409370112,2020-02-19 23:34:07,"Medelln, Colombia",poi,Universidad Minuto De Dios,Colombia
19100,-97.2650435,32.82036,Anita Gutierrez,932046798507724800,2020-03-02 09:58:57,,city,"Haltom City, TX",United States
21,-47.796623,-15.776254000000002,neide,932046800613265409,2020-02-18 19:09:07,"Braslia, Brasil",city,"Braslia, Brasil",Brasil
35620,-73.86795372,40.823924100000006,Sabrina Franza,93204707,2020-02-16 00:46:11,"New York, NY",city,"Bronx, NY",United States
193,100.57210922,13.76952832,eKU  ,93204716,2020-02-14 14:04:16,"Bangkok, Thailand",city,"Din Daeng, Thailand",Thailand
88,125.302118,24.8252625,,932047522050146304,2020-02-14 11:17:20, ,city,"Miyakojima-shi, Okinawa",Japan
35620,-74.70202549999998,40.91221450000001,RD1779,932047570783866880,2020-03-26 09:27:19,"New Jersey, USA",city,"Stanhope, NJ",United States
21,-43.907333,-22.92258,A l e x ,932047593626128384,2020-05-09 20:17:54,Itac,poi,Cerrado (Itacuru),Brasil
82,78.06533999999998,16.3577935,BHARath,932048258607693824,2020-06-07 02:38:23,"Chaitanyapuri, Hayathnagar",city,"Wanparthy, India",India
21,-49.261299,-16.642782500000003,Amanda,932048452141318144,2020-02-14 22:22:13,"Goinia, Brasil",city,"Goinia, Brasil",Brasil
8,-58.508385,-34.529882,JR Girl,932048542407020544,2020-03-14 18:51:33,"Vicente Lpez, Argentina",city,"Vicente Lpez, Argentina",Argentina
120,102.2989755,2.2501729999999998,aliff imra,932048678,2020-03-06 10:19:26,#YNWA,city,"Bukit Katil, Melaka",Malaysia
21,-46.874522,-17.863193000000006,Dnis Vieira,932048725156999168,2020-04-05 20:57:12,"Vazante, Brasil",city,"Vazante, Brasil",Brasil
205,-0.2631405,51.5651955,Mahadeva...pappu,932048788935577600,2020-02-21 00:13:24,"City of London, London",city,"Brent, London",United Kingdom
88,138.85351699999998,37.447086999999996,,932049245506453505,2020-02-14 23:51:38, ,poi, ,
21,-43.441578,-22.911421500000003,,932049615742029824,2020-03-17 21:29:30,021,city,"Rio de Janeiro, Brasil",Brasil
21,-43.3697645,-22.7854705,b e a,932049991295815680,2020-02-17 22:09:24,"Leste inferior, Nilton Santos ",city,"So Joo de Meriti, Brasil",Brasil
82,77.095086,28.638489500000002,Dr Rajashekaran Pilli,932050343294152704,2020-02-15 12:21:36,Global ,city,"New Delhi, India",India
120,102.27644599999999,6.09096,,932050386055081984,2020-04-03 10:32:04,Bangi,poi,pondok pasir tumboh,Malaysia
171,125.61348999999998,7.156510000000001,,932050400810696704,2020-04-04 08:56:05,Koronadal city,poi,"Millenium Village, Indangan",Republic of the Philippines
193,100.54970263,13.81947066,Sirirat,93205042,2020-03-19 00:30:40,,city,"Chatuchak, Thailand",Thailand
82,73.180515,22.276914,Rv D,93205067,2020-04-08 16:50:38,Vadodara,city,"Vododara, India",India
186,-5.486558499999999,36.1132635,Jose Miguel,932050682877706240,2020-05-23 12:30:31,"Algeciras, Espaa",city,"Algeciras, Spain",Spain
21,-43.441578,-22.911421500000003,Parquia Santa Luzia,93205103,2020-02-17 01:41:57,"Rio de Janeiro, Brasil",city,"Rio de Janeiro, Brasil",Brasil
-9999,122.947014,25.1233055,For fun,932051535495704579,2020-06-04 23:27:22,"Taipei City, Taiwan",city,"Yilan County, Taiwan",Taiwan
242,121.717485,25.123825,For fun,932051535495704579,2020-06-05 12:55:53,"Taipei City, Taiwan",city,"Keelung City, Taiwan",Taiwan
24660,-79.85736349999998,36.090397,Tyler Arnold,932051539065176065,2020-02-17 15:58:13,"Greensboro, NC",city,"Greensboro, NC",United States
21,-47.898992,-15.784025,a+ mulamba,932051650281426947,2020-02-16 19:31:38,"Braslia, Brasil",poi,Estdio Nacional de Braslia Man Garrincha,Brasil
178,30.768858,-30.044009499999998,N Muthwa,932051796,2020-02-16 05:38:06,"KZN, Durban",city,"Mapumulo, South Africa",South Africa
12580,-76.62048200000002,39.284713,Lenny Stem,932051836936257537,2020-03-01 02:45:28,,city,"Baltimore, MD",United States
35620,-73.8311875,40.6708795,Shaheda begum,932052008,2020-05-06 15:39:23,"Ozone Park, Queens",city,"Queens, NY",United States
23060,-85.026794,41.057716,Adam Gaddy,932052472209838080,2020-02-20 13:22:42,"Fort Wayne, IN",city,"New Haven, IN",United States
12140,-85.05972750000002,41.374191,Adam Gaddy,932052472209838080,2020-02-25 08:15:35,"Fort Wayne, IN",city,"Auburn, IN",United States
23060,-85.026794,41.057716,Adam Gaddy,932052472209838080,2020-02-26 23:08:28,"Fort Wayne, IN",city,"New Haven, IN",United States
12140,-85.05972750000002,41.374191,Adam Gaddy,932052472209838080,2020-03-16 11:08:30,"Fort Wayne, IN",city,"Auburn, IN",United States
23060,-85.026794,41.057716,Adam Gaddy,932052472209838080,2020-03-20 14:07:44,"Fort Wayne, IN",city,"New Haven, IN",United States
12140,-85.05972750000002,41.374191,Adam Gaddy,932052472209838080,2020-04-22 05:40:15,"Fort Wayne, IN",city,"Auburn, IN",United States
23060,-85.026794,41.057716,Adam Gaddy,932052472209838080,2020-04-23 19:21:41,"Fort Wayne, IN",city,"New Haven, IN",United States
88,141.4078,43.0944955,,932052874795683840,2020-03-07 12:09:29,  ,city,"Sapporo-shi Higashi-ku, Hokkaido",Japan
120,110.333028,1.4292295,Shamyr Easmeth Alluwie,932053101694951425,2020-05-05 09:26:32,Malaysia,city,"Kuching, Sarawak",Malaysia
21,-43.3697645,-22.7854705,  ,932053537936347136,2020-05-05 11:49:10,aonde os cop no entra ,city,"So Joo de Meriti, Brasil",Brasil
38060,-112.1246765,33.5528625,JF ,932053794954682369,2020-02-20 21:30:51,AZ ,city,"Phoenix, AZ",United States
88,139.665978,35.282236,,932053988819607552,2020-03-22 04:58:47,,poi,Honey Bee,
200,35.28488,37.002826500000005,zzet Doan,93205400,2020-03-01 05:16:23,"Adana, Trkiye",city,"Adana, Trkiye",Trkiye
178,30.9725795,-29.900636,Semonkong Lodge,932054214,2020-05-08 07:34:47,Lesotho,city,"Durban, South Africa",South Africa
113,-4.9753235,34.0609515,,932054622709088257,2020-03-02 08:14:00,Belgique,city,"Fs Mdina, Royaume du Maroc",Royaume du Maroc
128,3.8939735,50.383439,,932054622709088257,2020-03-15 19:15:26,Belgique,city,"Frameries, Belgique",Belgique
151,3.5103400000000002,6.70569,Oluwafemi Aina,93205477,2020-05-10 07:28:50,"Lagos, Nigeria",city,"Ikorudu, Nigeria",Nigeria
88,135.225383,34.7258585,,932055005313372162,2020-02-16 04:30:11,  ,city,  ,
41700,-98.5406515,29.417501,(3 Commission Slots!) Senri_Kitty,932055055183867904,2020-03-09 17:08:07,"San Antonio, TX",city,"San Antonio, TX",United States
8,-58.446241,-34.659632,Tati s. Gonzlez,932055166773231617,2020-02-29 05:21:11,Argentina,city,"Villa Soldati, Argentina",Argentina
200,29.0052225,41.0213205,Duygu,932055395941650433,2020-02-14 18:19:55,"stanbul, Trkiye",city,"stanbul, Trkiye",Trkiye
12060,-84.7634,33.886863000000005,moni ,932055796338356224,2020-02-15 15:38:31,"Hiram, GA",city,"Hiram, GA",United States
51,-6.247621499999999,53.3549025,Cosmic Boulevard,932055870069989376,2020-03-31 08:42:09,"Dublin City, Ireland",city,"Dublin City, Ireland",Ireland
175,44.3223565,17.5818875, .,932056481222070273,2020-03-01 16:12:56,,city,"Najran, Kingdom of Saudi Arabia",Kingdom of Saudi Arabia
152,4.762123,52.30857,Matty Jarmaine,932057118240333824,2020-03-16 14:01:02,what's it to you pal?,poi,Amsterdam Airport Schiphol (AMS),The Netherlands
205,-2.9820740000000003,53.0534265,Matty Jarmaine,932057118240333824,2020-03-30 11:49:25,what's it to you pal?,city,"Wrexham, Wales",United Kingdom
88,135.4067505,34.507212,rimicky,932057426605391872,2020-05-16 08:25:10,,city,"Izumiotsu-shi, Osaka",Japan
26420,-94.86404399999999,29.855261,office e girl,932057506465173506,2020-03-02 21:11:17,The Nether,poi,Dollar General,United States
222,115.162057,-8.725477999999999,.,932057561901051907,2020-02-19 09:57:05,"Kuta, Indonesia",city,"Kuta, Indonesia",Indonesia
193,100.66065,13.931521,shabuism,93205816,2020-02-18 03:16:38,,city,"Khu Khot, Thailand",Thailand
21,-46.564870500000005,-23.624796,Douglas Caversan,93205818,2020-03-06 10:31:36,Brasil,city,"So Caetano do Sul, Brasil",Brazil
21,-35.09057,-6.18847,Leonardo Silva F. ,93205829,2020-02-14 14:28:33,Chile,city,"Tibau do Sul, Brasil",Brasil
33,-71.48548341,-34.47464326,Leonardo Silva F. ,93205829,2020-02-24 18:25:57,Chile,city,"Peralillo, Chile",Chile
119,-87.367449,21.523776,Leonardo Silva F. ,93205829,2020-03-01 00:16:51,Chile,city,"Isla Mujeres, Quintana Roo",Mxico
33,-70.59569282,-33.3908467,Leonardo Silva F. ,93205829,2020-03-27 15:36:15,Chile,city,"Vitacura, Chile",Chile
21,-35.13676643,-5.99745656,Leonardo Silva F. ,93205829,2020-05-10 14:36:39,Chile,city,"Nsia Floresta, Brasil",Brasil
21,-51.14122682,-29.85702965,Carla Chiesa Festas,932059017567928320,2020-02-14 03:40:59,Carla Chiesa Festas,city,"Esteio, Brasil",Brasil
175,44.3223565,17.5818875,  ,932059143405555712,2020-02-25 15:27:08,",   ",city,",   ",  
46340,-95.30748100000001,32.249793,yasEEn ,932059269205250048,2020-02-22 10:07:22,"Tyler, TX",poi,Starbucks,United States
222,107.582278,-6.9060830000000015,-Be support system,932059317406113793,2020-03-28 00:53:50,Jatuh Cinta kpd Jeno Lee,city,"Andir, Indonesia",Indonesia
41180,-90.786302,38.779639,MJ,932059394,2020-02-14 23:51:08,"Lake St Louis, MO",city,"Lake St Louis, MO",United States
8,-58.583605000000006,-34.600632000000004,Salud Para Todos,932059704775380993,2020-03-23 23:08:49,Ciudad Autnoma de Buenos Aire,city,"Caseros, Argentina",Argentina
8,-68.849751,-32.9301425,t,932059833154572288,2020-03-01 08:34:15,,city,"Godoy Cruz, Argentina",Argentina
88,139.69262600000002,35.666851,,932059852293128192,2020-02-14 09:36:27, ,city, ,
26420,-95.4464865,29.838495,Kendra Kelley,932059856558845952,2020-02-14 03:48:10,Aldine Independent School Dist,city,"Houston, TX",United States
205,-2.295038,53.486359,Terence Howell,93205996,2020-03-13 12:00:31,Salford,poi,Boots Pharmacy,United Kingdom
171,121.320718,14.056015499999999,Thor,932060219588321280,2020-02-18 12:40:23,San pablo city,city,"San Pablo City, Calabarzon",Republic of the Philippines
21,-43.441578,-22.911421500000003,Byra Bello,932060354410156032,2020-02-29 21:52:27,"Rio de Janeiro, Brasil",city,"Rio de Janeiro, Brasil",Brasil
24,-97.1397,49.8873,Beyond Limits Production,932060654093131776,2020-02-15 16:13:27,"Winnipeg, Manitoba",city,"Winnipeg, Manitoba",Canada
200,27.006511,38.4079305,kzecemkemmelsin,932060731641655296,2020-02-14 08:04:43,"zmir, Trkiye",city,"zmir, Trkiye",Trkiye
48,-70.75202349999999,19.4558675,dr_Romeus,932060833005350915,2020-05-12 11:44:32,"Santiago, Dominican Republic",city,"Santiago, Dominican Republic",Dominican Republic
24,-103.818466,50.7936185,Braidy Brown,932060967768293379,2020-02-15 14:42:07,,city,"Fort San, Saskatchewan",Canada
82,78.46509449999998,17.3886495,Anand Peri,932061140040822784,2020-04-03 10:10:45,"Hyderabad, India",city,"Hyderabad, India",India
88,130.783439,32.8893835,,932061183598764033,2020-03-14 23:04:02,,city,"Koshi-shi, Kumamoto",Japan
25220,-90.4793805,30.482053499999996,FSHS Lady Lions Basketball,932061684545589248,2020-02-18 16:19:56,,city,"Hammond, LA",United States
82,85.10047,20.83925,Rajendra Kumar Pradhan,932061861155020800,2020-03-02 07:31:12,India,city,"Anugul, India",India
178,30.8182635,-27.0157765,I Am King Arthur,932061889,2020-02-17 06:23:35,Piet Retief Mpumalanga,city,"Piet Retief, South Africa",South Africa
21,-43.441578,-22.911421500000003,cla  ,932062006517092352,2020-03-27 04:05:07,,city,"Rio de Janeiro, Brasil",Brasil
29820,-115.13516499999999,36.060964500000004,Queen of The Nile,932062435275546624,2020-02-14 07:47:36,"Las Vegas, NV",city,"Paradise, NV",United States
186,1.32650551,42.21030723,Fabio Fava,93206260,2020-05-22 12:45:58,"Organy, Lleida, Catalunya",city,"Organy, Espaa",Spain
34820,-78.0197,34.2364,Stephen Zerio,93206317,2020-03-03 19:23:14,"T: 41.535748,-72.763373",city,"Leland, NC",United States
25540,-72.67995017,41.73366564,Stephen Zerio,93206317,2020-06-08 19:32:35,"T: 41.535748,-72.763373",city,"Hartford, CT",United States
39580,-78.657837,35.8439815,Gio Barrios ,932063381695102977,2020-02-21 02:11:09,"Cedar Rapids, IA",city,"Raleigh, NC",United States
49180,-80.244984,36.0871685,Gio Barrios ,932063381695102977,2020-02-24 21:27:50,"Cedar Rapids, IA",city,"Winston-Salem, NC",United States
39580,-78.657837,35.8439815,Gio Barrios ,932063381695102977,2020-03-02 01:57:07,"Cedar Rapids, IA",city,"Raleigh, NC",United States
20500,-78.8954405,35.9909825,Gio Barrios ,932063381695102977,2020-03-03 03:45:56,"Cedar Rapids, IA",city,"Durham, NC",United States
39580,-78.657837,35.8439815,Gio Barrios ,932063381695102977,2020-03-04 00:51:29,"Cedar Rapids, IA",city,"Raleigh, NC",United States
16300,-91.6828545,41.976528,Gio Barrios ,932063381695102977,2020-04-05 00:08:42,"Cedar Rapids, IA",city,"Cedar Rapids, IA",United States
9,147.0,-42.0,Rob Mallett,932063532,2020-05-02 10:50:34,"Sydney, New South Wales",neighborhood,"Arthurs Lake, Tasmania",Australia
35380,-90.026039,29.9038355,Andrea Johnson,932063580173762560,2020-05-11 20:39:59,"Terrytown, LA",city,"Terrytown, LA",United States
21,-38.51989,-3.789768,coelhinha da saia rodada,932063705692504066,2020-02-14 03:02:12,fortal city,city,"Fortaleza, Brasil",Brasil
175,39.6540485,24.462089000000002,  (   ),932063878179147776,2020-04-08 00:47:52," ,   ",city," ,   ",  
120,111.55,2.316667,Wainnaa,932064007,2020-05-24 11:19:54,"ROXY , CAIRO , EGYPT",city,"Maradong, Sarawak",Malaysia
175,39.6540485,24.462089000000002,Saleh Dashisha,932064422,2020-02-14 10:30:13,"Al Madinah Al Munawwarah, Kingdom of Saudi Arabia",city,"Al Madinah Al Munawwarah, Kingdom of Saudi Arabia",Kingdom of Saudi Arabia
88,139.987616,35.720434000000004, ,932064434175873024,2020-03-29 05:56:20,,poi,,
200,30.4946315,39.7868135,Yasin Ylmaz,932064498,2020-02-20 21:11:01,Eskiehir,city,"Eskiehir, Trkiye",Trkiye
24,-73.55311111,45.48119444,Owen the Canadian Redneck,93206472,2020-03-18 20:42:47,"Cardigan, Prince Edward Island",city,"Montral, Qubec",Canada
37980,-75.5654,39.6647,Dana Herbert,93206508,2020-04-10 04:04:01,"Delaware, Philadelphia",city,"New Castle, DE",United States
69,0.8974834999999999,5.7922235,Addiscohitz Africa,932065370239918081,2020-03-05 02:59:12,"Anloga, Volta/Ghana West",city,"Anloga, Ghana",Ghana
16980,-88.1443505,41.9782565,"Green Extraction Technologies, LLC",932065955362037760,2020-02-18 04:28:37,Chicagoland  / Virginia ,city,"Hanover Park, IL",United States
21,-51.675784,-27.276544,aKaly,932066443532914688,2020-06-10 03:48:17,,city,"Ouro, Brasil",Brasil
128,4.321826000000001,50.822247999999995,StoryMe,932066570,2020-02-20 10:28:24,Belgium,poi,Wild Gallery,Belgium
205,-3.3144405,57.646341500000005,Alasdair MacNeill ,93206695,2020-02-15 13:41:46,Inverness,city,"Elgin, Scotland",United Kingdom
21,-50.8682765,-30.203618,rafa ,932067124163604480,2020-02-15 17:45:13,"Viamo, Brasil",city,"Viamo, Brasil",Brasil
24,-79.27256949999999,43.629311,Chris Clarke,9320672,2020-02-18 01:28:18,"Toronto, Ontario CANADA",city,"Toronto, Ontario",Canada
175,46.685077,24.7219435,Mohrah,932067663630782464,2020-02-18 15:42:32,Riyadh,city,"Riyadh, Kingdom of Saudi Arabia",Kingdom of Saudi Arabia
88,130.9755615,33.7849385,,932067692370018306,2020-02-17 07:49:10,,city,"Kanda-machi, Fukuoka",Japan
88,139.66857522,36.22786228,Winbal.club,932067692705595392,2020-02-15 07:20:08,Japan Tochigi Watarase,city, ,
175,37.949631,26.800553999999998,Winbal.club,932067692705595392,2020-04-07 06:45:23,Japan Tochigi Watarase,poi,  | Madain Saleh,  
88,139.66857522,36.22786228,Winbal.club,932067692705595392,2020-05-13 06:43:08,Japan Tochigi Watarase,city, ,
21,-43.441578,-22.911421500000003,Insta:KetlenMiranda01 ,932067922771632128,2020-03-30 00:33:48,"Las Vegas, NV",city,"Rio de Janeiro, Brasil",Brasil
33100,-80.24977249999999,26.270261,Hugues Archelus,932068086890532864,2020-02-17 02:31:57,"Coral Springs, FL",city,"Coral Springs, FL",United States
171,125.14252749999999,6.144298,Praise \prz\,932068097132859392,2020-02-21 11:05:16,Mindanao State University-GSC,city,"Gen. Santos City, Soccsksargen",Republic of the Philippines
21,-43.441578,-22.911421500000003,mvdnh ,932068253349941250,2020-02-14 07:41:19,cg,city,"Rio de Janeiro, Brasil",Brasil
171,121.0652415,14.504111499999999,Sandy,932068418064236545,2020-02-14 09:06:09,Republic of the Philippines,city,"Taguig City, National Capital Region",Republic of the Philippines
21,-49.261299,-16.642782500000003,,932068477858471936,2020-02-14 16:01:42,,city,"Goinia, Brasil",Brasil
88,133.3334845,34.522313999999994,,932068481364660224,2020-06-09 00:42:23, ,city, ,
120,103.30154399999999,2.0291759999999996,frq,932068554,2020-05-29 06:07:45,kluang johor,poi,Taman Sri Kluang,Malaysia
211,-69.30913515,10.06842373,iAccess,932068555159425025,2020-03-25 17:08:51,,city,"Barquisimeto, Venezuela",Venezuela
21,-47.796623,-15.776254000000002,Francisco Carlos Monteiro Filho,932068655281659904,2020-03-26 02:55:16,"Braslia, Brasil",city,"Braslia, Brasil",Brasil
21,-43.446886000000006,-22.8025775,Allcia.,932068852221046784,2020-02-18 11:15:32,Mesquita,city,"Mesquita, Brasil",Brasil
21,-41.938126000000004,-22.531934,rayca,932069184774733824,2020-03-08 21:16:59,ro ,poi,Praia Boca da Barra,Brasil
21,-46.6001745,-23.588303, ,9320692,2020-02-15 01:16:49,So Paulo,neighborhood,"Ipiranga, So Paulo",Brasil
119,-99.21753000000001,19.642879999999998,Pam ,93206951,2020-04-05 06:16:19,Mxico,poi,Casa Club Balboa,Mxico
21,-47.796623,-15.776254000000002,Adriano Guimares,932069526874869761,2020-02-14 02:48:12,"Distrito Federal, Brasil",city,"Braslia, Brasil",Brasil
39300,-71.32649,41.7495,Barrington Farm School,932069601009074176,2020-02-24 00:51:57,"Barrington, RI",city,"Barrington, RI",United States
32820,-89.94995399999998,34.3088885,9_reasons1k,932069799605227521,2020-02-14 22:13:03,"Columbus, MS",city,"Batesville, MS",United States
18060,-88.4093905,33.5076145,9_reasons1k,932069799605227521,2020-02-21 09:04:21,"Columbus, MS",city,"Columbus, MS",United States
47580,-83.641199,32.58263,9_reasons1k,932069799605227521,2020-05-06 19:02:54,"Columbus, MS",city,"Warner Robins, GA",United States
18060,-88.4093905,33.5076145,9_reasons1k,932069799605227521,2020-05-17 17:12:09,"Columbus, MS",city,"Columbus, MS",United States
88,140.36130300000002,36.2043175,nob36,932070084960444416,2020-02-19 07:14:23,,city,"Omitama-shi, Ibaraki",Japan
171,121.11279850000001,15.15978,,932070312434216960,2020-02-14 09:36:30,,city,"San Miguel, Central Luzon",Republic of the Philippines
222,102.8192365,0.8534665000000001,Nickky Suhendra,932070781399396352,2020-02-16 01:45:40,"Meranti, Riau, Indonesia",city,"Tebing Tinggi, Indonesia",Indonesia
88,138.585227,35.656211,@,932071144621879296,2020-05-28 06:26:54,,poi,   Rei,
24,-123.123581,49.257639000000005,Alvaro Cubas,932071280563519488,2020-04-14 23:38:35,"Vancouver, British Columbia",city,"Vancouver, British Columbia",Canad
33,-73.1294,-40.5761,Daniel Santibaez,932071628,2020-04-01 00:49:28,Puerto Montt,city,"Osorno, Chile",Chile
171,121.1419275,14.033576,daylight,932071733405786112,2020-02-14 12:28:02,magpantay,city,"Malvar, Calabarzon",Republic of the Philippines
171,123.846722,10.3748325,tar,932072247098933248,2020-02-15 04:16:55,teudoongie,city,"Cebu City, Central Visayas",Republic of the Philippines
88,139.74758500000002,35.623084999999996,YURIKA,932072482969853952,2020-04-24 00:59:29, ,poi,breadworks,Japan
17460,-81.70399841,41.40486706,CLEVELAND DL HEAD / TAP IN!,932072805755211776,2020-05-31 04:25:07,"Cleveland, OH",city,"Parma, OH",United States
38,-74.24367099999999,4.2622835,nancy judith paez,932073020,2020-03-24 19:00:44,,city,"Bogot, D.C., Colombia",Colombia
120,102.25394449999999,2.221114,-,932073082591657985,2020-02-18 13:43:21,Malaysia,city,"Pringgit, Melaka",Malaysia
69,-0.27268794,5.62440119,Stephen Bossman Burner Jr,932073109271777280,2020-06-03 08:16:34,"Accra, Ghana",city,"Accra, Ghana",Ghana
88,139.6735625,35.76839800000001,granblue_arty,932073131182759937,2020-03-20 07:19:59,,city, ,
82,84.7878925,26.637911499999998,Gaurav Kumar Guddu,932073286955040768,2020-02-18 16:11:47,"Motihari, India",city,"Motihari, India",India
119,-86.86156700000001,21.102866,Lili's De Teyer,932073304554377217,2020-02-17 19:48:47,Cancn,poi,Comunidad De Fe,Mxico
85,12.6423065,41.712076,CORRADI61@HOTMAIL.IT,932073462465794048,2020-02-28 09:49:12,Pavona. Albano Laziale (RM),city,"Albano Laziale, Lazio",Italia
85,12.221275,41.880655499999996,rejon,932073770034049024,2020-02-24 09:30:22,,city,"Fiumicino, Lazio",Italy
41180,-90.247824,38.653771,rejon,932073770034049024,2020-03-10 15:53:37,"St Louis, MO",city,"St Louis, MO",United States
32180,-92.747493,38.9612535,rejon,932073770034049024,2020-05-11 19:13:34,"St Louis, MO",city,"Boonville, MO",United States
41180,-90.247824,38.653771,rejon,932073770034049024,2020-05-14 16:11:48,"St Louis, MO",city,"St Louis, MO",United States
21,-42.1347125,-22.9346425,rayane ,932073796084883457,2020-02-24 20:53:13,021,city,"Arraial do Cabo, Brasil",Brasil
26420,-95.4464865,29.838495,  ,932075166426894337,2020-02-14 05:45:25,"Houston, TX",city,"Houston, TX",United States
41700,-98.3036705,29.550859000000006,  ,932075166426894337,2020-05-23 23:47:32,"Houston, TX",city,"Universal City, TX",United States
26420,-95.4464865,29.838495,  ,932075166426894337,2020-05-26 01:39:30,"Houston, TX",city,"Houston, TX",United States
200,35.315273,36.986964,Merve,932075208,2020-03-29 09:48:16,"Adana, Trkiye",poi,Meydan ocuk Hastanesi,Trkiye
88,132.15478000000002,34.225086000000005,,932075593851478016,2020-03-10 07:00:18,,city,"Iwakuni-shi, Yamaguchi",Japan
33,-70.728172,-33.6395845,antonio oliveros,932075924,2020-03-03 03:23:45,escuela de infanteria,city,"San Bernardo, Chile",Chile
171,126.31924099999999,8.4113525,rsbd,932076053069144065,2020-02-25 02:25:03,Balay ni charlito ug amalia,city,"Hinatuan, Caraga",Republic of the Philippines
21,-48.6231815,-27.0077815,Juliano,932076241569615872,2020-03-09 22:58:14,"Santa Catarina, Brasil",city,"Balnerio Cambori, Brasil",Brasil
108,-60.973098,14.524435999999998, ,932076261337370624,2020-02-23 20:48:06,Martinique / Skypia,poi,Stade de Trenelle,Martinique
88,139.60489809999999,35.7432156,TERASAKA TAKASHI,932076504686649344,2020-02-21 15:21:56, ,city, ,
119,-98.17097249999999,19.6208215,Hector Damian,932076532373311488,2020-03-25 15:23:35,,city,"Tlaxco, Tlaxcala",Mxico
29180,-91.8117545,29.993466,Leaux,932076650065428480,2020-04-01 18:18:11,BITCH IM FROM LOUISIANA ,city,"New Iberia, LA",United States
19300,-87.5740945,30.2891865,Leaux,932076650065428480,2020-05-29 11:57:38,BITCH IM FROM LOUISIANA ,city,"Orange Beach, AL",United States
26380,-90.6561715,29.723895000000002,Leaux,932076650065428480,2020-06-01 22:41:37,BITCH IM FROM LOUISIANA ,city,"Raceland, LA",United States
21,-43.209486,-22.910332999999998,Hrica,932076676309233664,2020-03-15 06:24:40,"Rio de Janeiro, Brasil",poi,Rio de Janeiro,Brasil
175,39.2848125,25.686077,Momd,932076915590037504,2020-02-14 10:28:17," ,   ",city,",   ",  
21,-51.1593095,-30.099836,@Pinheiro,932077167067959296,2020-02-16 22:55:52,Porto alegre (RS) ,city,"Porto Alegre, Brasil",Brasil
21,-43.441578,-22.911421500000003,Savinho ,932077243974803456,2020-02-21 04:00:58,Campo Crime - RJ ,city,"Rio de Janeiro, Brasil",Brasil
171,120.3516835,15.994682,metaphorical,932077614092529664,2020-02-14 12:22:49,,city,"Calasiao, Ilocos Region",Republic of the Philippines
193,100.60280300000001,14.064906,buuuu.pdf,932077817365389312,2020-06-07 03:57:50,,poi,2 Thammasat University,
171,126.1388875,9.100234500000001,J U L I E A N N ,932078557840281600,2020-02-14 14:02:08,"City Of Tandag, Caraga",city,"City Of Tandag, Caraga",Republic of the Philippines
200,29.0052225,41.0213205,stanbulspor A..  #EvdeKal,932078622,2020-03-23 19:34:10,"stanbul, Trkiye",city,"stanbul, Trkiye",Trkiye
82,85.385683,23.3604345,Naveen Singh,932079182011600896,2020-05-01 13:04:37,"Ranchi, India",city,"Ranchi, India",India
31080,-117.76899999999999,33.5315,amlie,932079238550835202,2020-03-09 13:47:06,"London, England",city,"Laguna Beach, CA",United States
41740,-117.1585,32.7155,amlie,932079238550835202,2020-03-25 17:59:11,"London, England",city,"San Diego, CA",United States
31080,-117.99438234,33.65310377,amlie,932079238550835202,2020-04-14 09:21:35,"London, England",city,"Huntington Beach, CA",United States
205,-0.14579952,51.54126733,amlie,932079238550835202,2020-05-17 14:28:32,"London, England",city,"Camden Town, London",United Kingdom
21,-43.441578,-22.911421500000003,Me chama pra fumar 1,932079296692342789,2020-02-14 10:16:09,"Rio de Janeiro, Brasil",city,"Rio de Janeiro, Brasil",Brasil
88,138.56176299999998,37.360704999999996,,932079391,2020-03-20 10:30:20,,poi,Starbucks Coffee ,
35620,-73.8494415,40.8503475,AG,932079550271578112,2020-04-24 01:59:43,"New York, NY",city,"Bronx, NY",United States
186,-5.98694,37.3772,Roberto Uribarri,932079672,2020-02-16 11:22:56,,city,"Sevilla, Espaa",Espaa
120,103.0105975,5.5141985,Mahhhhh,932079770,2020-02-17 14:38:00,"Beranang, Selangor",city,"Batu Rakit, Terengganu",Malaysia
35620,-73.9685415,40.780709,Username,932079828886523905,2020-03-30 14:35:09,"New York, NY",city,"Manhattan, NY",United States
88,141.0001465,38.2952995,,932079961631891456,2020-03-10 14:44:43,,city, ,
42220,-122.705,38.4486,lajuan hughes,93208004,2020-03-06 22:05:52,"santa Rosa, CA ",city,"Santa Rosa, CA",United States
33340,-87.9672925,43.0567225,badbadgramma,932080058,2020-03-09 00:52:42,"Milwaukee, WI",city,"Milwaukee, WI",United States
32980,-89.59230699999999,45.813423,badbadgramma,932080058,2020-05-31 12:45:44,"Milwaukee, WI",poi,Lake Tomahawk,United States
33340,-87.9672925,43.0567225,badbadgramma,932080058,2020-06-03 03:41:47,"Milwaukee, WI",city,"Milwaukee, WI",United States
193,100.520553,13.715653,Love Your Smile,932080262,2020-04-01 10:06:50,,city,", ",
186,-2.373698,36.868748,Javi Montoya,93208054,2020-03-15 16:01:22,Almera,city,"Almera, Espaa",Espaa
205,-0.06705499999999999,51.604652,Ascended Ancient,932080568631689216,2020-03-04 19:45:16,SPACE,poi,Tottenham Hotspur Stadium,United Kingdom
12420,-97.691851,30.299238,Akins 911 Internship,932080876443316224,2020-03-12 16:14:53,"Austin, TX",poi,Combined Transportation Emergency Communications Center,United States
173,40.036241499999996,44.67815,misost,932080927,2020-04-11 10:53:46,", ",city,", ",
171,125.62305286,7.52890052,Yingtoot,932081225149362176,2020-02-23 13:35:43,"Santo Tomas, Davao del Norte",city,"Sto. Tomas, Davao Region",Republic of the Philippines
82,91.55975749999999,26.259671,Pawan sethia,932081614296834048,2020-04-02 00:46:15,"Guwahati, Assam",city,"Guwahati, India",India
152,4.0869555,51.569957,Rob Duijm,93208164,2020-03-17 14:49:31,Poortvliet,city,"Tholen, Nederland",The Netherlands
222,111.498915,-7.7864116999999995,Sutikno,932081874033242112,2020-02-28 12:24:06,,city,"Dolopo, Indonesia",Indonesia
8,-58.41173199999999,-34.56969,Leandro,93208190,2020-03-01 19:00:07,Buenos Aires,poi,Planetario Galileo Galilei,Argentina
8,-58.406339,-34.693971000000005,Hugo Repuestos,932082142775046144,2020-02-14 22:05:44,"Lans Oeste, Argentina",poi,Hugo repuestos,Argentina
49340,-71.812438,42.27576000000001,Sharon strom,932082259,2020-03-07 17:31:33,Massachusetts,city,"Worcester, MA",United States
21,-39.01205953,-3.39955276,Diego Moura,93208249,2020-02-15 05:26:26,Paracuru/CE - Brasil,city,"Paracuru, Brasil",Brasil
21,-43.441578,-22.911421500000003,Fabii,932082561697943552,2020-02-14 02:25:53,"Rio de Janeiro, Brasil",city,"Rio de Janeiro, Brasil",Brasil
35620,-73.899059,41.25731,richode ,932082612507684864,2020-04-09 01:48:06,,poi,Blue Mountain Shooting Range,
82,72.57023199999999,23.013959,Tirth Patel,932082719579783168,2020-02-29 17:02:13,"Ahmadabad City, India",city,"Ahmadabad City, India",India
88,132.26436138,34.88596614,,932083020,2020-02-16 07:09:20, ,city, ,
88,139.88271699999999,36.559843,Cafe ink Blue,932083068461989888,2020-03-08 09:11:42, ,poi,cafe ink blue,
38,-76.684292,5.9797065,LucaM,932083215090831361,2020-05-13 05:29:53,Colombia,city,"Quibd, Colombia",Colombia
88,128.013615,26.680101,(),932083467671580672,2020-02-29 00:43:43,"Shinjuku, Tokyo",poi,,
120,103.739882,1.531305,,932083760,2020-02-14 11:41:45,"Johor Bahru, Johor",poi,Kawasan Perindustrian Tebrau I,Malaysia
205,-4.2417515,55.85830249999999,thomas mcgonagle,932083943205146625,2020-03-28 08:22:49,"Glasgow, Scotland",city,"Glasgow, Scotland",United Kingdom
21340,-106.4174305,31.793368,Pamela,93208402,2020-04-22 15:39:31,,city,"El Paso, TX",United States
222,106.8627935,-6.179754,jualotak,932084078,2020-02-14 10:31:56,di otakmu,city,"Johar Baru, Indonesia",Indonesia
85,11.2605115,46.0603225,Manuela Dalmeri,932084492,2020-03-07 06:50:44,Pergine Valsugana (TN),city,"Pergine Valsugana, Trentino-Alto Adige",Italia
46520,-157.83761861,21.29202445,Call Me Matt,932084571838889984,2020-03-04 21:16:05,"Hawaii, USA",city,"Honolulu, HI",United States
71,7.2635226,52.7025067,Call Me Matt,932084571838889984,2020-03-31 05:01:50,"Hawaii, USA",city,"Meppen, Deutschland",Germany
46520,-157.79638889,21.31138889,Call Me Matt,932084571838889984,2020-04-08 05:31:54,"Hawaii, USA",city,"Honolulu, HI",United States
39580,-78.6349,35.7781,Call Me Matt,932084571838889984,2020-04-13 02:44:25,"Hawaii, USA",city,"Raleigh, NC",United States
22180,-78.9176,35.0667,Call Me Matt,932084571838889984,2020-04-14 00:51:51,"Hawaii, USA",city,"Fayetteville, NC",United States
46520,-157.8625641,21.311429999999998,Call Me Matt,932084571838889984,2020-04-17 21:59:48,"Hawaii, USA",city,"Honolulu, HI",United States
41700,-98.731789,29.7827985,Leslie Nichols,932084990053031937,2020-02-18 03:35:52,"Boerne, TX",city,"Boerne, TX",United States
42660,-122.2964885,47.442583,Leslie Nichols,932084990053031937,2020-03-06 15:53:47,"Boerne, TX",city,"SeaTac, WA",United States
41700,-98.731789,29.7827985,Leslie Nichols,932084990053031937,2020-03-15 22:05:28,"Boerne, TX",city,"Boerne, TX",United States
26420,-95.63168950000001,29.603464,Leslie Nichols,932084990053031937,2020-04-30 04:44:26,"Boerne, TX",city,"Sugar Land, TX",United States
41700,-98.731789,29.7827985,Leslie Nichols,932084990053031937,2020-05-19 18:32:24,"Boerne, TX",city,"Boerne, TX",United States
8,-71.3222025,-41.130443,Marite,932085235,2020-02-20 17:13:21,bariloche,city,"San Carlos de Bariloche, Argentina",Argentina
88,139.561281,35.67977600000001,,932085320589352960,2020-05-20 12:18:14, ,city, ,
34980,-86.791549,36.200008000000004,Mikey B,932085503561818112,2020-03-08 14:47:46,"Nashville, TN",city,"Nashville, TN",United States
40140,-116.9030105,33.9251585,Kira,932085547836641280,2020-02-14 17:47:18,"Banning, CA",city,"Banning, CA",United States
47780,-87.172223,38.651965000000004,kim clark,932085575661834240,2020-02-16 03:59:13,,city,"Washington, IN",United States
151,3.39583,6.45306,Tundevillesilver,93208573,2020-02-15 08:01:06,NIGERIA,city,"Lagos, Nigeria",Nigeria
173,37.777297,44.692194, ,932085967,2020-03-21 18:41:41,"-, ",poi,,
119,-100.366033,25.6502875,Eniak Belmont,93208633,2020-03-02 23:56:57,,city,"San Pedro Garza Garca, Nuevo Len",Mexico
33,-71.28457,-38.808988,Maituit,932086586,2020-06-05 14:05:00,"Icalma, Regin de la Araucana",poi,Laguna Icalma,Chile
82,75.8167,26.9167,Krishan Yadav,932086631200301056,2020-05-28 02:10:57,"Jaipur, India",city,"Jaipur, India",India
26900,-86.1582,39.7692,John Barker,932087276632461314,2020-03-08 22:15:54,"Indianapolis, IN",city,"Indianapolis, IN",United States
45300,-82.83003059,27.97723111,John Barker,932087276632461314,2020-05-19 14:21:27,"Indianapolis, IN",city,"Clearwater, FL",United States
82,92.731689,25.5088325,Gobind Mukhiya,932087344554950657,2020-04-07 11:45:47,"Assam, India",city,"Umrangso, India",India
193,100.565668,13.8821555,JeFF y,932087812324696064,2020-02-24 16:07:21,", ",city,", ",
82,83.977994,18.436571,Uday Bhaskar Adapa,932088101417009153,2020-02-24 16:36:58,"Mogalraja Puram, Vijayawada",city,"Srikakulam, India",India
31080,-118.1938,33.7692,Ro,932088277871476736,2020-02-14 01:51:33,,city,"Long Beach, CA",United States
43500,-108.267147,32.7767055,Ro,932088277871476736,2020-06-02 22:08:40,,city,"Silver City, NM",United States
171,121.0652415,14.504111499999999,Gracey Grae,932088290311782400,2020-02-14 10:24:09,,city,"Taguig City, National Capital Region",Republic of the Philippines
42140,-105.9991065,35.6565515,supurlative conservative,932088432276357120,2020-05-31 16:56:55,Santa Fe N M,city,"Santa Fe, NM",United States
35620,-74.26797950000001,40.736985,Gordon Bass,932088446,2020-03-07 01:40:11,"Maplewood, New Jersey",city,"Maplewood, NJ",United States
42220,-122.699418,38.343445,cierra,932088454455771136,2020-02-21 07:56:09,"California, USA",city,"Rohnert Park, CA",United States
41940,-121.6417365,37.128857,cierra,932088454455771136,2020-02-25 01:08:47,"California, USA",city,"Morgan Hill, CA",United States
33340,-88.0255425,43.0675375,KilometroOtto,932088464958517248,2020-02-15 03:29:57,"Chicago, IL",city,"Wauwatosa, WI",United States
16980,-87.732013,41.8335845,KilometroOtto,932088464958517248,2020-02-17 03:05:29,"Chicago, IL",city,"Chicago, IL",United States
33340,-87.9672925,43.0567225,KilometroOtto,932088464958517248,2020-02-29 21:10:44,"Chicago, IL",city,"Milwaukee, WI",United States
16980,-87.732013,41.8335845,KilometroOtto,932088464958517248,2020-03-02 00:39:49,"Chicago, IL",city,"Chicago, IL",United States
82,73.205641,19.295771,Deepak Gaud,932088670772895744,2020-03-24 09:26:16,"Mumbai, India",poi,Ganesh Mandir(titwala),India
31080,-118.4119065,34.0207895,Selina Montellano,932089395452063744,2020-03-02 04:59:11,,city,"Los Angeles, CA",United States
21,-43.959822499999994,-19.918692,Lara Fraser,932089833186611200,2020-02-21 13:19:32,Brasil,city,"Belo Horizonte, Brasil",Brasil
12060,-84.541562,33.588263, ,932089859543633920,2020-04-16 22:10:12,,city,"Union City, GA",United States
211,-62.799535999999996,8.256859,,93209001,2020-04-11 04:18:05,Pto-Ordaz,poi,Urbanizacion Villa Icabaru,Venezuela
82,74.5107235,26.4454915,Yashpal singh jodha,932090182433619974,2020-05-27 03:56:10,,city,"Ajmer, India",India
21,-49.2884605,-25.4952495,gussy ,932090189194911748,2020-06-06 05:49:03,"Curitiba, Brasil",city,"Curitiba, Brasil",Brasil
88,139.700952,35.645324,@LogTube,932090217246351360,2020-02-22 16:33:05,,poi,cafe RED BOOK,
120,103.371628,4.0416095,Olivier Roux,932090443688316929,2020-02-29 02:28:30,"Kuala Lumpur City, Kuala Lumpur Federal Territory",city,"Sungai Karang, Pahang",Malaysia
8,-58.4397,-34.6089,AVISISTEMAS/1080AV,93209065,2020-02-18 17:22:00,Argentina,city,"Ciudad Autnoma de Buenos Aires, Argentina",Argentina
222,106.72113799999998,-6.220018,SA'AD SYAMLAN,93209107,2020-02-20 05:09:54,Indonesia Raya,city,"Ciledug, Indonesia",Indonesia
40900,-121.469664,38.561721999999996,lucas thompson,932091169927864321,2020-03-18 23:02:47,"Sacramento, CA",city,"Sacramento, CA",United States
120,103.790347,1.5468959999999998,,932091367160930304,2020-05-13 09:46:17,FAIZ!!!  ,poi,Hospital Sultan Ismail,Malaysia
21,-34.8726385,-8.001542500000001,Rogrio Scavuzzi,932091551932669952,2020-02-28 20:45:35,,city,"Olinda, Brasil",Brasil
33700,-120.957123,37.5910915,itzayhana,932091650792239104,2020-02-14 18:43:50,happyplace,city,"Ceres, CA",United States
82,80.3460625,26.405874,  ,932091818572779522,2020-04-03 04:21:56,"Kanpur, India",city,"Kanpur, India",India
82,76.2428385,23.838860999999998, ,932092099327156224,2020-05-22 09:48:35,"Susner, India",city,"Nalkheda, India",India
29820,-115.206842,35.994278,SybilStallone.TV,932092339371229184,2020-02-20 07:46:26,"Las Vegas, NV",poi,Southern Highlands,United States
38060,-111.8583985,33.639340000000004,SybilStallone.TVFREEOnlyFans,932092339371229184,2020-05-25 06:46:01,Chat 1 on 1,city,"Scottsdale, AZ",United States
29820,-115.03833700000001,36.006256,SybilStallone.TVFREEOnlyFans,932092339371229184,2020-06-02 00:24:09,Chat 1 on 1,city,"Henderson, NV",United States
41740,-117.2524105,32.840886,SybilStallone.TVFREEOnlyFans,932092339371229184,2020-06-07 08:05:25,Chat 1 on 1,neighborhood,"La Jolla, San Diego",United States
29820,-115.2344355,36.0188045,SybilStallone.TVFREEOnlyFans,932092339371229184,2020-06-09 01:44:51,Chat 1 on 1,city,"Enterprise, NV",United States
31080,-117.92689399999999,33.608318,SybilStallone.TVFREEOnlyFans,932092339371229184,2020-06-09 17:06:10,Chat 1 on 1,poi,Balboa Peninsula,United States
40140,-117.462698,34.1081605,SybilStallone.TVFREEOnlyFans,932092339371229184,2020-06-09 19:40:12,Chat 1 on 1,city,"Fontana, CA",United States
8,-58.6941275,-34.5538035,JaVy  1905,932092445294321665,2020-02-14 22:39:53,"General San Martn, Argentina",city,"San Miguel, Argentina",Argentina
36620,-116.968202,44.253301,alyssa,932092683635453952,2020-03-03 00:54:46,"Weiser, ID",city,"Weiser, ID",United States
205,-0.115406,51.4603395,Tracy Yoga Bickley,932092753,2020-03-18 18:03:20,London,city,"Lambeth, London",United Kingdom
205,-0.29743,51.514752,Yonis,932092959415259136,2020-05-20 05:49:22,"London, England",city,"Ealing, London",United Kingdom
21,-47.03021800000001,-22.8949945,vitinho,932093256795607040,2020-03-10 05:53:46,"Campinas, Brasil",city,"Campinas, Brasil",Brasil
38,-74.24367099999999,4.2622835,Romy Navea,93209358,2020-05-04 14:30:38,En un lugar cerca de ti,city,"Bogot, D.C., Colombia",Colombia
171,120.9839865,14.5914565,heyitschristian,932093600283770882,2020-02-14 12:31:32,"National Capital Region, Repub",city,"Manila City, National Capital Region",Republic of the Philippines
88,140.872109,38.262384000000004,,93209534,2020-03-27 03:36:37, ,poi,,
26420,-95.4464865,29.838495,Shadie,932095666964201472,2020-02-18 17:26:16,,city,"Houston, TX",United States
12420,-97.754724,30.3233455,Shadie,932095666964201472,2020-03-20 16:25:09,,city,"Austin, TX",United States
200,27.006511,38.4079305,Fatih Akba,932096053,2020-03-08 14:16:44,Trkiye/Malatya/Darende,city,"zmir, Trkiye",Trkiye
82,85.21544995,20.94685017,Anirudha Behera,932096284978065408,2020-05-15 12:02:33,", ",city,"Talcher, India",India
171,123.89960500000001,10.318636999999999,,932096544639090688,2020-03-16 04:27:42,konoha,poi,Hyper Wonderland,Republic of the Philippines
35620,-73.9487755,40.655138,Deirdre O'Brien,93209663,2020-03-13 02:13:13,"New York, USA",city,"Brooklyn, NY",United States
88,136.17651750000002,35.878401000000004,,932096775317438465,2020-02-16 05:15:31, ,city, ,
42220,-122.70973700000002,38.331022999999995,98 civic,932097025562222592,2020-03-29 01:46:44,Spilt Milk on my Nuds,poi,Walgreens,United States
88,136.0097725,34.9952555,popo,932097107472695297,2020-03-09 10:30:41, ,city, ,
47380,-97.2304615,31.501521999999998,Chad Cole ,932097149713682432,2020-02-14 18:34:03,United States,city,"Woodway, TX",United States
88,144.861296,43.029459,de,932097211097260032,2020-05-09 03:06:00, ,poi,,
82,80.88440750000002,26.8251695,Surabhi@Agrawal,932097226217684992,2020-02-22 14:05:49,", ",city,"Lucknow, India",India
171,120.968701,14.3135285,ruins.,932097716468846594,2020-03-14 10:40:34,gwenggweng,city,"Dasmarinas, Calabarzon",Republic of the Philippines
82,74.736304,34.177133999999995,myselfnaseer,932097763415703552,2020-03-26 13:07:45,"Bengaluru, India",city,"Baramula, Jammu And Kashmir",
82,77.4044755,23.272495000000003,SaveBhopal,932097763503898624,2020-03-24 13:15:08,"Bhopal, India",city,"Bhopal, India",India
200,32.8183815,39.8889765,Erkan,932097980781465600,2020-03-28 19:35:32,"Mersin, Trkiye",city,"Ankara, Trkiye",Turkey
21,-43.441578,-22.911421500000003,Bruno,932098059223425024,2020-03-18 21:07:09,onde o uber no entra  ,city,"Rio de Janeiro, Brasil",Brasil
171,125.4432615,7.317582499999999,Rjpedrosa,932098711374651392,2020-05-01 08:38:18,"Davao City, Davao Region",city,"Davao City, Davao Region",Republic of the Philippines
44700,-121.3004255,37.980826,Kalene Giselle,932098748666101762,2020-02-20 18:38:18,,city,"Stockton, CA",United States
26420,-95.389822,30.059715,TXArmy Natl Guard,932098989025124352,2020-04-02 23:23:08,"Conroe, TX",poi,Joe's tire shop,United States
205,-2.793302,56.335,Steve Martin,93209909,2020-02-27 14:35:45,"St.Andrews, Fife, Scotland",poi,St Andrews United,United Kingdom
21,-48.45979749999999,-1.2729295,iludida amorosamente,932099154066706432,2020-02-14 00:15:52,,city,"Belm, Brasil",Brasil
19100,-96.961483,32.863917,Ranelle,932099732,2020-03-22 17:13:16,,city,"Irving, TX",United States
42100,-121.9472905,36.997949,swag haver,932099803890065408,2020-02-28 19:15:58,"Santa Cruz, CA",city,"Soquel, CA",United States
193,100.754685,13.690935999999999,Double B Beatrice,932099844562227201,2020-02-19 00:35:34,"Bangkok, Thailand",poi,Gate A7,Thailand
24,-75.701048,45.421806,FDFA Insider,932099905,2020-02-19 19:02:16,"Ottawa, Canada",poi,Wellington Building,Canada
222,97.84254399999999,3.510224,Ervan Afandi,932100489960816640,2020-05-11 06:26:00,"Aceh Tenggara, Nangro Aceh Dar",city,"Kuta Cane, Indonesia",Indonesia
91,36.0958,-0.2903,Mythical Chescore,932100508327833600,2020-06-02 12:44:35,Nakuru,city,"Nakuru, Kenya",Kenya
18140,-82.985772,39.9946835,"Anna Kerr, PhD",932100544725946368,2020-04-05 23:41:21,"Ohio, USA",city,"Columbus, OH",United States
11900,-82.0964045,39.320384,"Anna Kerr, PhD",932100544725946368,2020-06-03 17:06:37,"Ohio, USA",city,"Athens, OH",United States
18140,-82.985772,39.9946835,"Anna Kerr, PhD",932100544725946368,2020-06-05 17:00:05,"Ohio, USA",city,"Columbus, OH",United States
222,113.688069,-8.192575999999999,ROCK BISON ,932100762523508736,2020-04-09 13:56:39,"Jember, Jawa Timur",poi,Perumahan tegal Besar,Indonesia
31140,-85.5877,38.1598,tee-why-ellie-are,932100871005048832,2020-02-23 05:13:28,"Kentucky, USA",city,"Fern Creek, KY",United States
171,124.24840400000001,7.2014785,Pauline Jonnah Gocotano,932101030245834752,2020-06-01 04:32:44,"Davao City, Davao Region",city,"Cotabato City, Soccsksargen",Republic of the Philippines
171,125.4432615,7.317582499999999,mitsui,932101180674646016,2020-04-27 00:11:46,buhangin,city,"Davao City, Davao Region",Republic of the Philippines
119,-96.886083,19.542054,Saul,932101202686464000,2020-02-14 09:31:18,,city,"Xalapa, Veracruz de Ignacio de la Llave",Mexico
12060,-84.6437655,33.82197,SiQ,932101208940171264,2020-05-14 20:21:54,PA  GA,city,"Austell, GA",United States
47260,-76.069946,36.8025415,Joyce Bright,932101260840460288,2020-02-14 03:03:58,"Virginia Beach, VA",city,"Virginia Beach, VA",United States
65,2.1192045,48.8038845,Jean Lalo,93210151,2020-02-22 15:47:08,Versailles,city,"Versailles, France",France
19100,-96.800617,32.785056,Expressions Chiropractic of Dallas P.C.,932101891915476992,2020-05-15 17:06:22,"Dallas, TX",city,"Dallas, TX",United States
8,-58.5893055,-34.772368,Leonardo,932101904892616706,2020-04-24 11:25:00,,city,"Gonzlez Catn, Argentina",Argentina
120,117.91558,4.25698,azizahshri,932102100560969728,2020-03-09 13:39:16,Malaysia,poi,Gathering Grill & Chill,Malaysia
65,7.1242,44.173,,93210242,2020-03-19 19:26:17,"Lille, France",city,"Isola, France",France
171,121.01080300000001,14.483414000000002,Mac John,932103405094313986,2020-02-14 15:33:45,,city,"Paranaque City, National Capital Region",Republic of the Philippines
31080,-117.99940900000001,34.1391715,loverboy,932103799681851397,2020-02-14 19:29:43,"Los Angeles, CA",city,"Monrovia, CA",United States
47900,-77.12025249999998,39.043469,loverboy,932103799681851397,2020-02-21 06:40:48,"Los Angeles, CA",city,"North Bethesda, MD",United States
31080,-118.4119065,34.0207895,loverboy,932103799681851397,2020-02-25 04:13:09,"Los Angeles, CA",city,"Los Angeles, CA",United States
21,-43.3697645,-22.7854705,dedessa,932103940530999296,2020-03-26 21:39:32,021 ,city,"So Joo de Meriti, Brasil",Brasil
21,-40.303863,-20.139694,Maria Angela,93210433,2020-04-06 10:33:21,"Cidade Cont - Setor sia, Serr",city,"Serra, Brasil",Brasil
24,-123.558994,48.366368,KGBfoster,932104867,2020-02-26 16:06:23,Hnausa Winnipeg Mb Canada,city,"Metchosin, British Columbia",Canada
21,-42.043358000000005,-22.7372245,GLAUBER BARBEIRO,932104941547741184,2020-02-27 00:43:07,"Barro branco,Duque de Caxias",city,"Cabo Frio, Brasil",Brasil
24,-123.123581,49.257639000000005,Amrik Kamoh,932105256611209216,2020-02-19 17:00:54,,city,"Vancouver, British Columbia",Canada
42660,-122.201905,47.680319,Amrik Kamoh,932105256611209216,2020-02-22 07:00:52,,city,"Kirkland, WA",United States
38,-75.63583050000001,1.747227,Miguel Gutierrez,932105276924354566,2020-02-26 17:27:37,"Caquet, Colombia",city,"Florencia, Colombia",Colombia
88,136.855393,35.079181000000005,,932105419715002369,2020-02-17 11:19:43,,city,  ,
82,78.7550755,28.070328999999997,Manoj Kumar,932105684,2020-06-07 13:56:51,"Budaun, India",city,"Sahaswan, India",India
78,-88.022334,15.540047,Dulce,932106464,2020-03-08 04:06:03,Honduras,poi,Col. Stibys,Honduras
35620,-73.93930751,40.80474653,Vilje Leidsalu,932106682259386368,2020-02-19 01:15:33,"New York, NY",city,"Manhattan, NY",United States
10580,-73.7849,42.8631,Vilje Leidsalu,932106682259386368,2020-04-08 00:06:13,"New York, NY",city,"Clifton Park, NY",United States
19100,-96.8320095,32.959787500000004,maria travers,93210691,2020-03-11 06:33:14,"Texas, USA",city,"Addison, TX",United States
82,77.5564225,13.075209,Jeetendra Pal,932106997670952960,2020-04-08 07:02:05,"Rath, India",city,"Bengaluru, India",India
21,-49.011267,-15.8262075,avantasia,932107061327953920,2020-03-08 03:55:10,"Braslia, Brasil",city,"Pirenpolis, Brasil",Brasil
205,-4.979893499999998,51.80108,Alan Topham,932107477,2020-02-15 18:09:55,,city,"Haverfordwest, Wales",United Kingdom
222,110.7929635,-7.561752,Kookie.smeraldo ,932107786904678400,2020-02-14 07:52:12,"Surakarta, Jawa Tengah",city,"Laweyan, Indonesia",Indonesia
47020,-96.995964,28.851944,Savannah Chavez,932107840659083264,2020-04-22 23:54:29,"Texas, USA",poi,H-E-B plus!,United States
200,39.70629697,40.99098634,nuri demiroz,932108100,2020-03-28 19:08:53,"Trabzon, Trkiye",city,"Trabzon, Trkiye",Trkiye
87,44.313844,36.408274, ,932108541942517761,2020-03-22 22:10:05,,poi,Heran u Nazann,Iraq
21,-45.506655,-23.0860165,beatriz,932108641410453505,2020-02-27 04:16:29,"Taubat, Brasil",city,"Taubat, Brasil",Brazil
33,-71.46777434,-29.24689126,Aula de Mar,932108704995999744,2020-03-05 03:27:45,Chile,city,"La Higuera, Chile",Chile
8,-57.0684035,-37.37110850000001,,932109366706176001,2020-02-21 01:22:22,"Villa Gesell, Argentina",city,"Villa Gesell, Argentina",Argentina
21,-52.773540000000004,-28.27618,Genez,932109384133554176,2020-03-15 20:41:39,"Carazinho, Brasil",city,"Carazinho, Brasil",Brasil
26900,-86.1429225,39.7795625,Dane Maskamp,932109981272498176,2020-02-23 06:38:01,"Indiana,  home of The 500 race",city,"Indianapolis, IN",United States
119,-104.332852,19.104639000000002,,93211102,2020-03-04 16:42:43,Mx ,poi,Starbucks,Mxico
88,135.50843999999998,34.604167499999996,,93211152,2020-02-22 05:50:12,,city,  ,
49,-79.3233295,-4.0914955000000015,Loreto Sez Pezo,93211204,2020-03-05 17:37:41,"-3.987232,-79.20527",city,"Loja, Ecuador",Ecuador
9,152.9931965,-27.382143,mloughland,932112110242340865,2020-02-14 11:11:24,"Melbourne, Victoria",city,"Brisbane, Queensland",Australia
31080,-118.34613799999998,33.914068,John Stanbury,932112151,2020-02-27 06:41:34,"Hillsdale, NJ",city,"Hawthorne, CA",United States
35620,-74.24240950000002,40.948353000000004,John Stanbury,932112151,2020-03-01 17:39:28,"Hillsdale, NJ",city,"Wayne, NJ",United States
82,85.385793,26.124154,Nukesh Singh,932112554121236480,2020-05-20 08:43:22,Sikandarpur Lake (Pashchim Muz,poi,"Sutapatti, Muzaffarpur",India
175,38.2388005,30.486664500000003,  ,932112623776223232,2020-05-28 19:37:32,,city,",   ",  
65,2.347003,48.8588335,Leo,932112740,2020-04-08 09:32:37,France,city,"Paris, France",France
222,109.92079550000001,-7.722334999999998,siapakah,932112768718716928,2020-03-01 09:11:19,,city,"Kutoarjo, Indonesia",Indonesia
178,28.103551,-25.988404,Vanessa Innocentia,932112890248728579,2020-05-11 16:58:56,"Midrand, South Africa",city,"Midrand, South Africa",South Africa
222,106.594932,-6.187284,Badboyz,932112891876012032,2020-02-15 04:38:00,"Kota Tangerang, Banten",city,"Jati Uwung, Indonesia",Indonesia
33,-70.6671,-33.4498,Edicson Graterol,93211333,2020-05-18 20:02:50,"Santiago, Chile",city,"Santiago, Chile",Chile
120,101.759419,3.157698,Panic! At The Tesco,932113856314327040,2020-04-04 17:04:53,Dalam hati lys,poi,Bikini Bottom,Malaysia
178,25.6294651,-33.964706299999996,IG:akosuanomvemve,932113950,2020-02-21 22:47:05,Africa ,city,"Port Elizabeth, South Africa",South Africa
88,140.966846,37.4469065,,932114195205595136,2020-03-17 05:13:33,,city, ,
82,77.095086,28.638489500000002,virendra singh,932115515463548928,2020-03-10 00:49:19,"Jaisalmer, New Delhi, India",city,"New Delhi, India",India
222,110.4087895,-7.7676955,IPK'35,932115646216683520,2020-02-29 19:58:21,"Sleman, Yogyakarta",city,"Depok, Indonesia",Indonesia
15980,-81.986834,26.63648,Chase Chatman,932115982402932736,2020-04-07 02:02:11,"Cape Coral, FL",city,"Cape Coral, FL",United States
222,111.3950385,-7.6987455,Kang Kus #boloDewe,93211662,2020-02-16 08:48:22,"Jawa Timur, Indonesia",city,"Kawedanan, Indonesia",Indonesia
160,-76.9626835,-12.1578435,IndrogoVzla,93211682,2020-04-08 23:53:08,Venezuela,city,"San Juan de Miraflores, Peru",Peru
119,-99.02630044,19.52965481,Aarn Lpez,932116968651534336,2020-02-17 03:18:35,"Ecatepec de Morelos, Mxico",city,"Ecatepec de Morelos, Mxico",Mxico
119,-99.174065,19.395544,Gabriel,93211746,2020-02-18 21:46:13,Mxico,poi,Fonda Argentina Npoles,Mxico
88,139.70021916,35.69029607,nktm,93211767,2020-02-21 22:36:42,An conductor company.,city, ,
242,121.69078467,25.20570582,Dana Bacon Sanchez,93211787,2020-02-17 11:09:15,,city,"New Taipei City, Taiwan",Taiwan
35620,-74.0064,40.7142,Tug Rice,93211799,2020-02-16 16:39:58,"New York, New York",city,"Manhattan, NY",United States
71,6.77762829,51.22536379,Tug Rice,93211799,2020-05-21 17:03:48,"New York, New York",city,"Dsseldorf, Germany",Germany
173,50.067858,53.3214725,,93211909,2020-03-02 05:02:53,,city,", ",
222,107.78663,-7.188557,zaaaqueen,932119213245788160,2020-03-09 08:47:25,,city,"Samarang, Indonesia",Indonesia
120,103.7388765,1.582298,iPrima Media - Digital Marketing Agency Singapore,932119350,2020-03-23 05:57:31,Singapore,city,"Tebrau, Johor",Malaysia
21,-35.6871125,-9.5333295,Herles ,932119519258120192,2020-05-06 04:53:50,Eustquios Unidos - AL,city,"Macei, Brasil",Brasil
82,72.78910450000002,21.171369,Mahesh Santosh Patil,932119622719033344,2020-03-24 03:10:05,Surat,city,"Surat, India",India
120,101.73411899999999,3.130811,baby boi luvs u,932119646483791877,2020-04-23 14:18:54,lost,poi,Hell,Malaysia
88,135.51428252,34.66656147,tomonori kaya,93211982,2020-03-15 15:07:40,Tokyo suginami,city,  ,
120,101.7109,3.1581,O,932119832975196161,2020-05-15 00:15:28,Kuala Lumpur,city,"Kuala Lumpur City, Kuala Lumpur Federal Territory",Malaysia
85,12.086783,45.4880525,Mohammed Esposito,932119940,2020-06-10 12:57:56,Venice,city,"Mirano, Veneto",Italia
29820,-115.146918,36.121057,Phillip Watson,932120043227201536,2020-03-02 19:34:19,"Bitche, France",poi,Clarke County Jail,United States
205,-3.2030084999999997,55.943195499999995,Ivan Mackenzie,932120317,2020-02-27 16:55:23,Edinburgh,city,"Edinburgh, Scotland",United Kingdom
171,120.4882085,14.963159999999998,wada,932120358030688256,2020-02-14 00:01:19,Brian ,city,"Floridablanca, Central Luzon",Republic of the Philippines
47900,-77.0908695,38.81738,egohon briez moreno,932120438,2020-03-01 02:39:05,,city,"Alexandria, VA",Estados Unidos
31080,-118.4119065,34.0207895,egohon briez moreno,932120438,2020-03-08 14:30:14,,city,"Los Angeles, CA",Estados Unidos
200,29.0052225,41.0213205,Nusret,932120607726211072,2020-03-23 18:41:58,,city,"stanbul, Trkiye",Trkiye
33,-69.348134,-24.2283195,Paola Pez Vega,932120790,2020-06-10 21:47:22,"Antofagasta, Chile",city,"Antofagasta, Chile",Chile
200,29.9271065,40.7069125,pell_ayt,93212104,2020-04-25 17:22:04,,city,"Baiskele, Trkiye",Trkiye
171,121.27182250000001,14.540410500000002,Gwendelle,932121310813044737,2020-02-24 02:45:16,"Pasig City, National Capital R",city,"Baras, Calabarzon",Republic of the Philippines
82,85.29276999999998,25.5082565,Ratnesh kumar,932121607224549376,2020-04-05 16:12:45,Patna India,city,"Patna City Outer, India",India
82,75.116404,23.3171025,Arvind Patidar,932121636093927425,2020-04-29 02:07:28,,city,"Ratlam, India",India
35620,-73.667436,41.0062425,Adrian Salazar DjM@uricio,932121868051599360,2020-03-23 20:07:59,"Port Chester, NY",city,"Port Chester, NY",United States
26900,-86.1429225,39.7795625,Sean Szolek-VanValkenburgh (He/Him),932122036872376320,2020-04-20 00:03:31,"Indianapolis, IN",city,"Indianapolis, IN",United States
120,100.493186,5.6844790000000005,mier ,932122124,2020-05-29 23:45:28,Langit ke tujuh,poi,Bandar Laguna Merbok,Malaysia
57,11.3790075,47.285018,Jordan Riser,93212215,2020-03-09 17:03:54,"Charleston, SC",city,"Innsbruck, Austria",Austria
42340,-81.22831500000002,31.9838835,Jordan Riser,93212215,2020-04-02 02:26:13,"Charleston, SC",city,"Georgetown, GA",United States
16700,-79.837322,32.847946500000006,Jordan Riser,93212215,2020-05-28 14:35:45,"Charleston, SC",city,"Mount Pleasant, SC",United States
21,-44.42958,-18.75817,Consuelo Gallo ,93212222,2020-06-05 12:43:09,Brasil,city,"Curvelo, Brasil",Brazil
222,101.37944449999999,0.47483100000000006,Rasyidah Ratnaputri,932122233631252481,2020-02-18 07:44:04,pekanbaru-malang,city,"Tampan, Indonesia",Indonesia
235,21.9661485,42.9304245,Ana Djordjevic,93212233,2020-04-07 15:31:31,SERBIA,city,"Leskovac, Srbija",Republic of Serbia
200,30.381503,40.7592495,Kbra,932122436,2020-02-15 21:55:25,"Tekirda, Trkiye",city,"Sakarya, Trkiye",Trkiye
30980,-94.8615755,32.389559000000006,Jaylon R Griffin,932122841310466048,2020-02-14 04:24:16,"Huntsville, TX / Kilgore, TX",city,"Kilgore, TX",United States
26660,-95.5472695,30.7060885,Jaylon R Griffin,932122841310466048,2020-02-21 15:21:47,"Huntsville, TX / Kilgore, TX",city,"Huntsville, TX",United States
30980,-94.8615755,32.389559000000006,Jaylon R Griffin,932122841310466048,2020-02-25 19:00:17,"Huntsville, TX / Kilgore, TX",city,"Kilgore, TX",United States
26660,-95.5472695,30.7060885,Jaylon R Griffin,932122841310466048,2020-03-08 20:26:27,"Huntsville, TX / Kilgore, TX",city,"Huntsville, TX",United States
26420,-95.48097750000001,30.383871000000003,Jaylon R Griffin,932122841310466048,2020-03-10 02:40:20,"Huntsville, TX / Kilgore, TX",city,"Panorama Village, TX",United States
26660,-95.5472695,30.7060885,Jaylon R Griffin,932122841310466048,2020-03-12 22:23:29,"Huntsville, TX / Kilgore, TX",city,"Huntsville, TX",United States
38060,-112.42497549999999,33.4128725,Russ Clark,93212319,2020-02-15 04:04:13,"Goodyear, AZ",city,"Goodyear, AZ",United States
88,136.8917325,35.199618,,932123232420761602,2020-03-16 03:32:58,  ,city,  ,
82,77.095086,28.638489500000002,Parbhat Panwar,932123391594610688,2020-04-30 18:22:17,,city,"New Delhi, India",India
39300,-71.4782725,41.5773585,Peggy Castle On.,932123504870395904,2020-02-15 02:16:06,,city,"North Kingstown, RI",United States
21,-43.441578,-22.911421500000003,Reine as Sasuke Trapper,932123549011234816,2020-05-10 15:31:24,Uchiha Clan,city,"Rio de Janeiro, Brasil",Brasil
82,72.474762,23.016688000000002,Neel Thakkar,932123659430281216,2020-04-19 13:24:20,"Ahmadabad City, India",poi,South-Bopal,India
171,120.7084155,14.1408625,Naruto,932124117343526912,2020-02-14 00:09:58,,city,"Nasugbu, Calabarzon",Republic of the Philippines
65,2.77975559,48.87030427,,932124458,2020-02-28 18:44:31,"Lorraine, France",city,"Chessy, France",France
48,-68.41659770000001,18.6836445,,932124458,2020-04-18 08:35:10,"Lorraine, France",city,"Higey, Dominican Republic",Dominican Republic
29540,-76.17505799999999,40.177209000000005,Todd Hauck,932124525285855233,2020-04-18 23:40:39,,poi,MTS Travel,United States
88,139.71027682,35.73041712,Utsugi Osamu,93212480,2020-02-27 12:53:17, ,city, ,
186,-15.459848999999998,28.103013,Frnco B,93212493,2020-02-16 21:16:05,Madrid/Fuerteventura,city,"Las Palmas de Gran Canaria, Espaa",Espaa
12580,-76.62048200000002,39.284713,ljchalmers,932125335864381440,2020-05-02 22:26:23,"Laurel, MD",city,"Baltimore, MD",United States
42220,-122.6761085,38.452217499999996,TATTY,932126053278949376,2020-02-17 06:20:49,,city,"Santa Rosa, CA",United States
161,67.0421945,24.9050755,Asif Mir Shaikh ,932126191812857856,2020-02-18 10:50:58,"Karachi, Pakistan",city,"Karachi, Pakistan",Pakistan
88,140.846137,40.1946545,,932126687583641600,2020-03-03 02:06:44,  ,city, ,
82,77.095086,28.638489500000002,Shivam Tiwari,932127069684645888,2020-03-28 19:07:53,,city,"New Delhi, India",India
82,85.2158125,23.8551605,Ranjan Kumar,932127136961347590,2020-04-09 08:17:54,,city,"Barkagaon, India",India
222,106.83129950000001,-6.332802,Soeryoanu,93212721,2020-03-17 04:28:30,"Jakarta Capital Region, Indone",city,"Jagakarsa, Indonesia",Indonesia
175,43.9595905,26.345051,fofo,932127216930033665,2020-05-28 07:57:19, #,city,",   ",  
88,139.797218,35.77808899999999,nongbubu  ,932127288723873792,2020-02-21 06:53:39,TAEYONG JAEHYUN 127  TYongF,city,"Adachi-ku, Tokyo",Japan
193,100.758974,13.681648999999998,nongbubu  ,932127288723873792,2020-02-25 15:59:39,TAEYONG JAEHYUN 127  TYongF,city,"Nong Prue, Thailand",Thailand
82,82.93295549999998,25.3733755,Abhilash kannoujia,932127325860151297,2020-02-28 10:27:35,"Varanasi, India",city,"Varanasi, India",India
222,106.774506,-6.185601999999999,Ld Fandy Azis,93212749,2020-02-19 02:23:32,Jakarta,city,"Kebon Jeruk, Indonesia",Indonesia
16980,-87.732013,41.8335845,Kelly Fumiko Weiss,932127589,2020-02-14 02:21:04,"Chicago, IL",city,"Chicago, IL",United States
82,72.87424399999999,19.174139999999998,VIJAY SHUKLA,932127594,2020-02-14 03:39:31,Mumbai.india,city,"Mumbai, India",India
193,100.490836,6.994530999999999,Grab Car,93212776,2020-03-08 09:47:20,"., ",poi,ATK Hotel,Thailand
82,79.78440549999998,26.6762055,Viraj kushwaha uf ankit kushwaha,932127990997065728,2020-03-23 05:35:12,"Rasulabad,kanpur Uttar Pradesh",city,"Rasulabad, India",India
25500,-78.8385485,38.396323,Stacey Whitelow,932128270111461376,2020-06-01 00:05:18,Harrisonburg VA,city,"Massanetta Springs, VA",United States
82,77.3508815,28.3312135,Adv. Manoj Sharma,932128490022776832,2020-04-01 08:35:27,"New Delhi, India",city,"Faridabad, India",India
193,101.2456715,12.6770695,nim,932128573,2020-03-22 03:37:51,"Lampang,Thailand",city,", ",
31080,-117.98745489,33.85679222,Don Harbert,93212864,2020-05-16 17:44:47,"La Mirada, CA",city,"Buena Park, CA",United States
117,56.42824,20.0157885,  ,932128915346378752,2020-02-14 13:03:53,",  ",city,",  ", 
171,122.76173999999999,8.10923,Jay Pee A. Mabait,932129083,2020-05-20 09:39:35,"Salug, Zamboanga Peninsula",city,"Salug, Zamboanga Peninsula",Republic of the Philippines
91,36.863620000000004,-1.2748635,Izzo Nyakora,932129202,2020-02-19 16:59:15,Nairobi Kenya,city,"Nairobi, Kenya",Kenya
205,-2.513525,51.611074,Vil Peas,93212937,2020-02-27 20:03:41,Bristol,city,"Thornbury, England",United Kingdom
38,-76.387606,3.5369339999999996,Csar Carvajal,93212948,2020-02-24 12:19:54,Colombia,poi,Aeropuerto Internacional Alfonso Bonilla Aragn (CLO),Colombia
82,77.095086,28.638489500000002,Pallavi Jain,932129688826155009,2020-05-15 12:35:41,India,city,"New Delhi, India",India
82,82.5663485,25.3914085,Vishal Chetna,932129705809076224,2020-05-10 12:09:44,"Varanasi, India",city,"Bhadohi, India",India
24,-122.755776,49.2854585,samm,932129712712794112,2020-05-09 06:57:16,lol,city,"Coquitlam, British Columbia",Canada
205,1.3579225000000001,51.3794825,Howard Jones,932130134,2020-04-22 15:26:01,"Margate, England",city,"Margate, England",United Kingdom
8,-58.44366527,-34.54893256,Alejandro,9321302,2020-02-28 00:02:23,Argentina,city,"Ciudad Autnoma de Buenos Aires, Argentina",Argentina
222,107.012009,-6.1846525,rika junika,93213025,2020-03-26 15:34:24,,city,"Bekasi Utara, Indonesia",Indonesia
88,140.88177395,38.31910457,Stephen,932130562671644672,2020-02-24 01:41:44,,city,  ,
88,134.8640845,34.710279,MR.BARBER,932130832319262720,2020-02-14 05:56:23,3-5-30102,city, ,
171,120.9304795,14.3994195,abonds,932130871,2020-02-14 10:45:54,ptln|et|jabi|mb|mg|ca,city,"Imus, Calabarzon",Republic of the Philippines
85,9.247043,45.484737,Birrificio Lambrate,932131669,2020-02-17 08:15:26,,city,"Milano, Lombardia",Italia
82,74.6096665,16.8509625,Rahul Gurav,932131917167816704,2020-05-10 06:09:51,"Sangli-Miraj Kupwad, India",city,"Sangli-Miraj Kupwad, India",India
186,-3.7035075,40.4777945,,932132028,2020-03-09 20:01:10,,city,"Madrid, Espaa",Espaa
120,102.11532199999999,5.8520605,nip #StayAtHome,932132041,2020-05-15 11:16:43,MY ,city,"Kusial, Kelantan",Malaysia
88,131.5435325,34.24355,,932132076714737665,2020-03-31 02:54:51,,city, ,
193,101.627418,12.646896, ,932132370035105793,2020-03-01 09:07:49,"., ",poi, (Mae Pim Beach),
82,73.68014149999998,19.971298,Nikhil Rajput,932132768565182464,2020-03-19 20:03:58,", ",city,"Nashik, India",India
171,121.13148899999999,14.289166,STREAM FIESTA,932133409,2020-02-19 05:22:25,,poi,Pamantasan ng Lungsod ng Cabuyao,Republic of the Philippines
21,-44.23333333,-2.6,Borboletinha,93213342,2020-04-23 21:18:24,"Ilha do amor, ou no...",city,"So Lus, Brasil",Brasil
82,71.4023395,25.746729,RAJESHKUMAR,932133530766897152,2020-02-20 09:10:43,", ",city,"Barmer, India",India
30,112.763002,37.704397,~,932133688963244032,2020-04-03 06:04:28,Shanxi,poi,,
82,75.1520915,33.8651245,MIR MOHAMMAD UMAR,932133712401121281,2020-03-12 18:30:05,"Anantnag, Jammu And Kashmir",city,"Anantnag, Jammu And Kashmir",
88,135.4838255,34.678121999999995,,932133905053892608,2020-05-20 23:40:46,,city,  ,
171,120.75196159999999,14.99020557,sangsang,932133910598770688,2020-03-23 05:34:20,vb court,city,"San Simon, Central Luzon",Republic of the Philippines
39340,-111.671789,40.2486455,  ,932134047395987456,2020-02-15 00:57:59,SLCOAK-SF,city,"Provo, UT",United States
41620,-111.96327749999999,40.55948050000001,NOBODYS BABY,932134047395987456,2020-03-03 18:42:09,SLCOAK-SF,city,"South Jordan, UT",United States
39340,-111.671789,40.2486455,NOBODYS BABY,932134047395987456,2020-03-03 19:57:35,SLCOAK-SF,city,"Provo, UT",United States
41620,-111.997441,40.6787035,,932134047395987456,2020-03-23 01:29:46,SLCOAK-SF,city,"West Valley City, UT",United States
39340,-111.671789,40.2486455,,932134047395987456,2020-03-24 04:54:29,SLCOAK-SF,city,"Provo, UT",United States
41620,-111.997441,40.6787035,eco-friendly wallflower,932134047395987456,2020-05-25 16:43:17,SLCOAK-SF,city,"West Valley City, UT",United States
39340,-111.671789,40.2486455,eco-friendly wallflower,932134047395987456,2020-05-26 23:07:16,SLCOAK-SF,city,"Provo, UT",United States
21,-44.080921999999994,-22.524347,loira ,932134566659350528,2020-02-18 14:28:23,"Eucaliptal, Volta Redonda",city,"Volta Redonda, Brasil",Brasil
49,-80.777838,-0.953684,Ana Leonor Resabala,932134843,2020-02-25 19:20:41,Ecuador ,poi,Piedra Larga Beach,Ecuador
82,72.78910450000002,21.171369,Jay Modi,932134853046358016,2020-05-28 07:51:44,"Surat, India",city,"Surat, India",India
24580,-88.2377855,44.6677545,PHS Softball,932134952,2020-05-14 16:16:38,,city,"Pulaski, WI",United States
82,78.6435015,27.80579,Ashok Gaur,932136124641820672,2020-05-21 09:28:08,"Kasganj, Etah",city,"Kasganj, India",India
88,139.703902,35.698373,,932136155033747456,2020-02-20 10:28:12,,poi,2 2,
82,72.85511600000001,19.132441,Prakash Chandra Darji,932136249954988033,2020-03-25 10:34:50,"Rajasthan, India",poi,Jogeshwari (E),India
175,50.129138,26.307340000000003,,932136355,2020-03-02 09:09:45,Eastern,poi,Saudi Aramco - Main Camp,  
186,-8.829918,42.277563,Csar Sotelo,93213651,2020-03-01 11:28:11,,poi,Playa De Arneles,Espaa
158,172.74586649999995,-43.6457815,-,932136547515641856,2020-02-25 09:05:09,phnz,city,"Christchurch City, New Zealand",New Zealand
82,72.87424399999999,19.174139999999998,Manish Yadav,932136611319513088,2020-02-17 12:28:07,"Mumbai, India",city,"Mumbai, India",India
200,33.933111999999994,36.377947,Mehtap Meydan ,932137105039478784,2020-04-12 19:23:21,,city,"Silifke, Trkiye",Trkiye
47900,-77.1185025,38.981337,joe king,932137376,2020-02-20 14:50:17,United States,city,"Bethesda, MD",United States
12580,-76.328262,38.9383185,joe king,932137376,2020-03-01 23:46:17,United States,city,"Stevensville, MD",United States
73,23.763567499999997,37.8489845, ,932137848920264706,2020-02-29 21:41:15,,city,", ",
119,-99.1614805,19.380613,.,932137872009846784,2020-05-07 22:33:32,YHQMDLG,city,"Benito Jurez, Distrito Federal",Mexico
16980,-87.62362195,41.88270986,Martha M. Asensi,93213804,2020-02-28 16:31:31,Santo Domingo DR,city,"Chicago, IL",United States
88,139.04763169999998,35.0790578,,932138084249907200,2020-03-29 11:36:36,,city, ,
175,36.614784,28.39854,    &   ,932138266140213248,2020-05-31 01:55:59,",   ",city,",   ",  
82,88.352242,22.6127055,Muktiram Maiti,932138780969934848,2020-02-19 09:52:55,"Kolkata, India",city,"Kolkata, India",India
171,123.24782649999999,13.640892,viktoria ,932139075754016768,2020-02-14 01:19:29,monay,city,"Naga City, Bicol Region",Republic of the Philippines
65,6.656905999999999,46.1551665,Cyril Pellevat,93213924,2020-02-15 08:19:26,Paris,city,"Les Gets, France",France
191,6.2394315,46.3811705,Cyril Pellevat,93213924,2020-03-05 12:08:22,Paris,city,"Nyon, Suisse",Suisse
65,6.2665465000000005,46.160415,Cyril Pellevat,93213924,2020-04-09 08:12:26,Paris,city,"Arthaz-Pont-Notre-Dame, France",France
8,-58.4397,-34.6089,arcoiris.fm,932139643197448192,2020-06-01 18:17:43,,city,"Ciudad Autnoma de Buenos Aires, Argentina",Argentina
178,26.21311,-29.1065885,Thabo Mokgoetsi,932139914,2020-03-12 05:28:24,"Bloemfontein, South Africa",city,"Bloemfontein, South Africa",South Africa
8,-65.3139554,-24.16590185,DANIEL PORTALES,93213994,2020-02-23 15:16:48,argentina provincia de jujuy ciudad de Palpala.,city,"Dr. Manuel Belgrano, Argentina",Argentina
82,75.85974300000002,25.021984,PramodMali,932140541470318592,2020-04-07 10:31:40,kota rj,city,"Kota, India",India
24,-75.625038,45.4827445,Jessica Eritou,932140800,2020-02-14 18:43:30,"Ottawa, Ontario",city,"Gatineau, Qubec",Canada
120,116.4616425,6.331139500000001,Anis,932140832072728576,2020-04-16 13:34:00,"Sabah, Malaysia",city,"Kota Belud, Sabah",Malaysia
82,73.19235499999998,19.270371,atul,932140876607897600,2020-05-05 11:46:54,,city,"Kalyan Dombivali, India",India
41740,-117.10498899999999,32.810012,Eli,932141058263322625,2020-03-30 14:27:18,"Houston, TX",city,"San Diego, CA",United States
8,-64.1980255,-31.4154565,Crdoba,932141577333506048,2020-04-11 01:12:32,"Crdoba, Argentina",city,"Crdoba, Argentina",Argentina
21,-38.4767,-12.9747,Fefa,93214162,2020-04-17 14:44:56,"Salvador, BA",city,"Salvador, Brazil",Brazil
175,39.8016865,21.389833000000007,,932141779,2020-03-22 03:28:22,,city," ,   ",  
82,73.88438199999999,18.520764,Karanbulbule,932141809819668481,2020-03-09 10:39:04,"Ghorpadi, Pune",city,"Pune, India",India
178,28.184066499999997,-25.752605499999998,The Gardeners,932141958,2020-03-20 08:43:44,EdeN,city,"Pretoria, South Africa",South Africa
88,141.878332,43.334049,,93214217,2020-04-09 00:31:54,,city, ,
200,29.0052225,41.0213205,Abdullah BAKMAZ,932142624,2020-02-18 12:00:39,,city,"stanbul, Trkiye",Trkiye
19780,-93.6115305,41.732949,Heriberto Marin,932143064168120321,2020-02-17 03:43:57,,city,"Ankeny, IA",United States
171,121.05677,14.583974,kowalski  DV,932143617052774400,2020-02-23 00:49:39,Republic of the Philippines,poi,SM Megamall,Republic of the Philippines
88,141.276295,43.110367,,932143830018678784,2020-04-13 13:06:19,  ,poi,  ,
171,123.37301000000001,9.801208500000001,Leila Rosento,932143986,2020-04-23 17:09:51,Makati City,city,"Alegria, Central Visayas",Republic of the Philippines
91,39.708698,-4.003622,SAVAGEKID_KE,932144130934927360,2020-04-09 09:02:13,"Nyali, Kenya",poi,Vescom Two Estate,Kenya
160,-76.13695870000001,-13.429557,Sotelo Razzeto Law,932144586,2020-03-22 21:49:28,"Chincha Alta, Peru",city,"Chincha Alta, Peru",Peru
175,49.556000000000004,27.127908,JACK Sparrow,932144623551524864,2020-05-12 19:27:17,India,city,"Jubail Industrial City, Kingdom of Saudi Arabia",Kingdom of Saudi Arabia
128,3.800797,50.423967499999996,Le Vinz (Cani),932144786,2020-02-14 08:59:10,Jemappes,city,"Boussu, Belgique",Belgique
35620,-73.9685415,40.780709,"Yasmeen Alhaj, RD2B",932144858718003200,2020-05-05 12:56:56,"New York, USA",city,"Manhattan, NY",United States
193,98.2850647,7.96220995,LOVE CONTRAST,932145042,2020-04-05 14:54:02,"Tokyo-to, Japan",city,"Kammala, Thailand",Thailand
88,139.74760742,35.62302805,LOVE CONTRAST,932145042,2020-05-30 15:29:40,"Tokyo-to, Japan",city,"Shinagawa-ku, Tokyo",Japan
88,139.6345155,35.636514,,932145219159539712,2020-03-03 04:28:17, ,city,"Setagaya-ku, Tokyo",Japan
82,82.94513175,26.33385559,Jai Hind Gupta up 50,932145591047606272,2020-04-03 09:43:47,Azamgarh,city,"Atraulia, India",India
16980,-87.732013,41.8335845,miz behave,932145920,2020-02-14 00:00:53,"Chicago, IL",city,"Chicago, IL",United States
151,3.3180660000000004,6.590611,Sumptuous ,932146268171796481,2020-03-22 06:26:34,"Lagos, Nigeria",city,"Ikeja, Nigeria",Nigeria
82,76.974691,28.368525,Aman Thakur ,932147084844720128,2020-02-14 02:30:12,"Gurgaon, India",city,"Gurgaon, India",India
88,133.1740625,34.414378,atelier ckm,932147185444982785,2020-03-18 10:47:21, ,city, ,
175,39.2541285,21.5857105,WED,932147194878136320,2020-03-19 10:15:32,"Saudi Arabia, Jeddah",city,"Jeddah, Kingdom of Saudi Arabia",Kingdom of Saudi Arabia
21340,-106.48899999999999,31.7658,isai,93214724,2020-02-14 14:21:48,"California, USA",city,"El Paso, TX",United States
21,-43.441578,-22.911421500000003,,932147262230355968,2020-03-03 18:26:39,,city,"Rio de Janeiro, Brasil",Brasil
82,75.6388525,32.328918,Monika Sharma,932147291430854656,2020-02-14 05:25:02,India,city,"Pathankot, India",India
171,124.5033105,10.974914,Roelle  ,93214735,2020-03-31 09:57:45,"Leyte, Philippines",city,"Merida, Eastern Visayas",Republic of the Philippines
49,-80.9349095,-2.261088,Nick Beltrn C.,932147509253804032,2020-03-14 05:43:18,"Guayaquil, Ecuador",city,"Salinas, Ecuador",Ecuador
35620,-74.344052,41.403596,Rafael J. Nieves,93214764,2020-02-21 21:25:42,"Warwick, NY",city,"Goshen, NY",United States
193,104.3358985,15.094147,PP,932147804880781313,2020-04-05 13:47:09,Amphoe Mueang Si Sa Ket,city,"Mueang Tai, Thailand",Thailand
82,84.845167,24.680211,Bablu boss,932148089447522304,2020-02-29 16:07:28,,city,"Gaya, India",India
82,73.47180350000001,27.5586145,Mahadev,932148124549709825,2020-04-07 15:17:04,", ",city,"Nokha, India",India
200,29.0052225,41.0213205,Dr.Muhsinby,93214825,2020-02-14 19:10:10,stanbul,city,"stanbul, Trkiye",Trkiye
21,-68.2654835,-9.9997665,a corna mais cobiada do acre?,932148351067459584,2020-02-14 00:57:48,"Rio Branco, Brasil",city,"Rio Branco, Brasil",Brasil
88,137.232826,34.8176245,,932148472886603776,2020-03-17 11:36:11,,city, ,
9,145.0531355,-37.9725665,Kels,932148527282532353,2020-03-11 19:37:01,"Melbourne, Victoria",city,"Melbourne, Victoria",Australia
35620,-73.9685415,40.780709,MAGGIE GAND,932149099,2020-04-23 23:28:52,,city,"Manhattan, NY",United States
24,-79.364324,43.655989,Ricardo Dias,932149201739440128,2020-03-17 01:26:23,"Toronto, Ontario",city,"Toronto, Ontario",Canada
205,-0.14893599999999999,51.500091999999995, ,93214982,2020-02-23 20:05:43,Dubai,city,"London, England",United Kingdom
14460,-71.036722,42.312676,Gary Sanderson,932149870772748289,2020-02-28 17:36:59,"Boston, MA, USA",poi,UMass Boston Campus Center,United States
171,125.614501,7.086939,Jwlcmrgo,932150082429902849,2020-02-26 23:11:00,Rosal1 mapantad tapad simbahan,poi,Canibad Hidden Resort,Republic of the Philippines
88,131.1024305,33.484151000000004,,932150235253452800,2020-03-28 13:10:49,,city, ,
171,121.0627355,14.683012,Mark Alfred  Labaco,932150336,2020-02-15 16:28:29,Quezon City,city,"Quezon City, National Capital Region",Republic of the Philippines
119,-103.23313,25.244223,Jess Miguel,93215038,2020-02-14 01:58:22,,city,"Torren, Coahuila de Zaragoza",Mxico
9,145.0531355,-37.9725665,Prof. Alan M Smith,932150479,2020-03-03 06:45:05,University of Huddersfield,city,"Melbourne, Victoria",Australia
205,-1.8117580000000002,53.6473925,Prof. Alan M Smith,932150479,2020-03-09 16:55:22,University of Huddersfield,city,"Huddersfield, England",United Kingdom
26420,-95.4464865,29.838495,Jonathan Crager,932150517031227398,2020-03-19 20:06:26,"Houston, TX",city,"Houston, TX",United States
82,74.9580325,27.998514500000002,Dr G L Sharma MO RAJASTHAN,932150738725122049,2020-05-07 13:26:38,"Rajasthan, India",city,"Fatehpur, India",India
119,-99.086556,19.399359,Luis ngel.,932150754240073728,2020-06-09 00:57:43,Mxico,poi,Corona Capital 2019,Mxico
175,49.6276765,25.458642,,932151580194955264,2020-05-27 18:34:38, ,city,",   ",  
16980,-87.88340500000001,42.5892655,Victoria Valdez,93215179,2020-03-07 15:04:35,"Fremont, NE",city,"Kenosha, WI",United States
171,125.189967,6.121065,CATT ,932152278118645761,2020-02-21 08:29:11,Aflek,poi,Robinsons Supermarket,Republic of the Philippines
186,-3.7035075,40.4777945,F. H. El Carabanchelero ,932152559707607045,2020-02-14 12:57:42,Espaa ,city,"Madrid, Espaa",Espaa
82,72.96310700000002,21.7683995,sadik raj,932152617815433216,2020-04-15 07:18:35,"Bharuch, India",city,"Bharuch, India",India
82,75.523967,19.915838,Waseem Pathan  ,932152643530756098,2020-05-24 14:53:53,"Maharashtra, India",city,"Aurangabad, India",India
120,101.227257,4.3778775,Sam Wong,932152808995921921,2020-05-01 11:06:41,", Macau",city,"Kampar, Perak",Malaysia
88,140.014262,35.7316915,RanTae,932153274509045761,2020-02-18 13:57:22,,city,"Funabashi-shi, Chiba",Japan
82,77.3508815,28.3312135,United Automobiles,932153576717090816,2020-04-17 07:47:07,"Faridabad, India",city,"Faridabad, India",India
82,73.04405200000001,24.7970555,Bharat Choudhary,932153753884438529,2020-02-17 12:10:34,"Mount Abu, India",city,"Pindwara, India",India
26900,-86.1429225,39.7795625,MiyaRose,932153825942786049,2020-02-20 22:23:53,"Beech Grove, IN",city,"Indianapolis, IN",United States
19100,-96.839573,32.405584000000005,*  Dino gave me a heart 1/15/20  *,932154036073259010,2020-04-17 04:07:26,"Corpus Christi, TX",city,"Waxahachie, TX",United States
26420,-95.4464865,29.838495,*  Dino gave me a heart 1/15/20  *,932154036073259010,2020-05-02 22:23:56,,city,"Houston, TX",United States
119,-113.39268349999999,27.203792,(ARMY),932154108508884992,2020-05-10 22:13:32,"Baja California Sur, Mxico",city,"Muleg, Baja California Sur",Mxico
222,106.80251100000001,-6.218578,Fernando_Manik,93215414,2020-02-24 10:17:40,"Jakarta,Indonesia",city,"Kebayoran Lama, Indonesia",Indonesia
31080,-118.4119065,34.0207895,,932154434900996096,2020-03-14 03:52:25,,city,"Los Angeles, CA",United States
82,72.87424399999999,19.174139999999998,Arun Tiwari,932154863131045888,2020-05-22 12:46:21,"Mumbai, India",city,"Mumbai, India",India
88,130.62696283,32.57939066,Ragia,932154986,2020-05-19 09:08:23,,city, ,
88,136.722341,35.176046,,932155151384657921,2020-06-10 10:07:01,,city,"Aisai-shi, Aichi",Japan
82,85.1649,25.601599,ssomnath,932155172,2020-04-16 05:40:05,patna,poi,Kankerbagh,India
41860,-122.43597849999999,37.7706565,Wunder,932156007202951168,2020-02-28 00:30:33,"San Francisco, CA",city,"San Francisco, CA",United States
21,-46.5955455,-23.682803,Pedro Ignacio,932156323,2020-04-01 03:49:39,"So Paulo, Brasil",city,"So Paulo, Brasil",Brasil
175,39.041685,22.7290735,FaheemAhmed,932156458006925313,2020-04-05 01:07:34,Kingdom of Saudi Arabia,city,"Rabigh, Kingdom of Saudi Arabia",Kingdom of Saudi Arabia
88,139.6980188,35.66228288,,932156461,2020-02-16 12:04:26,,city, ,
159,-57.60601750000001,-25.300264000000002,Daniel,93215647,2020-02-14 17:39:09,Chaco ,city,"Asuncion, Paraguay",Paraguay
88,139.96768,35.862712,Yuki,932156738928701441,2020-06-09 03:06:58,,poi,,
30,105.785899,29.746191999999997,ska001,932157168949739520,2020-05-22 07:29:56,,poi,Dazu Rock Carvings ,
175,39.945508000000004,21.328429,ad,932157261258067968,2020-02-25 08:24:42," ,   ",poi,     -   ,Kingdom of Saudi Arabia
151,7.043798,5.517669000000001,Biggie,932157931835084801,2020-04-02 11:02:57,Nigeria,poi,Lagos,Nigeria
21,-43.44815734,-22.75870553,Mara,932158178,2020-05-18 12:47:21,"Rio de Janeiro, Brasil",city,"Nova Iguau, Brasil",Brasil
45,11.807902499999999,55.457701,Jacob XRP,932158300170477569,2020-02-18 04:46:18,"Copenhagen, Denmark",city,"Ringsted, Danmark",Denmark
69,-0.23852199999999998,5.579937999999999,Raphael Nortey,932158426804883457,2020-04-12 04:05:33,Abossy Okai,poi,Bubuashie Estate,Ghana
21,-46.6333,-23.55,Sandra ,93215866,2020-03-02 20:14:59,"So Paulo, Brasil",city,"So Paulo, Brasil",Brasil
82,75.6319395,31.410515999999998,Ranjodh Records,932158774613180422,2020-04-04 01:23:02,"Lambra,Jalandhar, India",city,"Jalandhar, India",India
175,46.685077,24.7219435,,932158848055554048,2020-05-09 00:50:46,  ,city,"Riyadh, Kingdom of Saudi Arabia",Kingdom of Saudi Arabia
88,135.4650225,34.5766425,,932159270,2020-04-15 18:51:29,,city,  ,
84,34.769776,32.086642,Pixellot LTD.,932159989803872256,2020-02-25 12:05:55,Israel,poi,The Carlton Hotel Tel Aviv,Israel
82,80.88440750000002,26.8251695,Muhammad Tanveer Azam,932160245920448512,2020-02-25 08:32:19,"Kanpur, India",city,"Lucknow, India",India
