currentGEOID,lon,lat,name,author_Id,created_at,location,place_type,place_full_name,place_country
31080,-117.824049,33.810159000000006,Lorrie,25718223,2020-04-13 17:31:55,SoCal,city,"Orange, CA",United States
21780,-87.5746905,38.003466499999995,Nicole Ahsinger,2571822330,2020-02-27 22:49:53,,city,"Evansville, IN",United States
29180,-92.0611765,30.206079000000006,Nicole Ahsinger,2571822330,2020-03-12 22:00:37,,city,"Lafayette, LA",United States
21,-60.10147804,-3.06391376,,257182258,2020-03-22 23:47:32,Brasil,city,"Manaus, Brasil",Brasil
42660,-122.359329,47.208566,Dana Dillon,25718238,2020-02-16 13:01:12,"T: 47.1505821,-122.3012411",city,"Waller, WA",United States
82,88.3697,22.5697,Pritam Sarkar,2571825115,2020-02-26 08:15:26,Kolkata,city,"Kolkata, India",India
88,138.13361,36.508383,,2571825134,2020-04-08 00:35:38,,poi,Trattoria ,
49,-79.770544,-2.011486,W Cevallos,257182543,2020-02-29 17:53:44,,city,"Samborondon, Ecuador",Ecuador
119,-99.187904,23.685934,V,257182549,2020-02-14 06:01:07,,city,"Victoria, Tamaulipas",Mxico
88,139.6735625,35.76839800000001,Buna,2571826219,2020-02-14 01:54:28, 23,city, ,
242,121.46744013,25.0138676,Buna,2571826219,2020-02-23 09:52:50, 23,city,", ",
88,139.708333,35.688611,Buna,2571826219,2020-03-20 05:24:25, 23,city, ,
205,-2.3107900000000003,53.09443149999999,Iain Seath,257182747,2020-03-09 13:16:58,"England, United Kingdom",city,"Alsager, England",United Kingdom
8,-58.448032999999995,-34.594348,nati zunino,257182797,2020-02-28 03:48:30,,poi,Movistar Arena,Argentina
31080,-118.4119065,34.0207895,T E E 503,2571828308,2020-02-21 19:28:53,"Homestead, Tx",city,"Los Angeles, CA",United States
26420,-95.4464865,29.838495,T E E 503,2571828308,2020-02-23 00:09:32,"Homestead, Tx",city,"Houston, TX",United States
21,-34.939349,-8.043603,luana ,257182867,2020-02-20 22:49:37,,city,"Recife, Brasil",Brasil
9,151.209941,-33.866687,Bonnie Dean,2571829183,2020-02-21 05:06:06,University of Wollongong,poi,Sydney CBD,Australia
186,2.1412275000000003,41.392657,Sonia Sevilla,2571830807,2020-02-18 15:15:20,"Barcelona, Espaa",city,"Barcelona, Espaa",Espaa
21,-48.45979749999999,-1.2729295,Galinha do chaos,2571831074,2020-03-01 23:04:39,Belm,city,"Belm, Brasil",Brasil
186,-3.8261489999999996,43.46464,Julio Rodriguez Acha,2571831441,2020-02-27 06:46:26,,city,"Santander, Espaa",Espaa
40140,-117.371646,34.071964,,2571832082,2020-03-15 03:21:05,,poi,Walmart,United States
31080,-117.8874385,33.739992,,2571832082,2020-04-11 21:59:29,en el pinche amazon,city,"Santa Ana, CA",United States
40140,-117.294096,34.134925,,2571832082,2020-04-12 05:35:48,en el pinche amazon,city,"San Bernardino, CA",United States
31080,-117.96854,33.769045,,2571832082,2020-05-23 03:02:00,En el puto amazon,city,"Garden Grove, CA",United States
40140,-117.386642,34.0976985,,2571832082,2020-05-23 14:01:24,En el puto amazon,city,"Rialto, CA",United States
205,-3.00001902,51.58891698,Colin Parry,257183263,2020-02-22 11:14:20,,city,"Newport, Wales",United Kingdom
24,-114.087851,51.027664,Tennant Solutions,2571832843,2020-02-19 21:22:08,,city,"Calgary, Alberta",Canada
21,-34.939349,-8.043603,novidad3 nova,257183430,2020-03-24 22:31:54,Recife/Pe,city,"Recife, Brasil",Brasil
31080,-117.896662,34.0471795,munts,2571835766,2020-05-06 05:23:06,"California, USA",city,"West Covina, CA",United States
19100,-96.92631999999999,32.660728999999996,Aaron Wingfield,2571835818,2020-02-15 22:44:27,,poi,Duncanville High School,United States
8,-58.528678500000005,-34.4824616,Yesica Toscanini,2571836161,2020-02-19 00:11:54,,city,"San Isidro, Argentina",Argentina
119,-95.88024,18.11009,Miguel Zamora,2571836744,2020-05-05 03:35:17,"Loma bonita, oaxaca, Mxico ",city,"Loma Bonita, Oaxaca",Mxico
21,-43.959822499999994,-19.918692,Doda ,2571837302,2020-03-16 01:24:00,"Belo Horizonte, Brasil",city,"Belo Horizonte, Brasil",Brasil
71,7.5113210000000015,53.572018500000006,Jakob,2571837318,2020-05-23 10:08:54,"Kln, Deutschland",city,"Neuschoo, Deutschland",Deutschland
88,140.01256899999998,35.8587675,(TashiroYuga),2571838181,2020-02-25 07:00:29,,city, ,
26900,-86.1429225,39.7795625,Alyssa Carlton,2571838292,2020-03-13 15:27:59,,city,"Indianapolis, IN",United States
42660,-122.3306025,47.614816999999995,Collective Terms Stan Account,257183999,2020-02-14 05:15:11,Naboo,city,"Seattle, WA",United States
205,-2.23348,53.4569525,Gav Pickers,25718407,2020-02-28 10:58:22,"London, England",city,"Manchester, England",United Kingdom
205,-3.883433,55.641528,Hamilton Academical WFC,257184213,2020-03-24 20:02:08,"New Douglas Park, Hamilton",poi,Craighead Park (Lesmahagow FC),United Kingdom
205,-0.017990000000000003,51.454107,Brad.,257184266,2020-04-30 10:32:36,"Reigate, Surrey",city,"Lewisham, London",United Kingdom
32900,-120.598328,37.350299,T,2571842989,2020-03-05 19:42:39,,city,"Atwater, CA",United States
31460,-120.25294950000001,37.115059499999994,T,2571842989,2020-04-30 03:19:06,,city,"Chowchilla, CA",United States
32900,-120.47181,37.3162225,T,2571842989,2020-05-05 16:12:06,,city,"Merced, CA",United States
36500,-122.92351599999999,47.064528,Tonia Sugarman,2571843649,2020-03-07 00:57:15,"Olympia, WA",city,"Olympia, WA",United States
191,6.847241,46.4384345,Equi-Authentic,257184401,2020-03-17 08:20:30,Switzerland,city,"Vevey, Switzerland",Switzerland
21,-46.525365,-21.374285500000003,"Esse no sou eu,  a TATA.",257184457,2020-04-10 23:46:57,"Muzambinho, Brasil",city,"Muzambinho, Brasil",Brasil
8,-58.364902,-34.636339,Migue,257184562,2020-02-16 16:14:35,,poi,"Estadio Alberto J. Armando ""La Bombonera"" (Club Atltico Boca Juniors)",Argentina
21,-46.5955455,-23.682803,meu nick no batepapo uol era toaquimasnaotodevdd,257184592,2020-02-25 00:38:49,,city,"Sao Paulo, Brazil",Brazil
21,-46.5955455,-23.682803,Mau ri cio,257184608,2020-02-14 23:00:01,,city,"So Paulo, Brasil",Brasil
41940,-121.8737305,37.331159,mel,2571846649,2020-02-15 01:17:57,"Los Angeles, CA",city,"San Jose, CA",United States
41860,-122.0857755,37.64127050000001,mel,2571846649,2020-02-16 11:01:27,"Los Angeles, CA",city,"Hayward, CA",United States
41940,-121.8737305,37.331159,mel,2571846649,2020-02-18 05:05:28,"Los Angeles, CA",city,"San Jose, CA",United States
41860,-122.0857755,37.64127050000001,mel,2571846649,2020-02-24 20:56:39,"Los Angeles, CA",city,"Hayward, CA",United States
41940,-121.8737305,37.331159,mel,2571846649,2020-02-26 01:37:45,"Los Angeles, CA",city,"San Jose, CA",United States
41860,-122.04481399999999,37.592159,mel,2571846649,2020-03-05 00:33:07,"Los Angeles, CA",city,"Union City, CA",United States
41940,-121.8737305,37.331159,mel,2571846649,2020-03-08 03:42:24,"Los Angeles, CA",city,"San Jose, CA",United States
41860,-122.0857755,37.64127050000001,mel,2571846649,2020-03-10 16:59:41,"Los Angeles, CA",city,"Hayward, CA",United States
41940,-121.8737305,37.331159,mel,2571846649,2020-03-13 14:42:49,"Los Angeles, CA",city,"San Jose, CA",United States
41860,-122.0857755,37.64127050000001,mel,2571846649,2020-03-15 22:56:05,"Los Angeles, CA",city,"Hayward, CA",United States
41940,-121.8737305,37.331159,mel,2571846649,2020-03-21 06:05:34,city of angels ,city,"San Jose, CA",United States
41860,-122.0857755,37.64127050000001,mel,2571846649,2020-03-23 07:00:55,city of angels ,city,"Hayward, CA",United States
41940,-121.8737305,37.331159,mel,2571846649,2020-03-27 05:52:30,city of angels ,city,"San Jose, CA",United States
41860,-122.0857755,37.64127050000001,mel ,2571846649,2020-03-30 01:48:50,lost in a city of angels,city,"Hayward, CA",United States
41940,-121.8737305,37.331159,m,2571846649,2020-04-01 05:32:48,lost in a city of angels,city,"San Jose, CA",United States
41860,-121.979527,37.5236445,mel ,2571846649,2020-04-06 00:43:51,lost in a city of angels,city,"Fremont, CA",United States
41940,-121.8737305,37.331159,,2571846649,2020-04-14 07:28:37,she/they. city of angels,city,"San Jose, CA",United States
41860,-122.0857755,37.64127050000001,,2571846649,2020-04-25 08:57:36,she/they. city of angels,city,"Hayward, CA",United States
41940,-121.8737305,37.331159,,2571846649,2020-04-27 07:58:53,she/they. city of angels,city,"San Jose, CA",United States
41860,-122.0857755,37.64127050000001,,2571846649,2020-05-02 04:32:51,she/they. city of angels,city,"Hayward, CA",United States
41940,-121.8737305,37.331159,,2571846649,2020-05-04 18:41:50,she/they. city of angels,city,"San Jose, CA",United States
41860,-122.0857755,37.64127050000001,,2571846649,2020-05-18 03:28:57,city of angels,city,"Hayward, CA",United States
41940,-121.8737305,37.331159,mel,2571846649,2020-05-21 07:00:19,city of angels,city,"San Jose, CA",United States
41860,-122.0857755,37.64127050000001,mel,2571846649,2020-05-24 05:21:44,city of angels,city,"Hayward, CA",United States
41940,-121.8737305,37.331159,mel,2571846649,2020-05-27 20:37:51,city of angels,city,"San Jose, CA",United States
119,-98.775808,20.1056375,D Astrd ,2571847150,2020-04-02 05:53:59,"Pachuca, Hidalgo ",city,"Pachuca de Soto, Hidalgo",Mxico
71,9.942889,48.387547,Ayoub Fajraoui,257184740,2020-04-04 10:26:42,"Ulm, Deutschland",city,"Ulm, Allemagne",Allemagne
200,27.4067505,38.6239745,KoRaY,2571847877,2020-02-18 21:46:14,zmir/manisa,city,"Manisa, Trkiye",Trkiye
41700,-98.5406515,29.417501,Kathryn,2571848065,2020-05-08 18:00:52,"San Antonio, TX",city,"San Antonio, TX",United States
205,-2.5853900000000003,51.457877,Daniel Fry,257184969,2020-02-14 21:45:15,Bristol,city,"Bristol, England",United Kingdom
151,6.762629,7.121600999999999,#OccupyLagos,2571850675,2020-02-15 05:33:17,Lagos  Nigeria,city,"Idah, Nigeria",Nigeria
31080,-117.824049,33.810159000000006,Rinehar7,2571851,2020-02-14 16:29:11,"Orange, CA",city,"Orange, CA",United States
186,-0.352529,39.422484499999996,Miguel ngel Huerta ,257185206,2020-02-24 10:18:44,"La Pobla de Vallbona, Espaa",city,"Valencia, Espaa",Espaa
18140,-83.07858900000001,40.284123,Harriet Tregoning,257185306,2020-02-22 21:30:54,washington dc,city,"Delaware, OH",United States
47900,-77.0143985,38.898603,Harriet Tregoning,257185306,2020-03-17 19:24:51,washington dc,city,"Washington, DC",United States
17780,-96.30449300000001,30.600333000000003,Dat Boi Inc.,2571853454,2020-04-07 21:26:19,,poi,BCS Asian Market,United States
21700,-124.165072,40.800061,Humboldt Last Week,257185451,2020-03-09 21:09:55,Humboldt County,poi,Eureka Inn,United States
24,-73.70958900000001,45.60556800000001,Sardou Romulus,2571854528,2020-02-16 02:45:47,"Laval, Qubec",city,"Laval, Qubec",Canada
175,42.533355,18.303816,doNi,2571854641,2020-02-25 07:10:11,  ,city,",   ",  
175,41.697183,27.564214,...,2571855043,2020-02-23 08:29:28,,poi,  ,  
35620,-73.9675,40.7779,The Man La Gigi,25718565,2020-04-16 18:05:07,NYC,city,"Manhattan, NY",United States
24,-123.123581,49.257639000000005,Dr Vineet Singh,257185704,2020-05-07 03:46:05,"Vancouver, British Columbia",city,"Vancouver, British Columbia",Canada
205,-1.6453615000000001,54.992055500000006,Jack Deverson,257185712,2020-03-06 10:52:57,Sunderland,city,"Newcastle Upon Tyne, England",United Kingdom
19820,-83.00374435,42.37973462,Mrs. Randi Diamond -Johnson,2571858307,2020-02-28 02:56:12,"Detroit, MI ",city,"Detroit, MI",United States
21,-41.1462195,-19.2174855,     ,2571858330,2020-04-26 05:24:59,Resplendor,city,"Resplendor, Brasil",Brasil
12580,-76.7415,39.261002000000005,Kim Schmulowitz,2571858678,2020-02-21 18:49:55,,city,"Catonsville, MD",United States
119,-100.558148,28.685503999999998,Dianely,2571860540,2020-03-01 20:08:03,"Piedras Negras, Coahuila de Zaragoza",poi,Universidad Vizcaya,Mxico
12420,-97.672732,30.519340500000002,reyna,2571860900,2020-02-16 04:56:12,,city,"Round Rock, TX",United States
49,-79.51046199999998,-3.7400255,Mnik P,257186146,2020-02-23 08:05:27,Ecuador-Guayaquil,city,"Portovelo, Ecuador",Ecuador
40140,-117.5621525,34.12167,isaac,2571861641,2020-02-14 00:04:18,The world,city,"Rancho Cucamonga, CA",United States
29820,-115.223125,36.232915000000006,isaac,2571861641,2020-02-16 04:03:52,The world,city,"Las Vegas, NV",United States
40140,-117.31909399999999,34.418775499999995,isaac,2571861641,2020-03-06 05:03:23,The world,city,"Hesperia, CA",United States
31080,-118.4119065,34.0207895,isaac,2571861641,2020-05-22 15:27:47,The world,city,"Los Angeles, CA",United States
171,120.28196000000001,14.826609,atong,2571862512,2020-03-07 10:52:26,study center,poi,Columban College,Republic of the Philippines
205,-0.5362,53.2342,ESH Consultancy & Training,257186289,2020-02-14 17:06:20,Lincoln,city,"Lincoln, England",United Kingdom
240,-2.11,49.19,ESH Consultancy & Training,257186289,2020-02-19 14:10:03,Lincoln,city,"Saint Helier, Bailiwick of Jersey",United Kingdom
205,0.09247999999999999,53.17381999999999,ESH Consultancy & Training,257186289,2020-02-26 08:34:10,Lincoln,city,"Spilsby, England",United Kingdom
31080,-118.59093999999999,34.25725,Oscar Romo,2571864571,2020-03-10 21:11:24,Sun Valley ,city,"Los Angeles, CA",United States
88,136.92673100000002,35.21044600000001,@KAZZ-METAL8,2571865932,2020-02-28 22:56:06,  ,city,  ,
8,-58.013021499999994,-34.9363185,YanReinoso,257186702,2020-02-17 23:27:41,"La Plata, Argentina",city,"La Plata, Argentina",Argentina
21,-53.824203000000004,-29.753085,Jeshua,2571867372,2020-02-21 21:43:54,Costa Rica,city,"Santa Maria, Brasil",Brazil
24,-114.087851,51.027664,Ryan O'Hara,25718692,2020-03-17 02:33:38,"Calgary, Alberta",city,"Calgary, Alberta",Canada
19740,-104.847044,39.386794,Erin Wade,2571870480,2020-03-16 07:29:08,,city,"Castle Rock, CO",United States
42660,-122.224092,47.1680585,Tracy Cutler,2571872767,2020-02-15 17:39:07,"Puyallup, Washington ",city,"Alderton, WA",United States
11260,-149.7587945,61.235042500000006,Tracy Cutler,2571872767,2020-02-26 03:09:45,"Puyallup, Washington ",city,"Anchorage, AK",United States
42660,-122.284264,47.176459,Tracy Cutler,2571872767,2020-03-30 23:29:54,"Puyallup, Washington ",city,"Puyallup, WA",United States
159,-55.86600000000001,-27.337,Rocemi,2571872772,2020-02-25 11:20:15,Paraguay,city,"Encarnacion, Paraguay",Paraguay
152,4.324361,52.0372525,Lutske Lindeman,25718730,2020-02-20 19:10:08,Delft,city,"Rijswijk, Nederland",The Netherlands
65,7.762207999999998,48.5693065,Lutske Lindeman,25718730,2020-02-22 11:15:19,Delft,city,"Strasbourg, France",France
152,4.486421,52.062445000000004,Lutske Lindeman,25718730,2020-03-14 11:55:56,Delft,city,"Zoetermeer, Nederland",The Netherlands
33,-72.93721591,-36.54722477,Pracnes One,25718736,2020-02-16 15:29:24,Chile,city,"Tom, Chile",Chile
16980,-87.732013,41.8335845,Heather Anna,2571873602,2020-02-29 13:41:19,"Chicago, IL",city,"Chicago, IL",United States
151,3.5018455000000004,6.441530500000002,GARNISH MASTER,257187445,2020-03-02 11:19:28,Africa,city,"Victoria Island, Nigeria",Nigeria
21,-38.9018076,-4.4175226,Chagas Sobrinho Oficial,257187583,2020-02-14 16:19:57,RN,city,"Baturit, Brasil",Brasil
200,27.006511,38.4079305,Mahmut BOZ,257187642,2020-02-23 18:15:35,"zmir, Trkiye",city,"zmir, Trkiye",Trkiye
186,1.461051,42.358274,Miq Aletorres,2571877404,2020-06-04 18:22:19,La Seu d'Urgell,poi,Ateneu Popular de l'Alt Urgell,Espanya
38060,-112.1246765,33.5528625,Jay Shelley,257187804,2020-02-28 06:31:45,"Phoenix, AZ",city,"Phoenix, AZ",United States
152,4.4377580000000005,51.852384,bert mekes,25718782,2020-03-12 16:11:22,albrandswaard,city,"Albrandswaard, Nederland",Nederland
33,-70.65468800000001,-33.497650500000006,Fredii LeoN,2571878391,2020-02-19 06:19:25,MORDER tambn es demostrar AMOR,city,"San Miguel, Chile",Chile
35380,-90.01100799999999,29.982601000000003,,2571878570,2020-03-01 14:02:36,Wandering,city,"New Orleans, LA",United States
205,-0.928033,51.864706,Harriet Bartley,257187902,2020-02-14 21:26:16,Aylesbury Bucks,poi,Buckinghamshire Railway Centre,United Kingdom
21,-48.45979749999999,-1.2729295,badgalbibi,257187982,2020-02-18 23:24:36,belm,city,"Belm, Brasil",Brasil
151,8.527467000000001,12.005,Aminu Yakubu,2571879925,2020-02-14 01:48:49,Kano State,city,"Kano, Nigeria",Nigeria
16980,-87.6401845,41.480671,oneofthefew,257188028,2020-02-21 01:15:05,"Lisle, IL",city,"South Chicago Heights, IL",United States
119,-109.84178999999999,27.7136525,Mafer Quijada M.,257188096,2020-04-03 03:27:17,Mxico,city,"Cajeme, Sonora",Mxico
119,-107.3420565,24.662488500000002,Sandra Danyela,257188293,2020-05-08 11:09:19,,city,"Culiacn, Sinaloa",Mxico
119,-101.170172,20.651612,L A N A B A N A N A.,2571883894,2020-03-03 18:28:34,"Salamanca, Guanajuato",city,"Salamanca, Guanajuato",Mxico
160,-79.025409,-8.106902,Betty Acua C.,2571885541,2020-02-14 03:31:13,,poi,Iglesia Adventista Central,Peru
38,-74.104803,4.678132,Andres Uparela,257188571,2020-03-13 22:56:44,Bogota,poi,"Barrio ""El Encanto""",Colombia
35380,-90.01100799999999,29.982601000000003,sabrina the teen hoe,257188588,2020-05-13 13:41:51,"New Orleans, LA",city,"New Orleans, LA",United States
21,-46.5955455,-23.682803,Joo_Santos,257188603,2020-04-18 11:48:12,,city,"Sao Paulo, Brazil",Brazil
31080,-118.25232,33.9157145,ami,2571887007,2020-02-24 20:28:18,,city,"Willowbrook, CA",United States
8,-56.685309,-36.610912,Nicolas,257188757,2020-03-17 03:51:20,,poi,Costa del Este,Argentina
171,122.44865441,9.80889774,Lovely Dolly,257188762,2020-02-22 00:02:23,Bacolod city,city,"City Of Sipalay, Western Visayas",Republic of the Philippines
203,39.227283,-6.830172999999999,Emanuel Swai,2571887805,2020-05-24 20:52:45,"Dar es Salaam, Tanzania",poi,Mwenge,Tanzania
12060,-84.714162,33.736306,PurePremium,2571888771,2020-05-23 01:32:39,"Atlanta, GA",city,"Douglasville, GA",United States
178,27.670070000000003,-26.24437,Tumelo Maketekete,2571889013,2020-02-20 18:39:11,"Mud, oh glorious mud!",city,"Randfontein, South Africa",South Africa
85,12.065199,42.4421835,Antonio Padula,257188974,2020-02-29 12:38:52,,city,"Viterbo, Lazio",Italia
186,-4.4240309999999985,36.764878,Juan Francisco Leiva,257189009,2020-02-25 10:30:00,,city,"Mlaga, Espaa",Espaa
14460,-71.0887125,42.3136695,Mau',2571891423,2020-03-11 11:24:03,"Boston, USA",city,"Boston, MA",United States
29820,-115.17321299999999,36.115685,DGilTM,2571891768,2020-03-14 22:35:07,,poi,Gordon Ramsay Hell's Kitchen,United States
41860,-121.796444,37.9856605,DGilTM,2571891768,2020-03-18 04:57:41,,city,"Antioch, CA",United States
200,28.968402,41.037821,frbtnt,2571892083,2020-05-12 17:22:41,Etiler,city,"Burdur, Trkiye",Trkiye
186,2.204805,41.453461499999996,pep jimenez ,257189357,2020-02-22 12:10:15,Gramenet de Bess,city,"Santa Coloma de Gramenet, Espanya",Espanya
35840,-82.5117285,27.310833,R C Bertelsen,257189431,2020-06-05 18:47:38,"Florida, USA",city,"Southgate, FL",United States
41860,-122.2286855,37.791994,albert reys,257189512,2020-02-21 22:45:49,????,city,"Oakland, CA",United States
42660,-122.3306025,47.614816999999995,albert reys,257189512,2020-02-22 01:38:36,????,city,"Seattle, WA",United States
21,-51.1593095,-30.099836,erika,2571895244,2020-03-01 00:18:06,Brazil,city,"Porto Alegre, Brasil",Brasil
91,39.6667,-4.05,StunnaTNG,257189561,2020-03-29 13:23:30,United Arab Emirates,city,"Mombasa, Kenya",Kenya
31080,-118.3313697,33.98886056,StunnaTNG,257189561,2020-03-31 11:33:57,United Arab Emirates,city,"Los Angeles, CA",United States
91,39.6667,-4.05,StunnaTNG,257189561,2020-05-13 17:03:45,United Arab Emirates,city,"Mombasa, Kenya",Kenya
24,-79.3872,43.648,StunnaTNG,257189561,2020-05-18 17:47:53,United Arab Emirates,city,"Toronto, Ontario",Canada
91,39.6667,-4.05,StunnaTNG,257189561,2020-05-22 15:04:48,United Arab Emirates,city,"Mombasa, Kenya",Kenya
171,121.414997,14.283036,StunnaTNG,257189561,2020-06-07 13:19:04,United Arab Emirates,city,"Santa Cruz, Calabarzon",Republic of the Philippines
91,39.67095524,-4.05970253,StunnaTNG,257189561,2020-06-09 21:36:21,United Arab Emirates,city,"Mombasa, Kenya",Kenya
33100,-80.10298912,26.65986316,StunnaTNG,257189561,2020-06-10 13:11:30,United Arab Emirates,city,"Palm Springs, FL",United States
119,-109.1037265,25.9219465,Adrin Cota,257189576,2020-03-06 23:39:16,,city,"Ahome, Sinaloa",Mxico
175,49.9945455,26.353591499999997,shahad,2571896478,2020-05-31 07:28:00,00:00,city,",   ",  
9,115.9283185,-32.1501005,Keren Caple,257189785,2020-05-08 12:36:39,Noongar Boodjar,city,"Perth, Western Australia",Australia
41940,-121.8737305,37.331159,Heather Miksch,2571897876,2020-02-22 15:57:00,"San Jose, CA",city,"San Jose, CA",United States
12060,-84.43310600000001,33.7671945,Heather Miksch,2571897876,2020-02-27 04:54:28,"San Jose, CA",city,"Atlanta, GA",United States
41940,-121.8737305,37.331159,Heather Miksch,2571897876,2020-03-01 04:43:36,"San Jose, CA",city,"San Jose, CA",United States
41860,-122.2329345,37.4972935,Heather Miksch,2571897876,2020-05-07 19:16:41,"San Jose, CA",city,"Redwood City, CA",United States
41940,-121.8737305,37.331159,Heather Miksch,2571897876,2020-05-09 01:50:14,"San Jose, CA",city,"San Jose, CA",United States
41860,-122.2329345,37.4972935,Heather Miksch,2571897876,2020-05-26 16:40:10,"San Jose, CA",city,"Redwood City, CA",United States
41940,-121.8737305,37.331159,Heather Miksch,2571897876,2020-06-01 18:49:01,"San Jose, CA",city,"San Jose, CA",United States
120,101.69255265,2.9318882,Nasi Kandar Express,2571898039,2020-02-15 03:46:11,Malaysia,city,"Putrajaya, Putrajaya Federal Territory",Malaysia
85,11.3709,44.5937,Mariarosaria Ilvetti,2571898734,2020-06-05 19:28:00,,city,"Argelato, Emilia Romagna",Italia
36420,-97.552161,35.4828435,Karsten Tyrone Smith,2571899072,2020-04-06 20:21:03,Oklahoma City,city,"Oklahoma City, OK",United States
189,15.820491,60.753435,Magnus Dovenberg,257189910,2020-03-16 21:49:26,Bjurss Sweden,city,"Falun, Sverige",Sverige
47900,-77.10199899999999,38.8808445,Angelica ,257189996,2020-02-16 20:09:26,In my bag,city,"Arlington, VA",United States
24,-79.3872,43.648,D Chase,25719011,2020-02-16 16:00:27,"Toronto, Canada",city,"Toronto, Ontario",Canada
119,-86.80530111,21.24350306,D Chase,25719011,2020-02-26 23:56:08,"Toronto, Canada",city,"Isla Mujeres, Quintana Roo",Mexico
24,-79.3872,43.648,D Chase,25719011,2020-03-07 15:08:36,"Toronto, Canada",city,"Toronto, Ontario",Canada
30,121.47608799999999,31.235120000000002,,2571902108,2020-04-22 04:12:06,", ",poi,,
119,-99.260819,18.933812,lizzie lahud,257190267,2020-02-22 05:43:41,,city,"Cuernavaca, Morelos",Mxico
88,141.152265,39.702303, ,2571905954,2020-05-24 06:25:45,,poi,,
14460,-71.452304,42.542448,adrian ,2571906524,2020-02-20 16:09:21,"Lawrence, MA",poi,Nashoba Valley Tubing Park,United States
205,-3.945735,51.644289,Karol Rzenik,257190679,2020-02-17 19:34:26,Swansea ,city,"Swansea, Wales",United Kingdom
21,-43.441578,-22.911421500000003,SetorNorte,2571907146,2020-02-16 13:40:17,"Rio de Janeiro, Brasil",city,"Rio de Janeiro, Brasil",Brasil
222,112.743,-7.2647,Buyung Setyo Nugroho,257190733,2020-05-24 10:04:40,"Pandugo 6B/30C, Surabaya",city,"Genteng, Indonesia",Indonesia
46140,-95.9924,36.1502,will,2571908680,2020-03-02 14:06:16,,city,"Tulsa, OK",United States
24,-114.087851,51.027664,wendy iredale,257190906,2020-03-16 04:07:26,"calgary, alberta, canada",city,"Calgary, Alberta",Canada
19100,-96.7617535,32.819858499999995,kahlill,257190979,2020-02-17 16:21:43,CEO of the kilam umbrella,city,"Dallas, TX",United States
119,-99.6078,19.2536,VICTOR SANCHEZ F,257191019,2020-03-23 04:53:42,,city,"Metepec, Mxico",Mxico
22380,-111.20146799999999,35.428225,Natalye Gallagher,257191096,2020-03-09 05:57:14,,poi,Grand Falls,United States
30940,-84.05729699999999,36.938499500000006,Natalye Gallagher,257191096,2020-03-16 02:04:46,,city,"Corbin, KY",United States
119,-100.955511,22.3111195,yesn't,257191188,2020-02-22 18:25:39,"San Luis Potos, Mxico",city,"San Luis Potos, Mxico",Mxico
35620,-73.9487755,40.655138,Elizabeth Simakoff,257191277,2020-04-27 20:37:46,"New York, NY",city,"Brooklyn, NY",United States
41180,-90.327493,38.5867375,Elizabeth Simakoff,257191277,2020-06-08 23:40:42,"New York, NY",city,"Shrewsbury, MO",United States
38060,-112.1246765,33.5528625,Jimena Garcia,2571914728,2020-04-23 19:57:13,"Phoenix, AZ",city,"Phoenix, AZ",United States
222,115.162057,-8.725477999999999,Matty Kent-Lloyd,257191477,2020-03-26 04:33:36,"Douglas, Isle of Man",city,"Kuta, Indonesia",Indonesia
205,-2.915427,53.4198785,Matty Kent-Lloyd,257191477,2020-05-12 10:37:46,"Douglas, Isle of Man",city,"Liverpool, England",United Kingdom
134,-4.495979,54.161704500000006,Matty Kent-Lloyd,257191477,2020-06-06 21:57:30,"Douglas, Isle of Man",city,"Douglas, Isle of Man",Isle of Man
200,36.5527095,40.320624,Bilgin Karaca,2571915389,2020-02-19 17:48:43,,city,"Tokat, Trkiye",Trkiye
158,174.75433850000005,-41.2529975,Sue Teodoro,2571915770,2020-03-14 21:10:45,"Wellington City, New Zealand",city,"Wellington City, New Zealand",New Zealand
178,28.30472,-25.39196,DoubleFaithVisuals,2571916126,2020-03-16 20:04:27,HAMMANSKRAAL PRETORIA,city,"Hammanskraal, South Africa",South Africa
35620,-73.58745,40.75813,Melissa Pike,25719172,2020-02-15 04:05:32,Long Island l WVU l  alum,city,"Westbury, NY",United States
20500,-78.8954405,35.9909825,Marion E Broome,2571917833,2020-02-24 14:24:52,Duke University School of Nsg,city,"Durham, NC",United States
12060,-84.5742015,33.39250800000001,Marion E Broome,2571917833,2020-03-14 02:32:02,Duke University School of Nsg,city,"Peachtree City, GA",United States
20500,-78.8954405,35.9909825,Marion E Broome,2571917833,2020-04-08 10:52:11,Duke University School of Nsg,city,"Durham, NC",United States
12060,-84.31507049999998,33.8745435,Marion E Broome,2571917833,2020-05-29 18:51:57,Duke University School of Nsg,city,"Brookhaven, GA",United States
20500,-78.983215,35.91036,Johnny Burbank,2571919609,2020-06-10 20:08:39,"Fernandina Beach, FL",poi,Dr. Jessica Bishop DDS,United States
205,-1.2225015,54.5594145,Naveed Hussain,25719198,2020-03-01 09:04:59,"Linthorpe, Middlesbrough, UK",city,"Middlesbrough, England",United Kingdom
65,2.3046889999999998,49.896356,La ,2571919846,2020-04-19 10:18:37,,poi,La Lune Des Pirates,France
8,-64.24471679999999,-31.34845562,Andrea,2571920412,2020-06-04 00:09:57,"Crdoba, Argentina",city,"Crdoba, Argentina",Argentina
31080,-117.85108899999999,33.842863,Billy Stitz,257192058,2020-03-06 00:07:57,,city,"Anaheim, CA",United States
100,24.1286565,56.971492500000004,vw vabou klubs,25719218,2020-05-19 11:48:15,"riga, latvia",city,"Riga, Latvia",Latvia
49,-80.297905,-0.9989024999999999,   ,257192200,2020-04-12 17:34:31,Portoviejo - Manab - Ecuador,city,"Portoviejo, Ecuador",Ecuador
49,-78.297202,-1.3297355,Tania Valdivieso,257192263,2020-02-14 13:39:38,"Loja, Ecuador",city,"Baos De Agua Santa, Ecuador",Ecuador
41180,-90.383549,38.5205035,Patrick Ries,257192348,2020-02-16 00:13:23,St. Louis,city,"Sappington, MO",United States
15380,-78.88398000000002,43.075570500000005,Scott,257192555,2020-02-24 01:41:15,"Buffalo, NY",city,"North Tonawanda, NY",United States
8,-64.8611025,-27.499540000000003,patricia pinto,257192596,2020-02-16 16:00:17,argentina,city,"Ro Hondo, Argentina",Argentina
186,-3.00260881,37.91298219,jose ant bastan alba,257192704,2020-05-31 00:31:38,torrent,city,"Cazorla, Espaa",Espaa
128,2.88333,50.85,Tom Daniels,257192826,2020-03-10 12:16:09,Cheshire,city,"Ypres, Belgium",Belgium
205,-0.702507,51.58616050000001,Simon Swietochowski,257192934,2020-03-09 22:08:34,"London, UK",city,"Wooburn, England",United Kingdom
65,6.4811285000000005,45.632506,Jim Mills,2571929601,2020-02-23 13:52:53,,city,"La Bthie, France",France
205,0.058698,52.3104595,Jim Mills,2571929601,2020-02-27 21:45:18,,city,"Willingham, England",United Kingdom
33460,-93.2024385,44.746673,TJ Peters,2571930665,2020-02-15 05:47:47,"Minnesota, USA",city,"Apple Valley, MN",United States
13820,-86.741158,33.4513005,kryssy,257193199,2020-02-15 02:17:16,"Houston, Texas ",city,"Vestavia Hills, AL",United States
46220,-87.5334065,33.1966005,kryssy,257193199,2020-02-17 14:38:23,"Houston, Texas ",city,"Tuscaloosa, AL",United States
88,137.3108565,35.140860499999995,,2571932034,2020-03-05 01:14:53,,city, ,
15220,-98.9387395,31.7504545,courtney,2571932766,2020-03-05 23:54:43,,city,"Early, TX",United States
36740,-81.35001,28.5962,ChristianMingles,257193403,2020-02-23 16:55:59,The Island of Misfit Toys ,city,"Winter Park, FL",United States
205,-1.45,54.8167,ashley bell,257193411,2020-04-08 16:39:22,"Hetton, England",city,"Hetton, England",United Kingdom
36420,-97.552161,35.4828435,Curtis Fitzpatrick,257193438,2020-02-14 02:39:43,Oklahoma City,city,"Oklahoma City, OK",United States
44660,-97.0802045,36.129689,Curtis Fitzpatrick,257193438,2020-02-22 22:16:18,Oklahoma City,city,"Stillwater, OK",United States
36420,-97.552161,35.4828435,Curtis Fitzpatrick,257193438,2020-02-27 03:38:07,Oklahoma City,city,"Oklahoma City, OK",United States
205,0.493856,52.3590415,Lil Presh,257193482,2020-02-15 17:44:55,Beck Row ,city,"Mildenhall, England",United Kingdom
91,36.863620000000004,-1.2748635,ibrahim kimutai,2571935031,2020-05-30 08:41:38,Planet Earth,city,"Nairobi, Kenya",Kenya
222,106.837755,-6.293493,Annisa Dinda Listianti,2571935346,2020-02-14 07:35:48,Indonesia,city,"Pasar Minggu, Indonesia",Indonesia
159,-54.639934999999994,-25.517066,Matti en su casa,257193536,2020-03-29 23:03:34,Paraguay,poi,Las Orqudeas Parque Hotel,Paraguay
21,-46.5955455,-23.682803,Fabio Teixeira,257193548,2020-04-20 21:52:09,So Paulo - Brasil,city,"So Paulo, Brasil",Brasil
36420,-97.552161,35.4828435,Zuki Almasy,2571935868,2020-02-16 08:01:20,,city,"Oklahoma City, OK",United States
30,120.20928899999998,30.249366,Water,2571936500,2020-04-23 00:41:46,,poi,,People's Republic of China
21,-43.959822499999994,-19.918692,truta,2571936894,2020-03-19 15:10:34,,city,"Belo Horizonte, Brasil",Brasil
51,-6.1743985000000015,53.257282999999994,Shiju,25719371,2020-03-08 11:18:38,"Dublin City, Ireland",city,"Dun Laoghaire-Rathdown, Ireland",Ireland
12700,-70.10019207,41.28393,Robert Foster Fine Art,257193936,2020-02-28 15:59:14,"8 India Street - Nantucket, MA",city,"Nantucket, MA",United States
41500,-121.92178,36.6179475,annjoe,2571939812,2020-06-10 02:41:04,Nun ya ,city,"Pacific Grove, CA",United States
88,136.21147904,36.05906174,okayo_deux,257194043,2020-03-26 07:07:45,,city, ,
205,-1.4356878999999998,50.933124299999996,Neil Martin,257194049,2020-03-06 09:21:33,Eastwood,city,"Southampton, England",United Kingdom
222,99.9067,-0.0511111,Robi Andoni,2571940857,2020-04-19 04:32:15,"Kota Padang, Sumatera Barat",city,"Kinali, Indonesia",Indonesia
24,-79.27256949999999,43.629311,spky em,2571941749,2020-02-21 22:17:51,"Toronto, Ontario",city,"Toronto, Ontario",Canada
24340,-85.7248735,42.9874595,Justin Boots Gray,2571941912,2020-05-16 12:09:20,"Grand Rapids, MI",city,"Walker, MI",United States
152,4.9598,52.510057999999994,Marc,25719421,2020-03-16 21:20:25,,poi,Albert Heijn XL,The Netherlands
21,-46.5955455,-23.682803,Keitiane,2571942990,2020-05-24 06:25:37,instagram: whoskeey,city,"So Paulo, Brasil",Brasil
175,39.2541285,21.5857105, Bahwerth Photo ,2571944341,2020-02-14 06:38:07,",   ",city,",   ",  
200,27.006511,38.4079305,Cihangir UYANMAZ ,2571944398,2020-02-20 06:39:45,,city,"zmir, Trkiye",Trkiye
46520,-157.92516849999996,21.6435335,donyadondita ,2571945200,2020-02-14 01:32:11,"Laie, HI",city,"Laie, HI",United States
88,139.810157,35.6450615,,2571945289,2020-02-15 23:47:15,3-15-5,city, ,
205,-2.23348,53.4569525,Gary Corrigan,2571945503,2020-03-31 19:47:23,"England, United Kingdom",city,"Manchester, England",United Kingdom
31080,-118.48042,34.022688,Joshua Fredric Smith,2571945601,2020-05-04 15:54:41,WorldWide,city,"Santa Monica, CA",United States
40140,-117.39761599999999,33.935821999999995,Joshua Fredric Smith,2571945601,2020-06-10 18:22:28,WorldWide,city,"Riverside, CA",United States
36420,-97.455741,35.695221999999994,Andy Ousley,257194600,2020-03-09 17:57:00,"Oklahoma City, OK",city,"Edmond, OK",United States
49,-78.5566815,-0.16657049999999998,Pablo Espinoza A,257194621,2020-02-18 03:40:14,Ecuador,city,"Quito, Ecuador",Ecuador
21,-45.538196500000005,-22.692783,Leandro Sena,257194639,2020-05-11 19:32:22,,city,"Campos do Jordo, Brasil",Brasil
8,-71.6488155,-40.7537065,Nahue,257194662,2020-02-20 00:19:36,Buenos Aires,city,"Villa La Angostura, Argentina",Argentina
24,-79.88137990000001,43.256060600000005,grahamcubitt,2571948403,2020-05-09 11:34:31,Hamilton,city,"Hamilton, Ontario",Canada
65,5.4052739999999995,43.2943095,gilles karsenty,2571948419,2020-03-30 12:04:00,Aix-Marseille univ. France,city,"Marseille, France",France
119,-87.0316645,21.048719000000002,britt,2571948769,2020-03-17 14:06:33,oklahoma,city,"Benito Jurez, Quintana Roo",Mexico
16700,-79.8395775,32.7645505,morgan hurley ferree,257194896,2020-05-27 02:15:48,west virginia,city,"Sullivan's Island, SC",United States
24,-115.327674,51.066643,Canmore G&CC,257194999,2020-05-10 16:41:34,"Canmore, Alberta",city,"Canmore, Alberta",Canada
205,-0.090488,51.51263,John Mills,2571950597,2020-02-24 18:45:41,London NW1,poi,Bloomberg Auditorium,United Kingdom
96,48.056836,29.297573,F.Ramadhan,2571951003,2020-04-08 22:27:28,Kuwait     ,poi,Bayan | ,Kuwait
186,-0.126504,38.555706,Daniel Andrino,257195181,2020-03-01 15:29:13,spain,city,"Benidorm, Espaa",Espaa
91,36.863620000000004,-1.2748635,RoberKay,2571952533,2020-02-14 16:27:05,"Nairobi, Kenya",city,"Nairobi, Kenya",Kenya
96,47.900634000000004,29.235891,,2571954866,2020-04-10 00:19:15,,poi,Abdulla mubarak block 6, 
31080,-118.4119065,34.0207895,Esmeralda Tinoco,2571955735,2020-02-14 01:25:59,"Los Angeles, CA",city,"Los Angeles, CA",United States
193,102.83655714,16.4623129,,2571956406,2020-02-29 09:14:49,,city,", ",
17640,-66.2972525,17.9797885,Thala,2571956618,2020-05-19 14:01:38,,city,"Salinas, Puerto Rico",United States
21,-51.035027,-29.068624,Ivan Sgarabotto,25719578,2020-02-14 08:40:40,Caxias do Sul,city,"Caxias do Sul, Brasil",Brasil
17140,-84.742402,39.507018,taylor ((:,2571958518,2020-03-02 06:33:16,"Westerville, OH",city,"Oxford, OH",United States
18140,-82.91453800000001,40.148988,taylor ((:,2571958518,2020-04-25 20:07:09,"Westerville, OH",city,"Westerville, OH",United States
47900,-76.618932,38.703258,est. 01/25/1994,257195918,2020-02-22 18:13:25,Martini/Wu-Tang,city,"Owings, MD",United States
15680,-76.51363149999999,38.2799235,est. 01/25/1994,257195918,2020-04-07 18:15:19,Martini/Wu-Tang,city,"California, MD",United States
47900,-76.920117,38.6035215,est. 01/25/1994,257195918,2020-04-07 21:29:29,Martini/Wu-Tang,city,"St Charles, MD",United States
33,-70.6596155,-33.4521615,makarena moraga reyes,2571959641,2020-05-13 03:05:29,,city,"Santiago, Chile",Chile
26900,-86.1429225,39.7795625,Autumn Henderson,257195977,2020-03-23 15:15:46,"Indianapolis, IN",city,"Indianapolis, IN",United States
80,19.129828,47.4812305,Lvia Murink,2571960103,2020-02-25 18:38:57,"Budapest, Hungary",city,"Budapest, Hungary",Hungary
151,3.3180660000000004,6.590611,Cyndi Lauper was right.,257196074,2020-03-18 06:34:02,"Nigeria, by mistake.",city,"Ikeja, Nigeria",Nigeria
24,-119.613698,49.836026000000004,Bette,2571961310,2020-02-18 15:49:34,,poi,West Kelowna,Canada
24,-79.61172049999999,44.1130945,Karel Havlicek,25719614,2020-03-27 16:54:07,"Bradford West Gwillimbury, Ontario",city,"Bradford West Gwillimbury, Ontario",Canada
19100,-96.7930515,32.851009499999996,Karmen Moore,2571961429,2020-02-17 05:15:37,,city,"University Park, TX",United States
21,-43.441578,-22.911421500000003,Thain,2571961969,2020-02-16 13:49:25,"Rio de Janeiro, Brasil",city,"Rio de Janeiro, Brasil",Brasil
119,-103.23313,25.244223,Alfonso Rdz,257196221,2020-02-19 21:35:30,"Torren, Coahuila",city,"Torren, Coahuila de Zaragoza",Mxico
20500,-78.8954405,35.9909825,Tiana Trent,257196311,2020-02-23 16:52:56,"Durham, NC",city,"Durham, NC",United States
16740,-80.84333333,35.22694444,Tiana Trent,257196311,2020-02-24 03:59:00,"Durham, NC",city,"Charlotte, NC",United States
39580,-78.6358,35.7772,Tiana Trent,257196311,2020-02-25 01:00:02,"Durham, NC",city,"Raleigh, NC",United States
16740,-80.84333333,35.22694444,Tiana Trent,257196311,2020-02-29 20:45:48,"Durham, NC",city,"Charlotte, NC",United States
15500,-79.2709,36.096,Tiana Trent,257196311,2020-03-01 16:36:15,"Durham, NC",city,"Mebane, NC",United States
16740,-80.84333333,35.22694444,Tiana Trent,257196311,2020-03-02 17:00:08,"Durham, NC",city,"Charlotte, NC",United States
20500,-78.9072,35.9886,Tiana Trent,257196311,2020-03-16 14:42:05,"Durham, NC",city,"Durham, NC",United States
15500,-79.2709,36.096,Tiana Trent,257196311,2020-04-10 19:22:49,"Durham, NC",city,"Mebane, NC",United States
31140,-85.82224699999999,38.338081,Shane Thomas,2571963500,2020-03-09 16:47:20,"Louisville, Kentucky",poi,IUS Koetter Field,United States
51,-7.332834,52.99776799999999,Jamie Kavanagh,257196404,2020-03-29 08:51:05,Stradbally,city,"Laois, Ireland",Ireland
37980,-75.12124,39.98542,natalie,2571964290,2020-02-25 18:55:10,,city,"Philadelphia, PA",United States
205,-3.1798,51.4970015,Joe,257196552,2020-05-12 11:07:26,"Salisbury, England",city,"Cardiff, Wales",United Kingdom
37100,-118.731399,34.2673105,Abigail,2571966211,2020-03-23 03:27:26,,city,"Simi Valley, CA",United States
205,-2.23348,53.4569525,Roisin,2571966647,2020-05-07 12:31:08,,city,"Manchester, England",United Kingdom
31080,-118.5737,34.4553,Nena Hill,2571967321,2020-02-14 18:25:37,"California, USA",city,"Santa Clarita, CA",United States
82,75.0684065,32.657848,Tariq Naik,2571967657,2020-04-19 04:03:45,poonch,city,"Jammu, Jammu And Kashmir",Pakistan
205,-1.186364,53.1486735,neal,25719684,2020-02-14 13:23:25,UK,city,"Mansfield, England",United Kingdom
82,72.87424399999999,19.174139999999998,RAINA's SAKSHI ,2571968603,2020-02-22 13:40:06,IN RAINA's HEART ,city,"Mumbai, India",India
44140,-72.54558449999998,42.1130625,Ian Snowdeal,2571968834,2020-02-16 03:03:36,"Belfast, ME",city,"Springfield, MA",United States
12620,-69.00630749999999,44.4257775,Ian Snowdeal,2571968834,2020-05-01 14:57:09,"Belfast, ME",city,"Belfast, ME",United States
178,29.719759999999997,-26.12585,Fifi,2571968932,2020-04-17 21:47:51,"eMalahleni, South Africa",poi,Kwazamokuhle,South Africa
205,-3.524057,50.716766,Carl East,257196916,2020-06-02 21:53:27,,poi,St Leonards Church,United Kingdom
8,-58.61175550000001,-34.646236,Belu,2571969395,2020-03-04 14:20:01,"Buenos Aires, Argentina.",city,"Morn, Argentina",Argentina
21060,-85.8709395,37.6989725,Tim Asher,257197234,2020-04-08 03:02:40,"Louisville, KY",city,"Elizabethtown, KY",United States
186,-3.68333,40.4,Fco Javier Rodriguez,257197581,2020-03-07 21:44:05,Legans,city,"Madrid, Espaa",Espaa
65,2.3093150000000002,48.7980125,Jean-Luc Brunet,257197702,2020-03-04 17:50:24,"Bagneux, France",city,"Bagneux, France",France
151,9.3303815,8.3706415,AbujaSpa,2571977729,2020-03-10 21:52:43,Abuja-Nigeria,city,"Wuse, Nigeria",Nigeria
65,2.340583,48.876649,Marcela,257197799,2020-02-28 21:16:06,"Pars, Francia",poi,Le Milton,Francia
211,-62.6436,8.3731,"EXOUSIA, C.A.",2571978294,2020-02-25 22:42:51,PTO. ORDAZ-CD. GUAYANA-VZLA.,city,"Ciudad Guayana, Venezuela",Venezuela
23620,-97.444571,33.483195,Lauren Moon,2571978444,2020-05-16 19:49:46,,poi,Rosston Texas,United States
11100,-101.916403,34.989028999999995,Lauren Moon,2571978444,2020-05-20 00:43:10,,city,"Canyon, TX",United States
21,-44.3025505,-2.6292855,Jackson Mendes,2571978544,2020-02-18 00:46:58,,city,"So Lus, Brasil",Brasil
19820,-83.37694444,42.48527778,MorganWolford,257197859,2020-03-17 13:11:04,DTW,city,"Farmington Hills, MI",United States
16980,-87.732013,41.8335845,Andressa,257197926,2020-02-14 02:11:53,"Chicago, IL",city,"Chicago, IL",Estados Unidos
38060,-112.3152115,33.4392955,_oqay,2571981090,2020-03-21 21:56:34,,city,"Avondale, AZ",United States
18140,-82.985772,39.9946835,Lej,2571981800,2020-02-17 23:11:26,"Florida, USA",city,"Columbus, OH",United States
26420,-95.4464865,29.838495,Lej,2571981800,2020-03-12 01:01:36,"Columbus, OH",city,"Houston, TX",United States
41700,-98.5406515,29.417501,Lej,2571981800,2020-04-10 21:14:00,"Columbus, OH",city,"San Antonio, TX",United States
171,121.03554328,14.65232242,R,2571983022,2020-02-14 16:34:47,,city,"Quezon City, National Capital Region",Republic of the Philippines
21,-49.2884605,-25.4952495,Felix Varejao,25719832,2020-03-18 11:39:00,"Curitiba, Brasil",city,"Curitiba, Brazil",Brazil
35620,-73.8494415,40.8503475,James Byrne,2571984037,2020-02-16 03:32:40,N.Y. N.Y.,city,"Bronx, NY",United States
175,46.685077,24.7219435,sami,2571984043,2020-02-25 19:02:01,,city,",   ",  
186,-5.653582,43.541394,ALBERTO SUAREZ,257198432,2020-04-26 13:10:10,Gijn ,poi,Playa de San Lorenzo,Espaa
151,7.422322500000001,10.511245,Aliyu Suleman Jatau,257198519,2020-05-15 07:57:30,+2348022999239,city,"Kaduna, Nigeria",Nigeria
152,5.0827670000000005,52.08419,Ronnie de Jonge,257198673,2020-02-20 17:23:28,"Utrecht, The Netherlands",city,"Utrecht, The Netherlands",The Netherlands
151,8.479265,11.981494999999999,Yousuph,2571990393,2020-02-26 18:41:00,"Hadejia, Nigeria",poi,Bayero university kano old site,Nigeria
21,-38.5026475,-12.8753345,Elson Dantas,257199048,2020-04-05 12:31:43,,city,"Salvador, Brasil",Brasil
24,-112.84635800000001,49.6883795,Patricia Filteau,2571992442,2020-02-20 06:03:51,"Lethbridge, Alberta Canada",city,"Lethbridge, Alberta",Canada
205,-0.18919,51.5037865,M M E E,2571992639,2020-03-26 14:40:48,"London, England",city,"Kensington, London",United Kingdom
46140,-95.310239,36.29436800000001,S,2571994428,2020-03-25 22:14:03,,city,"Pryor Creek, OK",United States
42660,-122.29628100000001,47.1192855,FreshPrince,2571995630,2020-04-05 01:15:19,the hidden leaf ,city,"South Hill, WA",United States
152,6.1069365,52.5142145,Melissa de Boer,257199569,2020-04-05 17:04:11,,city,"Zwolle, Nederland",The Netherlands
186,-3.527456,40.3494365,Merche ,257199587,2020-04-19 16:34:44,Rivas Vaciamadrid,city,"Rivas-Vaciamadrid, Espaa",Espaa
9,151.20797,-33.867509999999996,Tilly Alice Hulse,257199664,2020-02-16 10:53:33,,city,"Sydney, New South Wales",Australia
205,-0.1094,51.5141,Tilly Alice Hulse,257199664,2020-05-17 15:47:18,,city,"City of London, London",United Kingdom
21,-46.572790999999995,-23.128877000000006,Vandel,2571996857,2020-02-16 23:23:50,"Atibaia, Brasil",city,"Atibaia, Brasil",Brasil
24,-75.69185300000001,45.419304,YNPN Ottawa,2571997638,2020-03-03 22:47:44,"Ottawa, Ontario, Canada",poi,Clocktower Brew Pub,Canada
33100,-80.0572,26.7086,jean bernard joseph,257199777,2020-05-09 20:10:55,WORLDWIDE,city,"West Palm Beach, FL",United States
40060,-77.49317049999998,37.529883,Amy Evans,25719982,2020-02-16 03:26:41,Virginia,city,"Richmond, VA",United States
16820,-78.6899865,38.066812,Amy Evans,25719982,2020-02-23 15:39:34,Virginia,city,"Crozet, VA",United States
40060,-77.49317049999998,37.529883,Amy Evans,25719982,2020-02-27 01:58:56,Virginia,city,"Richmond, VA",United States
38860,-70.33702232,43.54084066,Donna Olsen,257199888,2020-05-22 14:12:14,"Portland, Maine",city,"Pine Point, ME",United States
186,-4.4802125,43.3652375,Jose Javier Glvez,257200075,2020-02-22 23:44:24,,city,"Val de San Vicente, Espaa",Espaa
205,-1.2180240000000002,50.8238895,Lynne Murray,2572001109,2020-03-03 11:17:39,,city,"Hill Head, England",United Kingdom
88,136.66272496,35.07163306,JSON,2572002122,2020-02-14 11:55:43,,city, ,
40140,-117.548103,34.05092,Heidy Jovel,257200293,2020-02-21 04:39:30,,poi,At Work,United States
82,79.494249,27.146295000000002,mohit shukla,2572003325,2020-05-09 07:36:18,chhibramau (kannauj),city,"Chhibramau, India",India
205,-2.79838,53.335451,Chris,2572004259,2020-03-06 05:55:16,Liverpool,poi,Hale Village Shops,United Kingdom
8,-58.37915826,-34.60234797,Kevin Dos Santos,2572005481,2020-04-01 23:01:39,Argentina,city,"Ciudad Autnoma de Buenos Aires, Argentina",Argentina
27260,-81.73340300000002,30.172209499999997,Darc ,2572005548,2020-03-15 22:23:58,"Jacksonville, FL",city,"Orange Park, FL",United States
222,106.8233,-6.1803,Irvandi Efendi,2572005742,2020-02-18 06:15:32,Jakarta - Aceh,city,"Tanah Abang, Indonesia",Indonesia
45140,-94.97236099999999,35.9163365,p rise,2572008649,2020-02-19 00:10:08,"Tahlequah, OK",city,"Tahlequah, OK",United States
46140,-95.770195,36.0393055,p rise,2572008649,2020-03-03 05:02:16,"Tahlequah, OK",city,"Broken Arrow, OK",United States
45140,-94.97236099999999,35.9163365,p rise,2572008649,2020-03-06 06:59:07,"Tahlequah, OK",city,"Tahlequah, OK",United States
48220,-98.675733,35.538062999999994,p rise,2572008649,2020-03-07 05:29:28,"Tahlequah, OK",city,"Weatherford, OK",United States
46140,-95.770195,36.0393055,p rise,2572008649,2020-03-09 04:20:57,"Tahlequah, OK",city,"Broken Arrow, OK",United States
45140,-94.97236099999999,35.9163365,p rise,2572008649,2020-03-15 01:12:58,"Tahlequah, OK",city,"Tahlequah, OK",United States
48220,-98.675733,35.538062999999994,p rise,2572008649,2020-03-19 21:15:14,"Tahlequah, OK",city,"Weatherford, OK",United States
46140,-95.770195,36.0393055,p rise,2572008649,2020-03-25 03:02:11,"Tahlequah, OK",city,"Broken Arrow, OK",United States
205,-0.1094,51.5141,rosie bell,257200876,2020-05-25 11:05:13,London,city,"City of London, London",United Kingdom
119,-99.08731999999999,19.401625,ALBY LOUD ,2572009111,2020-03-03 05:10:51,MEXICO CITY,poi,EDC Mxico,Mxico
88,135.497682,34.672317,ALBY LOUD  @3/13 RAVE ON!!!!,2572009111,2020-03-14 11:12:24,MEXICO CITY,poi,TRIANGLE,Japn
119,-99.279904,19.451883,ALBY LOUD ,2572009111,2020-04-16 10:09:53,MEXICO CITY,poi,Tienda de Vic,Mxico
31080,-117.85057450000001,33.881922499999995,Chop ,2572009700,2020-03-06 04:09:50,"Del Mar, CA",city,"Placentia, CA",United States
40900,-121.469664,38.561721999999996,I Dont Need A Haircut!,257201155,2020-05-24 03:55:24,Arizona,city,"Sacramento, CA",United States
38900,-122.630908,45.536402,I Dont Need A Haircut!,257201155,2020-05-27 03:57:32,Arizona,city,"Portland, OR",United States
113,-7.985851999999999,31.629411,Sam (Samax),2572014500,2020-04-12 17:34:17,,city,"Marrakech Mdina, Royaume du Maroc",Royaume du Maroc
65,4.775718,43.707219,Sam (Samax),2572014500,2020-04-25 15:14:42,,city,"Paradou, France",France
222,110.445728,-6.983936,Asdfghjkl,2572014832,2020-03-06 08:49:37,wherever i go,poi,Masjid Agung Jawa Tengah (MAJT),Indonesia
171,120.5887,15.145,Hector Dayrit,25720161,2020-06-01 10:02:04,"Oslo, Norway",city,"Angeles City, Central Luzon",Republic of the Philippines
41980,-66.058368,18.384165499999998,Thomas Robbins,2572016276,2020-03-13 00:24:08,,city,"San Juan, USA",United States
19820,-83.75609250000001,42.55489350000001,Thomas Robbins,2572016276,2020-03-22 04:40:09,,city,"Brighton, MI",United States
82,75.0684065,32.657848,kanu rajput ,2572016902,2020-05-23 13:53:44,"Jammu, Jammu And Kashmir",city,"Jammu, Jammu And Kashmir",Pakistan
222,106.66060154,-6.11977765,indah ij pratiwi,257201758,2020-02-26 00:31:15,,city,"Benda, Indonesia",Indonesia
205,-2.7099355000000003,53.69778349999999,Neil Sutch,257201905,2020-05-31 07:53:29,,city,"Leyland, England",United Kingdom
152,4.937228,52.31349,Amber,2572021337,2020-02-22 14:14:29,Now I'm here,poi,Ziggo Dome,Nederland
35620,-73.8494415,40.8503475,"No, Seriously WTF!",25720218,2020-02-25 01:35:26,Mars,city,"Bronx, NY",United States
205,-2.8355029999999997,54.19761800000001,Mark Ingram,257202273,2020-02-14 15:40:56,London ,city,"Arnside, England",United Kingdom
48,-68.7179,18.6159,Manuel Ant. Villa,257202433,2020-03-02 13:27:28,Higuey Rep. Dominicana,city,"Higey, Dominican Republic",Dominican Republic
21,-39.58076850000001,-8.4551965,Ana B.,2572024388,2020-04-02 03:25:42,"Pernambuco, Brasil",city,"Oroc, Brasil",Brasil
65,1.0912024999999999,49.441207500000004,,2572024833,2020-03-12 19:13:13,Rouen,city,"Rouen, France",France
120,101.770181,2.9490515,AN45,2572025293,2020-02-22 05:17:22,Selangor,city,"Kajang, Selangor",Malaysia
193,102.8166925,17.4008265,,2572025984,2020-03-13 12:03:11,"Udon Thani Province, Thailand",city,", ",
119,-99.143613,19.390888,Madh,257202908,2020-04-23 00:08:37,Mxico D.F,poi,Parque de la Postal,Mxico
171,123.67839450000001,10.368178,Vence,2572029684,2020-02-20 14:33:17,"Bacong, Rehiyon ng Gitnang Vis",city,"Toledo City, Central Visayas",Republic of the Philippines
-9999,-34.550309000000006,-4.8747985,the new son,25720300,2020-03-12 03:56:39,Brasil - Natal/RN,city,"Natal, Brasil",Brasil
21,-35.214542,-5.9182125,the new son,25720300,2020-04-08 13:12:25,Brasil - Natal/RN,city,"Parnamirim, Brasil",Brasil
-9999,-34.550309000000006,-4.8747985,the new son,25720300,2020-04-08 22:19:35,Brasil - Natal/RN,city,"Natal, Brasil",Brasil
14500,-105.109,40.1716,Mike King,2572032384,2020-05-21 22:48:09,,city,"Longmont, CO",United States
200,31.830576,36.5968065,Ahmet Karatatan,2572032651,2020-05-01 11:24:35,,city,"Alanya, Trkiye",Trkiye
24,-79.27256949999999,43.629311,JEESSSS ,25720329,2020-02-23 21:10:54,"Toronto, Canada",city,"Toronto, Ontario",Canada
82,85.69714549999999,26.467494,Sushil Kejriwal,2572034118,2020-04-14 08:11:32,"Pupri, India",city,"Pupri, India",India
40060,-77.49317049999998,37.529883,Hilary Smith,25720343,2020-02-21 12:32:10,Richmond VA,city,"Richmond, VA",United States
12700,-69.96573199999999,41.891376,Fernando Paulino,257203442,2020-06-08 03:00:27,"Boston, MA",poi,Marconi Beach,United States
205,-0.1815875,51.3618975,Lightforce Greens,2572035460,2020-02-14 00:13:17,"London, England",city,"Sutton, London",United Kingdom
41860,-122.40774979999999,37.654656,TMJ-SFO Pharm. Jobs,25720356,2020-02-14 01:05:49,"San Francisco, CA",city,"South San Francisco, CA",United States
42220,-122.6366524,38.232417,TMJ-SFO Pharm. Jobs,25720356,2020-02-18 00:07:51,"San Francisco, CA",city,"Petaluma, CA",United States
41860,-122.4194155,37.7749295,TMJ-SFO Pharm. Jobs,25720356,2020-02-18 01:13:40,"San Francisco, CA",city,"San Francisco, CA",United States
46700,-122.25663670000002,38.1040864,TMJ-SFO Pharm. Jobs,25720356,2020-02-21 01:17:32,"San Francisco, CA",city,"Vallejo, CA",United States
41860,-122.40774979999999,37.654656,TMJ-SFO Pharm. Jobs,25720356,2020-02-21 17:37:23,"San Francisco, CA",city,"South San Francisco, CA",United States
46700,-122.25663670000002,38.1040864,TMJ-SFO Pharm. Jobs,25720356,2020-02-25 18:48:53,"San Francisco, CA",city,"Vallejo, CA",United States
41860,-122.4194155,37.7749295,TMJ-SFO Pharm. Jobs,25720356,2020-02-25 19:54:50,"San Francisco, CA",city,"San Francisco, CA",United States
42220,-122.6366524,38.232417,TMJ-SFO Pharm. Jobs,25720356,2020-02-27 00:43:10,"San Francisco, CA",city,"Petaluma, CA",United States
41860,-122.40774979999999,37.654656,TMJ-SFO Pharm. Jobs,25720356,2020-02-27 01:50:17,"San Francisco, CA",city,"South San Francisco, CA",United States
42220,-122.6366524,38.232417,TMJ-SFO Pharm. Jobs,25720356,2020-02-28 00:58:17,"San Francisco, CA",city,"Petaluma, CA",United States
41860,-122.40774979999999,37.654656,TMJ-SFO Pharm. Jobs,25720356,2020-02-28 17:18:10,"San Francisco, CA",city,"South San Francisco, CA",United States
46700,-122.25663670000002,38.1040864,TMJ-SFO Pharm. Jobs,25720356,2020-03-06 00:22:39,"San Francisco, CA",city,"Vallejo, CA",United States
41860,-122.40774979999999,37.654656,TMJ-SFO Pharm. Jobs,25720356,2020-03-06 01:28:34,"San Francisco, CA",city,"South San Francisco, CA",United States
42220,-122.6366524,38.232417,TMJ-SFO Pharm. Jobs,25720356,2020-03-11 18:02:36,"San Francisco, CA",city,"Petaluma, CA",United States
41860,-122.40774979999999,37.654656,TMJ-SFO Pharm. Jobs,25720356,2020-03-11 20:14:23,"San Francisco, CA",city,"South San Francisco, CA",United States
46700,-122.25663670000002,38.1040864,TMJ-SFO Pharm. Jobs,25720356,2020-03-11 22:25:51,"San Francisco, CA",city,"Vallejo, CA",United States
41860,-122.40774979999999,37.654656,TMJ-SFO Pharm. Jobs,25720356,2020-03-11 23:31:38,"San Francisco, CA",city,"South San Francisco, CA",United States
46700,-122.25663670000002,38.1040864,TMJ-SFO Pharm. Jobs,25720356,2020-03-15 23:36:24,"San Francisco, CA",city,"Vallejo, CA",United States
41860,-122.40774979999999,37.654656,TMJ-SFO Pharm. Jobs,25720356,2020-03-16 17:02:14,"San Francisco, CA",city,"South San Francisco, CA",United States
46700,-122.25663670000002,38.1040864,TMJ-SFO Pharm. Jobs,25720356,2020-03-23 18:08:39,"San Francisco, CA",city,"Vallejo, CA",United States
41860,-122.40774979999999,37.654656,TMJ-SFO Pharm. Jobs,25720356,2020-03-23 19:17:09,"San Francisco, CA",city,"South San Francisco, CA",United States
46700,-122.25663670000002,38.1040864,TMJ-SFO Pharm. Jobs,25720356,2020-03-24 00:59:30,"San Francisco, CA",city,"Vallejo, CA",United States
41860,-122.40774979999999,37.654656,TMJ-SFO Pharm. Jobs,25720356,2020-03-24 17:20:29,"San Francisco, CA",city,"South San Francisco, CA",United States
46700,-122.25663670000002,38.1040864,TMJ-SFO Pharm. Jobs,25720356,2020-03-26 21:45:42,"San Francisco, CA",city,"Vallejo, CA",United States
41860,-122.40774979999999,37.654656,TMJ-SFO Pharm. Jobs,25720356,2020-03-27 17:22:58,"San Francisco, CA",city,"South San Francisco, CA",United States
46700,-122.25663670000002,38.1040864,TMJ-SFO Pharm. Jobs,25720356,2020-03-30 00:16:09,"San Francisco, CA",city,"Vallejo, CA",United States
41860,-122.40774979999999,37.654656,TMJ-SFO Pharm. Jobs,25720356,2020-03-30 16:46:21,"San Francisco, CA",city,"South San Francisco, CA",United States
42220,-122.7140548,38.440428999999995,TMJ-SFO Pharm. Jobs,25720356,2020-04-02 17:30:34,"San Francisco, CA",city,"Santa Rosa, CA",United States
41860,-122.40774979999999,37.654656,TMJ-SFO Pharm. Jobs,25720356,2020-04-02 20:43:00,"San Francisco, CA",city,"South San Francisco, CA",United States
42220,-122.7140548,38.440428999999995,TMJ-SFO Pharm. Jobs,25720356,2020-04-02 22:19:07,"San Francisco, CA",city,"Santa Rosa, CA",United States
41860,-122.40774979999999,37.654656,TMJ-SFO Pharm. Jobs,25720356,2020-04-03 17:41:23,"San Francisco, CA",city,"South San Francisco, CA",United States
42220,-122.7140548,38.440428999999995,TMJ-SFO Pharm. Jobs,25720356,2020-04-06 21:39:47,"San Francisco, CA",city,"Santa Rosa, CA",United States
41860,-122.40774979999999,37.654656,TMJ-SFO Pharm. Jobs,25720356,2020-04-06 23:10:55,"San Francisco, CA",city,"South San Francisco, CA",United States
41940,-121.8995741,37.4323341,TMJ-SFO Pharm. Jobs,25720356,2020-04-08 19:21:19,"San Francisco, CA",city,"Milpitas, CA",United States
42220,-122.7140548,38.440428999999995,TMJ-SFO Pharm. Jobs,25720356,2020-04-08 20:50:52,"San Francisco, CA",city,"Santa Rosa, CA",United States
41860,-122.40774979999999,37.654656,TMJ-SFO Pharm. Jobs,25720356,2020-04-09 15:08:34,"San Francisco, CA",city,"South San Francisco, CA",United States
41940,-122.03634960000001,37.368829999999996,TMJ-SFO Pharm. Jobs,25720356,2020-04-10 17:59:06,"San Francisco, CA",city,"Sunnyvale, CA",United States
41860,-122.40774979999999,37.654656,TMJ-SFO Pharm. Jobs,25720356,2020-04-10 19:24:08,"San Francisco, CA",city,"South San Francisco, CA",United States
42220,-122.6366524,38.232417,TMJ-SFO Pharm. Jobs,25720356,2020-04-14 16:33:50,"San Francisco, CA",city,"Petaluma, CA",United States
41940,-121.8995741,37.4323341,TMJ-SFO Pharm. Jobs,25720356,2020-04-14 17:59:27,"San Francisco, CA",city,"Milpitas, CA",United States
41860,-122.40774979999999,37.654656,TMJ-SFO Pharm. Jobs,25720356,2020-04-14 20:49:56,"San Francisco, CA",city,"South San Francisco, CA",United States
41940,-122.03634960000001,37.368829999999996,TMJ-SFO Pharm. Jobs,25720356,2020-04-14 22:15:02,"San Francisco, CA",city,"Sunnyvale, CA",United States
42220,-122.6366524,38.232417,TMJ-SFO Pharm. Jobs,25720356,2020-04-14 23:36:17,"San Francisco, CA",city,"Petaluma, CA",United States
41860,-122.40774979999999,37.654656,TMJ-SFO Pharm. Jobs,25720356,2020-04-15 00:57:09,"San Francisco, CA",city,"South San Francisco, CA",United States
46700,-122.25663670000002,38.1040864,TMJ-SFO Pharm. Jobs,25720356,2020-04-15 20:23:53,"San Francisco, CA",city,"Vallejo, CA",United States
41940,-122.03634960000001,37.368829999999996,TMJ-SFO Pharm. Jobs,25720356,2020-04-15 21:48:52,"San Francisco, CA",city,"Sunnyvale, CA",United States
41860,-122.40774979999999,37.654656,TMJ-SFO Pharm. Jobs,25720356,2020-04-16 00:30:46,"San Francisco, CA",city,"South San Francisco, CA",United States
41940,-121.8995741,37.4323341,TMJ-SFO Pharm. Jobs,25720356,2020-04-16 22:15:39,"San Francisco, CA",city,"Milpitas, CA",United States
41860,-122.40774979999999,37.654656,TMJ-SFO Pharm. Jobs,25720356,2020-04-17 00:47:05,"San Francisco, CA",city,"South San Francisco, CA",United States
42220,-122.7140548,38.440428999999995,TMJ-SFO Pharm. Jobs,25720356,2020-04-18 21:47:09,"San Francisco, CA",city,"Santa Rosa, CA",United States
41940,-121.8995741,37.4323341,TMJ-SFO Pharm. Jobs,25720356,2020-04-18 23:16:05,"San Francisco, CA",city,"Milpitas, CA",United States
42220,-122.6366524,38.232417,TMJ-SFO Pharm. Jobs,25720356,2020-04-19 00:45:03,"San Francisco, CA",city,"Petaluma, CA",United States
41860,-122.40774979999999,37.654656,TMJ-SFO Pharm. Jobs,25720356,2020-04-19 17:58:11,"San Francisco, CA",city,"South San Francisco, CA",United States
41940,-121.8995741,37.4323341,TMJ-SFO Pharm. Jobs,25720356,2020-04-19 19:29:30,"San Francisco, CA",city,"Milpitas, CA",United States
41860,-122.2416355,37.7652065,TMJ-SFO Pharm. Jobs,25720356,2020-04-19 21:00:44,"San Francisco, CA",city,"Alameda, CA",United States
41940,-121.8995741,37.4323341,TMJ-SFO Pharm. Jobs,25720356,2020-04-24 18:57:44,"San Francisco, CA",city,"Milpitas, CA",United States
46700,-122.25663670000002,38.1040864,TMJ-SFO Pharm. Jobs,25720356,2020-04-24 20:11:50,"San Francisco, CA",city,"Vallejo, CA",United States
41860,-122.08079640000001,37.6688205,TMJ-SFO Pharm. Jobs,25720356,2020-04-24 21:25:56,"San Francisco, CA",city,"Hayward, CA",United States
42220,-122.7140548,38.440428999999995,TMJ-SFO Pharm. Jobs,25720356,2020-04-25 17:40:08,"San Francisco, CA",city,"Santa Rosa, CA",United States
41860,-122.40774979999999,37.654656,TMJ-SFO Pharm. Jobs,25720356,2020-04-25 18:52:44,"San Francisco, CA",city,"South San Francisco, CA",United States
42220,-122.6366524,38.232417,TMJ-SFO Pharm. Jobs,25720356,2020-04-27 18:05:00,"San Francisco, CA",city,"Petaluma, CA",United States
41860,-122.40774979999999,37.654656,TMJ-SFO Pharm. Jobs,25720356,2020-04-27 19:22:19,"San Francisco, CA",city,"South San Francisco, CA",United States
46700,-122.25663670000002,38.1040864,TMJ-SFO Pharm. Jobs,25720356,2020-04-28 19:35:51,"San Francisco, CA",city,"Vallejo, CA",United States
42220,-122.7140548,38.440428999999995,TMJ-SFO Pharm. Jobs,25720356,2020-04-28 20:49:58,"San Francisco, CA",city,"Santa Rosa, CA",United States
41860,-122.40774979999999,37.654656,TMJ-SFO Pharm. Jobs,25720356,2020-04-28 22:04:05,"San Francisco, CA",city,"South San Francisco, CA",United States
42220,-122.6366524,38.232417,TMJ-SFO Pharm. Jobs,25720356,2020-04-29 22:08:38,"San Francisco, CA",city,"Petaluma, CA",United States
41860,-122.2416355,37.7652065,TMJ-SFO Pharm. Jobs,25720356,2020-04-29 23:22:44,"San Francisco, CA",city,"Alameda, CA",United States
46700,-122.25663670000002,38.1040864,TMJ-SFO Pharm. Jobs,25720356,2020-05-03 00:35:19,"San Francisco, CA",city,"Vallejo, CA",United States
41860,-122.40774979999999,37.654656,TMJ-SFO Pharm. Jobs,25720356,2020-05-03 17:13:31,"San Francisco, CA",city,"South San Francisco, CA",United States
41940,-121.8995741,37.4323341,TMJ-SFO Pharm. Jobs,25720356,2020-05-03 18:27:37,"San Francisco, CA",city,"Milpitas, CA",United States
41860,-122.40774979999999,37.654656,TMJ-SFO Pharm. Jobs,25720356,2020-05-03 19:41:45,"San Francisco, CA",city,"South San Francisco, CA",United States
46700,-122.25663670000002,38.1040864,TMJ-SFO Pharm. Jobs,25720356,2020-05-04 20:57:23,"San Francisco, CA",city,"Vallejo, CA",United States
41940,-122.03634960000001,37.368829999999996,TMJ-SFO Pharm. Jobs,25720356,2020-05-04 22:08:30,"San Francisco, CA",city,"Sunnyvale, CA",United States
41860,-122.40774979999999,37.654656,TMJ-SFO Pharm. Jobs,25720356,2020-05-04 23:19:36,"San Francisco, CA",city,"South San Francisco, CA",United States
41940,-122.03634960000001,37.368829999999996,TMJ-SFO Pharm. Jobs,25720356,2020-05-07 22:33:30,"San Francisco, CA",city,"Sunnyvale, CA",United States
41860,-122.40774979999999,37.654656,TMJ-SFO Pharm. Jobs,25720356,2020-05-07 23:43:17,"San Francisco, CA",city,"South San Francisco, CA",United States
42220,-122.6366524,38.232417,TMJ-SFO Pharm. Jobs,25720356,2020-05-10 22:21:28,"San Francisco, CA",city,"Petaluma, CA",United States
41860,-122.40774979999999,37.654656,TMJ-SFO Pharm. Jobs,25720356,2020-05-10 23:37:05,"San Francisco, CA",city,"South San Francisco, CA",United States
42220,-122.6366524,38.232417,TMJ-SFO Pharm. Jobs,25720356,2020-05-11 21:18:53,"San Francisco, CA",city,"Petaluma, CA",United States
41860,-122.40774979999999,37.654656,TMJ-SFO Pharm. Jobs,25720356,2020-05-11 23:50:16,"San Francisco, CA",city,"South San Francisco, CA",United States
42220,-122.6366524,38.232417,TMJ-SFO Pharm. Jobs,25720356,2020-05-13 16:37:16,"San Francisco, CA",city,"Petaluma, CA",United States
41860,-122.2416355,37.7652065,TMJ-SFO Pharm. Jobs,25720356,2020-05-13 17:50:00,"San Francisco, CA",city,"Alameda, CA",United States
33,-70.6596155,-33.4521615,Jeon  ,257203738,2020-02-14 09:53:06,"La Florida, Chile",city,"Santiago, Chile",Chile
151,3.3180660000000004,6.590611,Folashade,2572037535,2020-02-19 20:39:50,"Lagos, Nigeria",city,"Ikeja, Nigeria",Nigeria
33,-70.6012185,-33.489946999999994,Jonathan Crdova L,2572037669,2020-03-15 01:59:30,"Macul, Chile",city,"Macul, Chile",Chile
9,153.035175,-27.447122999999998,Michelle Collins,2572037796,2020-02-15 14:53:25,"Brisbane, Queensland",poi,The Courier Mail - Queensland Newspapers,Australia
88,139.62478950000002,35.453922,,257203955,2020-02-19 08:47:32,,city,  ,
24,-79.85977390000001,43.263680900000004,David DeRoches,257204189,2020-04-09 18:41:42,"Hamilton, Ontario",city,"Hamilton, Ontario",Canada
152,5.688388,52.513562500000006,D!ck,25720434,2020-02-18 18:24:13,,city,"Dronten, Nederland",Nederland
21,-48.1718725,-21.7554125,bani,2572044085,2020-05-07 07:06:05,ronaldotoler  ,city,"Araraquara, Brasil",Brasil
21,-51.177201000000004,-29.915337,Bruna Packeiser,257204491,2020-02-21 01:38:48,"Rio Grande do Sul, Brasil",city,"Canoas, Brasil",Brasil
41740,-117.255857,32.794178,Emma Olivia,2572045297,2020-02-25 00:33:39,,poi,Pacific Beach Shore Club,United States
88,139.54940015,35.47494593,,257204552,2020-02-15 00:37:11,,city,  ,
8,-58.442643,-34.604315,. Co,257204627,2020-02-26 13:58:43,,city,"Ciudad Autnoma de Buenos Aires, Argentina",Argentina
31080,-118.15795017,33.8158974,Brad Lee Wind,25720466,2020-03-09 00:37:18,"Los Angeles, CA USA baby",city,"Long Beach, CA",United States
38060,-112.08302655,33.46544252,Brad Lee Wind,25720466,2020-06-04 01:09:05,"Los Angeles, CA USA baby",city,"Phoenix, AZ",United States
36540,-96.053431,41.275721,Joshua Gear,25720470,2020-02-15 05:37:11,"Omaha, NE",city,"Omaha, NE",United States
26420,-95.4464865,29.838495,Ryan Dilbert,257204711,2020-02-14 12:13:40,"Houston, TX",city,"Houston, TX",United States
205,-1.1703515,50.851063,Paige Collett,257204893,2020-02-14 09:12:05,Portchester,city,"Fareham, England",United Kingdom
24,-97.1526765,49.8538055,Karen Allardice,25720497,2020-04-20 13:40:43,Canada,city,"Winnipeg, Manitoba",Canada
205,-1.689757,54.3819035,Tom Harker,2572049981,2020-02-24 14:30:54,Catterick,city,"Colburn, England",United Kingdom
160,-77.0124,-12.1813,Reden Krazz,2572050080,2020-06-09 12:35:33,Venezuela,city,"Chorrillos, Peru",Peru
49,-79.9383105,-3.3140495000000003,Miguel Angel Carrin,2572051242,2020-05-25 16:47:04,Ecuador,city,"Machala, Ecuador",Ecuador
31080,-118.4119065,34.0207895,Carlos.Henandez@animeascension2020,2572051452,2020-02-14 07:38:00,"Los Angeles, CA",city,"Los Angeles, CA",United States
19740,-104.949845,39.9054745,Anna Mills,2572051542,2020-02-21 20:57:17,"Longmont, Colorado",city,"Thornton, CO",United States
14500,-105.1122165,40.1659305,Anna Mills,2572051542,2020-03-21 21:29:15,"Longmont, Colorado",city,"Longmont, CO",United States
168,55.4833,-21.3167,Noss Fred,2572052899,2020-02-27 04:46:17,"La Runion, France",city,"Saint-Pierre, La Runion",La Runion
29940,-95.244383,38.95657,allicyn burns,2572053744,2020-03-03 20:27:28,"Frankfort, IL Lawrence, KS",poi,The University of Kansas,United States
119,-105.1485805,20.6970525,blanca,257205756,2020-03-17 02:04:43,puerto vallarta,city,"Puerto Vallarta, Jalisco",Mxico
119,-99.14689,19.389329999999998,.,2572058108,2020-02-21 06:29:23,@spookalita Telegram,poi,Meztli Cafetera,Mexico
19100,-96.8637945,32.604153000000004,MercedesCo.,2572060033,2020-03-19 00:49:34,"Dallas, TX",city,"Desoto, TX",United States
36740,-81.46756102,28.47373773,Felipe Jos,25720629,2020-03-20 02:54:23,RJ - Brazil,city,"Orlando, FL",Estados Unidos
21,-43.119,-22.8897,Felipe Jos,25720629,2020-03-26 06:52:36,RJ - Brazil,city,"Niteri, Brasil",Brasil
65,1.6102845,50.490990999999994, XSeries,2572063557,2020-02-14 00:17:52,Le Touquet paris plage FRANCE,city,"Cucq, France",France
82,85.841833,20.296045,Aditya Kiran Nag,2572063615,2020-03-27 04:56:09,"Cuttack, India",poi,Vani Vihar PH,India
21,-43.441578,-22.911421500000003,dg,2572063758,2020-02-14 05:15:22,"Guadalupe, Rio de Janeiro",city,"Rio de Janeiro, Brasil",Brasil
88,139.697036,35.52944147,,2572066656,2020-05-25 09:12:24,,city,  ,
128,4.3547985,50.9990885,Tomas Verlinden,2572067807,2020-03-26 16:10:06,Belgium,city,"Kapelle-op-den-Bos, Belgi",Belgi
38,-74.05046186,4.69907446,Oscar Hernandez,257207157,2020-02-16 15:53:30,"Ibagu, Tolima",city,"Bogot, D.C., Colombia",Colombia
31080,-118.4119065,34.0207895,lil uwuzi vert,257207255,2020-05-25 03:43:18,missin South America,city,"Los Angeles, CA",United States
222,106.8755,-6.129904,Loeyeolaaa,2572073173,2020-05-21 14:16:05,EXO PLANET,city,"Tanjung Priok, Indonesia",Indonesia
39900,-119.7106945,39.57421650000001,BJsNVBBQ,2572073684,2020-03-18 19:22:49,"80 E. Victorian Ave Sparks, NV",city,"Sparks, NV",United States
88,139.751303,36.03094350000001,,2572073714,2020-03-31 20:58:12,,city, ,
31080,-118.243,34.0522,KaptainDeX,257207441,2020-02-18 22:42:36,planet earth,city,"Los Angeles, CA",United States
19100,-96.94314661,32.8778307,Ms. Library QMS,2572075290,2020-03-07 14:07:20,"Dallas,TX",city,"Irving, TX",United States
164,-8.7955925,39.8009575,David,2572075638,2020-02-14 19:35:48,Everywhere,city,"Leiria, Portugal",Portugal
19820,-82.98515732,42.56500079,Ruth B,25720769,2020-02-22 18:29:10,Just below the thumb #313,city,"Sterling Heights, MI",United States
34980,-86.791549,36.200008000000004,Ruth B,25720769,2020-06-08 03:06:49,Just below the thumb #313,city,"Nashville, TN",United States
38,-77.17049800000002,1.0755555,Julian Montenegro Jurado,257207823,2020-02-15 11:29:25,Colombia,city,"Pasto, Colombia",Colombia
48620,-97.343915,37.6838965,kales ,2572078928,2020-04-23 01:14:31,,city,"Wichita, KS",United States
88,135.5520645,34.7250725,yusatochin,2572079107,2020-04-09 23:42:50,,city,  ,
35620,-73.95121999999999,40.631921999999996,melanated seth rogen,2572082294,2020-03-05 22:49:32,"Flossangeles, NY",poi,Brooklyn College,United States
222,110.366005,-7.791411,l,2572082544,2020-04-17 23:15:49,sesuai aplikasi,poi,Lesehan Malioboro,Indonesia
82,91.749499,25.385953,Change of Heart,2572083716,2020-02-26 20:02:37,"Aizawl, India",city,"Shillong, India",India
47900,-77.09470920000001,38.984652000000004,TMJ-WAS Pharm. Jobs,25720841,2020-02-14 18:13:50,"Washington, DC",city,"Bethesda, MD",United States
152,5.36667,52.1667,Firefighter,25720850,2020-04-13 20:43:53,Amersfoort,city,"Amersfoort, Nederland",Nederland
21,-46.5955455,-23.682803,Robo do Babu ,2572085304,2020-04-13 16:57:16,L Onde Amor Prprio  Tudo,city,"So Paulo, Brasil",Brasil
82,72.946602,19.285101,Pratik Panchal,2572085437,2020-02-26 04:18:48,"Mumbai, India",poi,gaimukh river front,India
8,-58.647999,-34.443915999999994,    ,2572085785,2020-02-14 21:46:59,Villa Adelina,city,"Tigre, Argentina",Argentina
88,136.774506,35.3637345,,2572086038,2020-02-24 06:43:24,,city, ,
119,-101.78656099999999,20.9208085,Antonio Guerra,2572086134,2020-04-24 22:03:30,,city,"San Francisco del Rincn, Guanajuato",Mxico
21,-43.193193,-22.893051,Princesinha da Disney,2572086729,2020-03-05 23:48:55,"Caxias, lote xv ",poi,AquaRio - Aqurio Marinho do Rio de Janeiro,Brasil
32580,-98.20186700000001,26.202403,Alyssa,2572087148,2020-03-26 17:49:46,"Texas, USA",poi,Main Event Entertainment,United States
13820,-86.70674240000001,33.4307348,Crystal Spaulding,2572087280,2020-06-03 19:19:24,,city,"Vestavia Hills, AL",United States
205,-0.33394250000000003,53.765817000000006,Sam Spain ,257208759,2020-02-24 07:03:45,"Yorkshire and The Humber, Engl",city,"Hull, England",United Kingdom
186,-0.9273325000000001,41.6916365,-A,257208787,2020-05-27 22:52:55,Mexico,city,"Zaragoza, Espaa",Espaa
186,-3.7035075,40.4777945,Alfredo Vaz ,257208936,2020-02-24 01:33:26,Madrid,city,"Madrid, Espaa",Espaa
119,-107.3420565,24.662488500000002,Regina,2572090146,2020-02-28 18:49:38,"Culiacn, Sinaloa",city,"Culiacn, Sinaloa",Mxico
26420,-94.8227755,29.287575,paige(:,2572090250,2020-03-20 19:46:33,"Plano, TX",city,"Galveston, TX",United States
19100,-96.7617535,32.819858499999995,paige(:,2572090250,2020-03-23 00:26:22,"Plano, TX",city,"Dallas, TX",United States
205,-1.280075,52.905012,Liam Way,2572090389,2020-02-16 22:37:40,Notts,city,"Sandiacre, England",United Kingdom
21,-51.36204,-23.305870000000002,Karyn Claudino,257209090,2020-05-17 22:40:08,rolandia,city,"Rolndia, Brasil",Brazil
31080,-118.29072,33.706253000000004,Rosie ,2572091772,2020-05-03 00:27:37,"California, USA",poi,The Sunken City,United States
71,13.35072351,52.50734687,AJC,257209262,2020-02-28 17:40:32,Waaaay up ,city,"Berlin, Germany",Germany
38900,-122.630908,45.536402,Brendon Norick,2572093124,2020-03-29 03:12:36,"Portland, OR",city,"Portland, OR",United States
82,88.04621999999999,23.95506,Bikram Sarkar,2572094076,2020-03-11 20:39:46,"kandi, murshidabad,westbengal",city,"Kandi, India",India
41700,-98.5406515,29.417501,sydnee,2572095110,2020-02-29 00:24:20,band hall,city,"San Antonio, TX",United States
88,138.386871,34.951248,take.u,2572095445,2020-02-16 11:28:26,,city,  ,
175,39.8016865,21.389833000000007,Ayman,257209598,2020-03-11 22:40:11,Makkah Al Mukarrama,city,"Makkah Al Mukarrama, Kingdom of Saudi Arabia",Kingdom of Saudi Arabia
186,-3.7035075,40.4777945,liz domeck,257209624,2020-03-12 11:57:16,| CLE | NC |,city,"Madrid, Spain",Spain
24,-122.79871702,49.03143901,Chris B. & Jessie C.,257209980,2020-02-21 03:11:49,"Surrey, BC",city,"Surrey, British Columbia",Canada
24060,-106.8176493,39.18666266,Folami Small,257209984,2020-02-15 23:20:23,"Aspen, CO",city,"Aspen, CO",United States
186,2.169707,41.373907,Folami Small,257209984,2020-02-28 23:26:08,"Aspen, CO",city,"Barcelona, Spain",Spain
24060,-106.8176493,39.18666266,Folami Small,257209984,2020-03-05 22:11:11,"Aspen, CO",city,"Aspen, CO",United States
65,6.790822,43.450951,Etoile Montagnier,257210023,2020-02-21 06:48:43,"Saint-Raphal, France",city,"Frjus, France",France
43340,-93.66637800000001,32.5246725,Lala Land,257210041,2020-04-06 17:51:30,,city,"Bossier City, LA",United States
71,13.4246065,52.506701,Joyce V Newzella,2572101525,2020-02-21 13:23:11,"Berlin, Deutschland",city,"Berlin, Deutschland",Deutschland
34980,-86.40961,35.84742,Ty Petty,257210283,2020-03-01 21:07:46,"Murfreesboro, TN",city,"Murfreesboro, TN",United States
17460,-81.705467,41.49593950000001,Ty Petty,257210283,2020-03-16 08:27:31,"Murfreesboro, TN",city,"Cleveland, OH",United States
34980,-86.40961,35.84742,Ty Petty,257210283,2020-03-29 15:14:45,"Murfreesboro, TN",city,"Murfreesboro, TN",United States
205,-0.1313,50.8429,Richard Wilkinson,257210343,2020-04-19 12:28:45,Brighton,city,"Brighton, England",United Kingdom
152,4.8578005,51.632262,Eugene van Roij,25721048,2020-02-16 20:48:45,Oosterhout,city,"Oosterhout, Nederland",Nederland
33460,-93.2645,44.9774,oliver cesair,257210498,2020-02-21 11:08:26,,city,"Minneapolis, MN",United States
40900,-121.4947,38.577,oliver cesair,257210498,2020-02-27 22:04:45,,city,"Sacramento, CA",United States
33100,-80.21148009,26.05230418,oliver cesair,257210498,2020-03-10 17:35:30,,city,"Davie, FL",United States
12060,-84.4138378,33.73615468,oliver cesair,257210498,2020-03-12 16:04:39,,city,"Atlanta, GA",United States
40140,-117.48099,33.9949115,-___-,2572105027,2020-02-14 07:12:37,,city,"Jurupa Valley, CA",United States
31080,-117.77291699999999,34.0654505,-___-,2572105027,2020-03-07 04:51:33,,city,"Pomona, CA",United States
40140,-117.48099,33.9949115,-___-,2572105027,2020-03-09 23:10:07,,city,"Jurupa Valley, CA",United States
35620,-73.9487755,40.655138,Orlando Manuel,257210804,2020-02-19 04:52:03,"Brooklyn, NY",city,"Brooklyn, NY",United States
35300,-73.205993,41.4652815,Orlando Manuel,257210804,2020-02-22 07:06:02,"Brooklyn, NY",city,"Southbury, CT",United States
35620,-73.9487755,40.655138,Orlando Manuel,257210804,2020-02-24 06:41:48,"Brooklyn, NY",city,"Brooklyn, NY",United States
19740,-104.9220935,39.713563,Orlando Manuel,257210804,2020-03-12 18:12:39,"Queens, NY",city,"Denver, CO",United States
35620,-73.8311875,40.6708795,Orlando Manuel,257210804,2020-03-18 02:47:40,"Queens, NY",city,"Queens, NY",United States
41500,-121.879033,36.596299,Orlando Manuel,257210804,2020-04-10 02:41:51,"Monterey, CA",city,"Monterey, CA",United States
42100,-122.0311865,36.97937500000001,Orlando Manuel,257210804,2020-05-13 22:40:01,"Monterey, CA",city,"Santa Cruz, CA",United States
41500,-121.879033,36.596299,Orlando Manuel,257210804,2020-05-15 02:58:08,"Monterey, CA",city,"Monterey, CA",United States
65,2.138071,48.919004,Christelle Dellire,2572108955,2020-04-19 08:05:43,,city,"Montesson, France",France
21,-46.407732,-23.8593995,Gabriel Pedral,257210913,2020-02-14 03:57:29,,city,"Cubato, Brasil",Brasil
21,-43.441578,-22.911421500000003,Leandro Ginane,25721095,2020-03-22 22:28:53,,city,"Rio de Janeiro, Brazil",Brazil
38900,-122.97461899999999,45.518909,Hai Pham,2572110331,2020-05-24 19:24:31,Oregon,poi,Ochoa's,United States
120,103.38350127,1.50116965,AinolYaqin,2572110511,2020-02-16 02:29:24,,city,"Pontian, Johor",Malaysia
27260,-81.655651,30.3321838,TMJ-JAX Pharm. Jobs,25721108,2020-02-16 15:56:21,"Jacksonville, FL",neighborhood,"Downtown Jacksonville, FL",United States
16980,-87.9392,42.1262,Coach Degen,2572111232,2020-02-29 22:43:03,,city,"Wheeling, IL",United States
37980,-75.113105,39.704944,kaitlyn,2572112454,2020-02-23 21:47:45,nj,poi,Starbucks,United States
35620,-74.011785,40.21757,kaitlyn,2572112454,2020-02-29 18:46:31,nj,poi,Pasta Volo,United States
33460,-93.2024385,44.746673,Rudy Hershberger,25721155,2020-02-14 02:59:54,"Apple Valley, MN",city,"Apple Valley, MN",United States
21,-35.0964195,-6.2392650000000005,BERNARDO CAMPOS,257211586,2020-02-16 01:33:28,Venado tuerto ,city,"Tibau do Sul, Brasil",Brasil
45300,-82.44269399999997,27.9965945,Tee-Jay,257211597,2020-02-16 01:46:26,"Pennsylvania, USA",city,"Tampa, FL",United States
37980,-75.117998,40.0048655,Tee-Jay,257211597,2020-02-19 02:53:22,"Pennsylvania, USA",city,"Philadelphia, PA",United States
205,-4.2417515,55.85830249999999,Scott Douglas,257211679,2020-02-25 21:10:50,Glasgow,city,"Glasgow, Scotland",United Kingdom
40380,-77.57245499999998,43.211767,Reenah Oshun Golden,25721177,2020-03-13 19:45:13,"Rochester, NY",city,"Irondequoit, NY",United States
205,-1.13067,52.6262635,chris jones,2572118273,2020-04-24 19:45:29,leicester,city,"Leicester, England",United Kingdom
119,-98.0124835,25.726919,Lizbeth Castillo,2572119192,2020-02-15 06:13:03,,city,"Ro Bravo, Tamaulipas",Mxico
41740,-117.363171,33.175973,Steph,2572119948,2020-03-09 03:33:07,"San Diego, CA",poi,The Plot,United States
19380,-84.15352899999998,39.695477000000004,queen lys,2572122240,2020-02-14 02:16:16,"Centerville, OH",city,"Kettering, OH",United States
45780,-83.645809,41.3870895,queen lys,2572122240,2020-03-07 23:10:41,"Centerville, OH",city,"Bowling Green, OH",United States
19380,-84.09250300000001,39.864239000000005,queen lys,2572122240,2020-03-10 02:03:54,"Centerville, OH",city,"Huber Heights, OH",United States
117,57.507385,23.799112,Ejaz Fatyana,257212297,2020-02-19 06:10:33,Pakistan,city,"Al Mudayq, Oman",Oman
16980,-87.732013,41.8335845,meish ,2572124335,2020-03-14 23:50:12,chicago,city,"Chicago, IL",United States
45220,-84.26617399999999,30.4762155,meish ,2572124335,2020-05-09 03:08:47,chicago,city,"Tallahassee, FL",United States
13820,-86.816812,33.6665505,meish ,2572124335,2020-05-09 15:17:16,chicago,city,"Gardendale, AL",United States
34980,-86.674509,36.48646,meish ,2572124335,2020-05-09 18:55:29,chicago,poi,Somewhere In Tennessee!,United States
26900,-86.1429225,39.7795625,meish ,2572124335,2020-05-09 22:18:19,chicago,city,"Indianapolis, IN",United States
16980,-87.732013,41.8335845,meish ,2572124335,2020-05-16 01:28:01,chicago,city,"Chicago, IL",United States
151,7.0312755000000005,4.82463,,2572126671,2020-05-16 00:37:35,"Port Harcourt, Nigeria",city,"Port Harcourt, Nigeria",Nigeria
38,-75.619213,6.270883,Jeison.,257212692,2020-02-24 20:56:13,"Ibagu, Tolima",city,"Medelln, Colombia",Colombia
27860,-90.696841,35.828626,maddie gross ;),257212775,2020-04-07 02:47:49,"Denver, CO",city,"Jonesboro, AR",United States
205,-1.5186514999999998,52.411913,jimmy coyle,2572129149,2020-03-15 18:59:17,"Coventry, England",city,"Coventry, England",United Kingdom
8,-58.442643,-34.604315,Andres  De giglio,257212962,2020-02-16 11:19:33,Por ahi!,city,"Ciudad Autnoma de Buenos Aires, Argentina",Argentina
24860,-82.3422685,34.7959415,Rita Bolt Barker,2572130432,2020-03-26 12:42:08,"Greenville, SC",city,"Greenville, SC",United States
222,107.651627,-6.9237589999999996,,2572130911,2020-02-15 01:03:39,"Kota Bandung, Jawa Barat",city,"Kiaracondong, Indonesia",Indonesia
35620,-74.259732,40.009827,Elly,2572131975,2020-05-17 14:56:39,,city,"Pine Lake Park, NJ",United States
88,139.69647778,35.66920939,PEC ,2572131996,2020-03-22 04:52:59,,city, ,
17460,-81.74350600000001,41.307831,FERNANDA,2572132550,2020-03-14 00:16:58,,city,"North Royalton, OH",United States
160,-80.444,-3.5578,James Peralta,2572132646,2020-03-17 01:47:41,,city,"Tumbes, Peru",Peru
21,-46.53535073,-23.43811921,Jack Alegre Do Nascimento ,257213323,2020-02-23 03:05:43,Guarulhos - SP,city,"Guarulhos, Brasil",Brasil
175,39.800239000000005,21.441582999999998, ,2572133299,2020-02-23 11:30:41, ,poi,,  
39300,-71.50891200000002,41.6967185,W. L. Patenaude,2572133359,2020-02-14 15:14:12,The Ocean State,city,"West Warwick, RI",United States
33,-70.742714,-33.355478500000004,Leyla Ponce Marin,257213351,2020-02-24 03:44:42,QUILICURA,city,"Quilicura, Chile",Chile
21,-47.185544,-22.647023,ingrid maiara,2572134337,2020-04-04 09:56:21,,city,"Cosmpolis, Brasil",Brasil
32580,-97.958927,26.163045999999998,## faith ,2572134350,2020-03-05 23:55:51,on the sun,poi,Jack in the Box,United States
8,-65.7781865,-28.4660005,lele,2572134991,2020-03-20 05:10:38,,city,"San Fernando del Valle de Catamarca, Argentina",Argentina
119,-100.3189,25.6714,MF. ,257213589,2020-03-16 19:15:43,,city,"Monterrey, Nuevo Len",Mxico
42100,-122.011576,37.054218,John Bunney,257213597,2020-03-07 23:46:00,California,city,"Scotts Valley, CA",United States
21,-47.796623,-15.776254000000002,zero a esquerda,257213667,2020-02-20 22:41:05,,city,"Braslia, Brasil",Brasil
205,-1.13067,52.6262635,Chee Kay Cheung,2572136757,2020-04-04 09:50:22,,city,"Leicester, England",United Kingdom
205,-0.8421635000000001,51.274357,Mark Wakelin,257213709,2020-03-28 09:58:58,North Hampshire UK,city,"Fleet, England",United Kingdom
21,-46.64317227,-23.59823531,Cintia,257213725,2020-02-15 11:46:58,,city,"Sao Paulo, Brazil",Brazil
17140,-84.7841535,39.2368305,Jbemerer,25721377,2020-02-19 04:31:10,"Ohio, USA",city,"Harrison, OH",United States
222,110.59004650000001,-7.718124499999999,Zona Mountain Indonesia ,2572137794,2020-02-14 00:35:41,,city,"Klaten Selatan, Indonesia",Indonesia
175,46.685077,24.7219435,SH,2572138116,2020-05-10 02:02:17,,city,",   ",  
41540,-75.374976,37.928504499999995,madison,2572138530,2020-03-04 22:59:07,virginia state uni.,city,"Chincoteague, VA",United States
8,-58.8023675,-34.60033,Pamela Tucuna,2572138703,2020-03-12 18:42:57,,city,"Moreno, Argentina",Argentina
49,-78.5566815,-0.16657049999999998,Luis Capelo,257213892,2020-05-31 16:31:28,QUITO-ECUADOR,city,"Quito, Ecuador",Ecuador
35620,-73.9487755,40.655138,Andrew Casertano,2572139544,2020-05-04 07:08:14,"Brooklyn, NY",city,"Brooklyn, NY",United States
55,-89.093096,13.727739999999999,victorpinedha,2572139558,2020-04-05 23:54:00,,poi,Residencial Alta Vista,El Salvador
175,39.2541285,21.5857105,Roaa,2572139636,2020-02-14 21:27:13,jeddah,city,"Jeddah, Kingdom of Saudi Arabia",Kingdom of Saudi Arabia
205,-1.683398,52.6221095,Martin Watson,257213995,2020-04-22 07:12:13,,city,"Tamworth, England",United Kingdom
200,26.647571000000003,39.274248,mit narin,257214084,2020-03-21 13:14:59,,poi,sarmsakl,Trkiye
16980,-87.3464271,41.5933696,TMJ-CHI Pharm. Jobs,25721411,2020-02-14 16:12:42,"Chicago, IL",city,"Gary, IN",United States
33140,-86.8900789,41.6754614,TMJ-CHI Pharm. Jobs,25721411,2020-02-22 20:21:48,"Chicago, IL",city,"Michigan City, IN",United States
16980,-87.9737943,41.748348299999996,TMJ-CHI Pharm. Jobs,25721411,2020-02-22 21:40:55,"Chicago, IL",city,"Darien, IL",United States
33140,-86.8900789,41.6754614,TMJ-CHI Pharm. Jobs,25721411,2020-02-23 18:23:42,"Chicago, IL",city,"Michigan City, IN",United States
16980,-87.8567276,41.900586499999996,TMJ-CHI Pharm. Jobs,25721411,2020-02-23 19:42:53,"Chicago, IL",city,"Melrose Park, IL",United States
33140,-86.8900789,41.6754614,TMJ-CHI Pharm. Jobs,25721411,2020-02-25 19:44:00,"Chicago, IL",city,"Michigan City, IN",United States
16980,-87.62979820000001,41.8781136,TMJ-CHI Pharm. Jobs,25721411,2020-02-25 21:15:58,"Chicago, IL",city,"Chicago, IL",United States
33140,-86.8900789,41.6754614,TMJ-CHI Pharm. Jobs,25721411,2020-03-02 20:29:04,"Chicago, IL",city,"Michigan City, IN",United States
16980,-87.62979820000001,41.8781136,TMJ-CHI Pharm. Jobs,25721411,2020-03-02 21:43:21,"Chicago, IL",city,"Chicago, IL",United States
13740,-108.562922,45.7974455,Tyler,2572141146,2020-02-25 16:56:19,,city,"Billings, MT",United States
-9999,-104.7082475,47.1103265,Tyler,2572141146,2020-03-20 23:55:16,,city,"Glendive, MT",United States
31080,-118.462997,34.194833,Nena ,257214205,2020-03-19 22:50:26,"San Fernando, CA",poi,Valley Presbyterian Hospital,United States
26420,-95.41790384,30.16906131,Lynn Hernandez,2572142406,2020-02-27 14:03:40,"Conroe, tx",city,"Shenandoah, TX",United States
175,42.533355,18.303816, ,257214534,2020-02-18 05:55:15,,city,",   ",  
82,80.3460625,26.405874,prakash kanodia,2572146072,2020-04-29 14:57:06,,city,"Kanpur, India",India
171,121.0392605,14.5847555,SBS,257214774,2020-02-21 08:02:44,Phillppines,city,"Mandaluyong City, National Capital Region",Republic of the Philippines
88,139.806939,36.10613650000001,,2572147892,2020-03-07 03:24:56,,city, ,
119,-86.878029,20.4321525,LaMont Wade ,257214897,2020-03-11 13:44:13,Israel,city,"Cozumel, Quintana Roo",Mexico
119,-97.916772,22.270295,Lorena Gonzalez B   2018,257214901,2020-03-23 20:46:15,,city,"Tampico, Tamaulipas",Mxico
205,-0.1073397,51.5254934,birthday chef,257215286,2020-03-16 19:51:30,Londonerrrr,city,"Islington, London",United Kingdom
21,-43.441578,-22.911421500000003,BLOCO MAIOMENOS 20/02 19H PA TIRADENTES,25721532,2020-02-19 23:39:43,Rio de Janeiro,city,"Rio de Janeiro, Brasil",Brasil
26420,-95.21623840000001,29.5824799,Community Health Network,2572153573,2020-05-15 13:25:37,"Texas, USA",city,"Houston, TX",United States
19100,-97.23531331,32.68579773,Kendric Gray,25721547,2020-05-04 13:56:47,"Forest Hill, Texas",city,"Fort Worth, TX",United States
21,-46.564870500000005,-23.624796,Pepe Lus,25721556,2020-02-21 16:26:17,So Caetano do Sul - Brasil,city,"So Caetano do Sul, Brasil",Brasil
42660,-122.3306025,47.614816999999995,Heather Redman,257215644,2020-02-16 21:11:14,"Seattle, WA",city,"Seattle, WA",United States
41860,-122.31542150000001,37.552481,Heather Redman,257215644,2020-02-27 20:42:12,"Seattle, WA",city,"San Mateo, CA",United States
42660,-122.3306025,47.614816999999995,Heather Redman,257215644,2020-03-02 20:45:52,"Seattle, WA",city,"Seattle, WA",United States
34580,-122.615429,48.4840165,Heather Redman,257215644,2020-05-14 22:57:02,"Seattle, WA",city,"Anacortes, WA",United States
42660,-122.3306025,47.614816999999995,Heather Redman,257215644,2020-05-18 13:59:50,"Seattle, WA",city,"Seattle, WA",United States
34580,-122.615429,48.4840165,Heather Redman,257215644,2020-05-21 22:46:35,"Seattle, WA",city,"Anacortes, WA",United States
42660,-122.3306025,47.614816999999995,Heather Redman,257215644,2020-05-27 19:41:35,"Seattle, WA",city,"Seattle, WA",United States
36420,-97.552161,35.4828435,Shaun Witt,2572156591,2020-02-18 01:35:51,"Oklahoma City, Ok",city,"Oklahoma City, OK",United States
19100,-97.079654,32.931834,Shaun Witt,2572156591,2020-03-10 16:46:25,"Oklahoma City, Ok",city,"Grapevine, TX",United States
14260,-116.238001,43.598033,Shaun Witt,2572156591,2020-03-11 02:24:41,"Oklahoma City, Ok",city,"Boise, ID",United States
19100,-97.079654,32.931834,Shaun Witt,2572156591,2020-03-12 17:32:43,"Oklahoma City, Ok",city,"Grapevine, TX",United States
36420,-97.552161,35.4828435,Shaun Witt,2572156591,2020-03-13 01:52:37,"Oklahoma City, Ok",city,"Oklahoma City, OK",United States
28060,-114.189,48.3704,Mei Lee,25721568,2020-05-19 04:45:17,,city,"Columbia Falls, MT",United States
117,57.2959085,23.0854605,Hilal,2572157742,2020-02-24 12:04:07,,city,",  ", 
27260,-81.394759,30.193203,Tom Coughlin Jay Fund,257215802,2020-02-18 18:39:52,USA,city,"Palm Valley, FL",United States
96,47.99269,29.376587,,257215810,2020-03-04 07:47:15,"Al Sharq, Kuwait",poi,NBK New Headquarter,Kuwait
33,-70.904628,-33.677162,ivan honores farias,2572158673,2020-03-21 00:23:44,"Santiago, Chile",city,"Talagante, Chile",Chile
31080,-118.01885549999999,33.9759175,.,2572158871,2020-03-12 22:33:24,,city,"Whittier, CA",United States
88,138.52108,36.74752,,2572160202,2020-03-04 00:29:56,,poi, ,
9,152.9931965,-27.382143,Welcoming Australia,257216057,2020-02-14 06:21:42,Australia,city,"Brisbane, Queensland",Australia
35380,-90.01100799999999,29.982601000000003,W.,2572160821,2020-03-02 01:11:26,,city,"New Orleans, LA",United States
47900,-77.0854,38.8914,Leo Ribeiro,257216137,2020-02-14 21:51:16,"Arlington, VA",city,"Arlington, VA",United States
24,-73.723025,45.5578305,Olivier CENILLE,257216196,2020-06-03 18:33:51,"Montral, CA & Paris, FR",city,"Montral, Qubec",Canada
82,77.5584485,12.9231145,Subrahmanya Sriram,2572161993,2020-04-15 18:59:42,"Bengaluru, India",city,"Bengaluru South, India",India
25180,-77.6640585,39.6308345,Moncef Bouhafa,25721621,2020-02-14 14:14:20,Washington DC,city,"Robinwood, MD",United States
47900,-77.1951415,39.0201895,Moncef Bouhafa,25721621,2020-02-21 12:34:56,Washington DC,city,"Potomac, MD",United States
200,29.0052225,41.0213205,Moncef Bouhafa,25721621,2020-03-14 18:20:17,Washington DC,city,"stanbul, Trkiye",Turkey
47900,-77.1951415,39.0201895,Moncef Bouhafa,25721621,2020-03-21 16:39:21,Washington DC,city,"Potomac, MD",United States
21,-43.13259412,-22.89847969,piranha do tt,257216218,2020-05-24 19:04:10,Rio de Janeiro,city,"Niteri, Brasil",Brasil
47900,-77.0143985,38.898603,Marilyn  Monroe,257216280,2020-02-15 16:15:21,DMV,city,"Washington, DC",United States
41860,-122.4231185,37.658798499999996,GetAktive,2572164271,2020-02-20 17:25:58,"Colima, Mxico ",city,"South San Francisco, CA",United States
171,121.070172,14.5455175,Jess,2572166322,2020-02-16 13:38:29,Makati City,city,"Pateros, National Capital Region",Republic of the Philippines
95,126.9761365,36.7907085, KwonTree,2572167788,2020-03-03 16:20:43,,city, ,
205,-1.1703515,50.851063,lukehookings4,2572168431,2020-02-18 21:48:48,,city,"Fareham, England",United Kingdom
42660,-122.1426895,47.750041,Angela Morse,257216861,2020-03-17 18:14:51,Washington,city,"Woodinville, WA",United States
82,80.91415500000001,25.217892000000003,Ashish Agrawal,2572168888,2020-04-05 17:08:40,"New Delhi, India",city,"Chitrakoot Dham, India",India
186,-0.2839375,39.7075805,Jose M Martin-Moreno,257216911,2020-02-21 15:43:53,"Valencia, Spain, EU",city,"Sagunto, Spain",Spain
12580,-76.62048200000002,39.284713,Ryan Nicotra ,2572169348,2020-02-14 21:45:43,"Baltimore, MD",city,"Baltimore, MD",United States
47900,-77.10199899999999,38.8808445,Ryan Nicotra ,2572169348,2020-02-20 17:02:02,"Baltimore, MD",city,"Arlington, VA",United States
12580,-76.62048200000002,39.284713,Ryan Nicotra ,2572169348,2020-02-21 02:59:46,"Baltimore, MD",city,"Baltimore, MD",United States
31080,-118.31080535,33.799310299999995,Brood 9 Martial Arts,257217031,2020-02-14 06:15:58,"Los Angeles, CA",city,"Lomita, CA",United States
12700,-70.4679565,41.717647,Twoputt Shakur,257217152,2020-02-16 21:06:48,,city,"Sandwich, MA",United States
14460,-71.0887125,42.3136695,Twoputt Shakur,257217152,2020-02-17 01:15:19,,city,"Boston, MA",United States
46140,-95.8375525,36.3583495,colbz,2572171856,2020-02-16 20:20:50,"Oologah, OK",city,"Collinsville, OK",United States
186,2.06823538,41.31095298,MMar,257217187,2020-03-18 07:14:18,"L'Hospitalet, Barcelona, CAT.",city,"El Prat de Llobregat, Espaa",Espaa
55,-89.2124635,13.681588,Karla Urquilla,2572172082,2020-04-05 18:36:18,San Salvador,city,"Aguilares, El Salvador",El Salvador
8,-58.561984,-34.878338,Cande,2572172996,2020-05-30 03:29:37,Ciudad Autnoma de Buenos Aire,city,"Jos Mara Ezeiza, Argentina",Argentina
119,-100.2935915,25.6417185,Daniel Gonzalez,257217382,2020-02-24 07:15:17,"Sonora, Mxico",city,"Monterrey, Nuevo Len",Mxico
65,2.347003,48.8588335,jsbeauvais,2572173917,2020-03-04 22:34:57,Paris - London - Amsterdam,city,"Paris, France",France
158,174.4254668,-36.83277762,Abbie Wakelin,2572175172,2020-03-01 00:17:45,New Zealand,city,"Auckland, New Zealand",New Zealand
119,-99.12830846,19.30547046,JeRRo Potro,257217518,2020-02-27 04:47:16,,city,"Tlalpan, Distrito Federal",Mxico
14460,-71.23199129999999,42.293146899999996,TMJ-BOS Pharm. Jobs,25721759,2020-02-14 22:04:14,"Boston, MA",city,"Needham, MA",United States
49,-78.5566815,-0.16657049999999998,Csar Andrade Viteri,257217595,2020-02-17 00:18:04,Ecuador,city,"Quito, Ecuador",Ecuador
38,-74.24367099999999,4.2622835,Elvia Ma ,257217723,2020-03-21 00:20:23,Bogota,city,"Bogot, D.C., Colombia",Colombia
45220,-84.227333,30.427784000000003,Trader Joes Updates,2572177261,2020-03-15 19:22:14,flo rida,poi,KFC,United States
205,-0.18919,51.5037865,Angharad,257217778,2020-02-16 12:50:23,London,city,"Kensington, London",United Kingdom
38,-76.3167,3.6880599999999997,jhon jairo salcedo,257217997,2020-02-15 02:01:42,El Cerrito (v),city,"Ginebra, Colombia",Colombia
119,-99.655676,19.2843215,BeckyM,257218047,2020-05-02 15:50:36,"Quintana Roo, Mxico",city,"Toluca, Mxico",Mxico
11700,-82.56700749999999,35.539072499999996,sydney tate,2572180506,2020-04-15 00:49:50,she/her,city,"Asheville, NC",United States
205,1.2730815,52.641482999999994,Clairelou1,2572181230,2020-02-15 23:45:29,"Norwich, England",city,"Norwich, England",United Kingdom
88,135.4979,34.747124,,2572181612,2020-03-21 14:02:54, ,poi,BENI,
183,-11.738728,7.944458,Mahamoud kondeh,2572182238,2020-04-04 07:58:17,Bo,poi,Bo,Sierra Leone
40140,-116.80093600000001,33.921618,Fernando Dueas,2572182446,2020-02-29 09:00:49,1000 Vin Scully Ave. ,poi,Morongo Casino Resort & Spa,United States
31080,-118.115723,33.784001,Fernando Dueas,2572182446,2020-03-06 22:59:39,1000 Vin Scully Ave. ,poi,Cba- Cal State Long Beach,United States
40140,-117.286158,33.9388,Fernando Dueas,2572182446,2020-03-14 16:34:26,1000 Vin Scully Ave. ,poi,Walmart,United States
21700,-124.032211,41.275742,Fernando Dueas,2572182446,2020-05-26 19:21:19,1000 Vin Scully Ave. ,poi,Redwood National Park,United States
44700,-121.42628,37.73816,mo ,257218270,2020-02-25 03:59:07,University of Nevada,city,"Tracy, CA",United States
42100,-122.026252,36.97205,mo ,257218270,2020-03-10 03:04:11,University of Nevada,city,"Santa Cruz, CA",United States
39900,-119.72005729999998,39.5311935,mo ,257218270,2020-03-15 02:56:34,University of Nevada,city,"Sparks, NV",United States
28140,-94.80808499999999,38.886623,The Mad Trucker Thanos,2572183101,2020-03-29 00:49:13,Pea Duro ,city,"Olathe, KS",United States
15660,-84.93276350000001,34.5035605,The Mad Trucker Thanos,2572183101,2020-04-17 07:35:11,Pea Duro ,city,"Calhoun, GA",United States
35620,-73.8494415,40.8503475,The Mad Trucker Thanos,2572183101,2020-04-24 03:50:25,Pea Duro ,city,"Bronx, NY",United States
28140,-94.3782315,38.916093,The Mad Trucker Thanos,2572183101,2020-04-26 07:40:43,Pea Duro ,city,"Lee's Summit, MO",United States
36540,-95.8349585,41.247487,The Mad Trucker Thanos,2572183101,2020-05-11 01:40:41,Pea Duro ,city,"Council Bluffs, IA",United States
21500,-80.087032,42.110703,The Mad Trucker Thanos,2572183101,2020-05-19 05:45:41,Pea Duro ,city,"Erie, PA",United States
33460,-92.422468,44.973012,The Mad Trucker Thanos,2572183101,2020-05-21 17:11:55,Pea Duro ,city,"Hammond, WI",United States
47940,-92.2714065,42.465937,The Mad Trucker Thanos,2572183101,2020-05-22 04:13:37,Pea Duro ,city,"Evansdale, IA",United States
33100,-80.36688050000002,25.636854500000002,The Mad Trucker Thanos,2572183101,2020-05-28 13:59:24,Pea Duro ,city,"Richmond Heights, FL",United States
31080,-118.4119065,34.0207895,  ,2572183122,2020-02-28 07:37:18,"Northridge, Los Angeles",city,"Los Angeles, CA",United States
21,-35.980526,-7.8881235,MOURA ,257218339,2020-02-14 01:56:55,Made in Nrnia,city,"Vertentes, Brasil",Brasil
-9999,-34.550309000000006,-4.8747985,MOURA ,257218339,2020-02-25 04:45:33,Made in Nrnia,city,"Navidad, Brasil",Brasil
21,-35.0964195,-6.2392650000000005,MOURA ,257218339,2020-02-26 22:41:21,Made in Nrnia,city,"Tibau do Sul, Brasil",Brasil
33100,-80.274817,25.830336,     ,2572184196,2020-02-25 22:48:36,"Miami, FL",poi,Panda Animal Clinic,United States
33340,-88.0255425,43.0675375,Casey,257218451,2020-03-23 20:39:10,"Wisconsin, USA",city,"Wauwatosa, WI",United States
35620,-73.97721700000001,40.742998,Rated Gen X,257218628,2020-02-28 00:07:47,"Sunnyside, NYC",poi,AMC Kips Bay 15,United States
205,-2.915427,53.4198785,GoggleboxViv & Ralf,2572186335,2020-02-17 13:49:19,Wirral,city,"Liverpool, England",United Kingdom
41860,-122.0857755,37.64127050000001,dre.,2572186933,2020-04-09 21:37:10,"Hayward, CA",city,"Hayward, CA",United States
34100,-83.2851125,36.1124805,J Faye,257218713,2020-04-11 19:44:49,"Tennessee, USA",city,"White Pine, TN",United States
82,77.5584485,12.9231145,Quarantined Meme-Dev ,2572188080,2020-04-16 07:37:28,"Bengaluru, India",city,"Bengaluru South, India",India
41980,-66.058368,18.384165499999998,Elizabeth Matos,2572189143,2020-03-14 16:19:27,"San Juan, USA",city,"San Juan, USA",Estados Unidos
172,-66.0667,18.45,Elizabeth Matos,2572189143,2020-03-16 18:08:59,"San Juan, USA",city,"San Juan, USA",Estados Unidos
12060,-84.3542,33.5244,Elizabeth Matos,2572189143,2020-04-11 01:19:19,"San Juan, USA",city,"Jonesboro, GA",Estados Unidos
186,-0.526224,39.418278,Angel,2572189287,2020-02-14 07:15:11,"Torrent, #EspaaViva",city,"Torrent, Espaa",Espaa
8,-58.41885600000001,-34.752795500000005,martina,2572190001,2020-02-27 00:53:41,zona sur,city,"Lomas de Zamora, Argentina",Argentina
171,120.98159552,14.53211068,Aya's Bridal Couture,257219111,2020-02-20 01:08:47,"2nd flr 2N-10 D8 Mall, Divisor",city,"Pasay City, National Capital Region",Republic of the Philippines
175,39.8016865,21.389833000000007,Samaher Lashkar,2572192117,2020-04-15 03:46:34, Makkah,city,"Makkah Al Mukarrama, Kingdom of Saudi Arabia",Kingdom of Saudi Arabia
24,-113.49261750000001,53.5558195,Jenn Roggeveen,2572192171,2020-05-15 20:22:54,Edmonton,city,"Edmonton, Alberta",Canada
186,-3.7035075,40.4777945,Juan Perez-Bedmar (en casa ),257219224,2020-05-28 17:47:39,Madrid,city,"Madrid, Espaa",Espaa
31140,-85.5576145,38.1947435,Kelly Bruington,257219264,2020-03-31 19:12:04,KY,city,"Jeffersontown, KY",United States
186,-0.515521,38.3489055,Chema :D,257219439,2020-02-21 08:13:24,The haunted mansion,city,"Alicante, Espaa",Espaa
35620,-73.8494415,40.8503475,Ben J ,2572194891,2020-02-14 15:51:14,Boogie Down Bronx ,city,"Bronx, NY",United States
16980,-87.732013,41.8335845,Sarah McHugh,25721949,2020-02-17 00:29:17,,city,"Chicago, IL",United States
21,-46.551118,-23.707160000000002,gabiel,2572195329,2020-03-24 00:16:30,"So Bernardo do Campo, Brasil",poi,Drogasil Marechal,Brasil
21340,-106.4174305,31.793368,shaggy,257219599,2020-02-24 14:43:15,Hell Paso,city,"El Paso, TX",United States
26420,-95.4464865,29.838495,Jo ,2572196521,2020-02-16 05:55:24,"Nacogdoches, TX",city,"Houston, TX",United States
34860,-94.6493115,31.6139415,Jo ,2572196521,2020-02-18 17:52:25,"Nacogdoches, TX",city,"Nacogdoches, TX",United States
19100,-96.4268065,32.920541,Jo ,2572196521,2020-04-23 16:25:07,Wettermark ,city,"Rockwall, TX",United States
34860,-94.6493115,31.6139415,Jo ,2572196521,2020-05-10 21:14:06,Wettermark ,city,"Nacogdoches, TX",United States
31080,-118.4504105,34.193143500000005,Diana Princess ,25722009,2020-06-02 01:36:03,"Los Angeles, CA",neighborhood,"Van Nuys, Los Angeles",United States
200,29.0052225,41.0213205,hsan amlca,257220224,2020-02-23 22:53:36,"stanbul, Trkiye",city,"stanbul, Trkiye",Trkiye
47260,-76.36227600000002,37.0508965,Gustave ElCasso ,257220241,2020-03-11 17:00:10,"Hampton, VA",city,"Hampton, VA",United States
21,-40.470364,-20.307374499999998,GABRIELA,2572202464,2020-02-14 00:19:07,Cariacica ES,city,"Cariacica, Brasil",Brasil
71,13.390317000000001,52.516789,Paul Fhring,25722026,2020-03-03 07:25:19,Berlin,poi,Microsoft Atrium,Deutschland
47900,-76.95271249999998,39.076493,Millon's Edible Art,2572203315,2020-02-16 12:10:48,,city,"Fairland, MD",United States
186,-3.7376071000000004,42.38203568,Ral Garca,257220355,2020-04-04 13:35:32,Burgos ,city,"Alfoz de Quintanadueas, Espaa",Espaa
171,125.5569445,7.7646585,Syril Mee Darker,2572203622,2020-06-02 00:08:57,"Davao del Norte,Philippines",city,"Kapalong, Davao Region",Republic of the Philippines
21,-43.2239745,-22.898135999999997,Larissa Sacramento,2572204526,2020-04-21 15:03:40,,neighborhood,"So Cristvo, Rio de Janeiro",Brasil
21,-46.4539065,-23.39208,JEFFERSON FERREIRA ,25722046,2020-02-15 15:31:31,"So Paulo, Brasil",city,"Guarulhos, Brasil",Brasil
200,33.022192,40.113799,.,2572207226,2020-03-08 06:05:35,"zmit, Kocaeli",poi,Anadolu Hotels Esenboa Thermal,Trkiye
82,72.78910450000002,21.171369,kalpesh,2572207950,2020-04-04 13:14:36,,city,"Surat, India",India
19100,-96.6207991,32.7203027,TMJ-DFW Pharm. Jobs,25722085,2020-02-14 16:12:33,"DFW, Texas",city,"Balch Springs, TX",United States
43300,-96.57721090000001,33.4214995,TMJ-DFW Pharm. Jobs,25722085,2020-05-22 17:55:38,"DFW, Texas",city,"Van Alstyne, TX",United States
19100,-97.11825879999999,32.7624419,TMJ-DFW Pharm. Jobs,25722085,2020-05-22 19:01:47,"DFW, Texas",city,"Arlington, TX",United States
43300,-96.57721090000001,33.4214995,TMJ-DFW Pharm. Jobs,25722085,2020-05-29 14:42:18,"DFW, Texas",city,"Van Alstyne, TX",United States
19100,-96.8935741,33.0975135,TMJ-DFW Pharm. Jobs,25722085,2020-05-29 15:48:14,"DFW, Texas",city,"The Colony, TX",United States
43300,-96.57721090000001,33.4214995,TMJ-DFW Pharm. Jobs,25722085,2020-06-05 15:55:36,"DFW, Texas",city,"Van Alstyne, TX",United States
19100,-96.9608805,32.8097913,TMJ-DFW Pharm. Jobs,25722085,2020-06-05 17:01:33,"DFW, Texas",city,"Irving, TX",United States
205,-2.304758,53.580698,Brent-James Pinder Pindy,257220890,2020-05-08 12:42:37,Bury,city,"Bury, England",United Kingdom
88,140.87158889,38.26344802, ,2572208904,2020-04-03 11:27:10,"4-5-3, 2",city, ,
152,5.3181775,51.713073,Barry,25722094,2020-02-23 13:29:46,,city,"'s-Hertogenbosch, Nederland",Nederland
24,-123.123581,49.257639000000005,madu,2572209565,2020-02-14 07:20:53,Braslia,city,"Vancouver, British Columbia",Canad
33100,-80.2333285,25.7823535,madu,2572209565,2020-02-19 02:45:48,Braslia,city,"Miami, FL",Estados Unidos
21,-47.796623,-15.776254000000002,madu,2572209565,2020-03-22 00:13:33,Braslia,city,"Braslia, Brasil",Brasil
21,-35.6871125,-9.5333295,kamikaze  [dipsi] ,257220978,2020-02-21 01:18:18,082 / made in Gois! ,city,"Macei, Brasil",Brasil
21,-49.36438,-16.80089,saullo saldanha,25722102,2020-04-11 14:32:41,Goinia-Go,city,"Aparecida de Goinia, Brasil",Brasil
71,9.0359715,50.0444735,ababurg,25722110,2020-05-03 13:56:00,"Aschaffenburg, Germany",city,"Karlstein am Main, Deutschland",Deutschland
