currentGEOID,lon,lat,name,author_Id,created_at,location,place_type,place_full_name,place_country
29820,-115.13516499999999,36.060964500000004,Brian DeLong,26056710,2020-03-06 15:45:05,"T: 38.97231,-95.291356",city,"Paradise, NV",United States
31080,-118.1632765,34.685827,TheGreatZacksby,2605671525,2020-03-19 03:27:56,"Heartbreak, Hotel",city,"Lancaster, CA",United States
36740,-81.57118399999997,28.605603499999997,Patrick Anderson,260567191,2020-03-30 02:14:08,"Orlando, FL",city,"Ocoee, FL",United States
120,103.371628,4.0416095,fazrul,2605672370,2020-04-01 16:35:23,,city,"Sungai Karang, Pahang",Malaysia
222,123.024677,0.5472279999999999,,2605672465,2020-04-07 15:14:52,among the stars,city,"Telaga Kota, Indonesia",Indonesia
21,-52.333895500000004,-31.561389000000002,mariana maske,2605673989,2020-02-15 01:10:52,,city,"Pelotas, Brasil",Brasil
160,-76.92798,-12.0923405,JOHN P. R.,2605674288,2020-03-29 11:49:51,La Molina ,city,"La Molina, Peru",Peru
12060,-84.1706,33.8079,Arlinda Garrett,26056748,2020-04-12 14:26:42,"Atlanta, GA",city,"Stone Mountain, GA",United States
205,-2.0348610000000003,53.4052095,Steve Elliott,2605675990,2020-03-07 15:30:19,Marple Bridge,city,"Compstall, England",United Kingdom
88,139.40957576,36.00512562,T()YAMAZAKI,2605676934,2020-02-19 08:48:05,,city, ,
12060,-84.43310600000001,33.7671945,Aprilandzel,260567734,2020-03-26 11:43:36,"Roswell, GA",city,"Atlanta, GA",United States
24300,-108.5635,39.071,Rey,260567782,2020-02-15 03:47:56,Colorado,city,"Grand Junction, CO",United States
120,101.697334,3.141369,,2605677860,2020-02-15 11:29:32,,poi,Luckin Kopi,Malaysia
21500,-80.087032,42.110703,Klim,26056781,2020-02-17 04:26:20,,city,"Erie, PA",United States
38300,-79.54093,40.305028,Klim,26056781,2020-03-08 21:58:40,,city,"Greensburg, PA",United States
21500,-80.087032,42.110703,Klim,26056781,2020-03-13 20:41:55,,city,"Erie, PA",United States
16740,-80.8467855,35.209059,Doris Jude porter,2605678135,2020-02-29 14:40:07,The Eight Golden Pears,city,"Charlotte, NC",United States
82,81.249201,26.2351145,Rahul Gaur,2605680529,2020-05-18 06:56:41,,city,"Rae Bareily, India",India
40900,-121.539281,38.564585,CHATSWY,2605680704,2020-05-23 04:41:46,United States,poi,Nor Cal Beverage Production Facilities,United States
13820,-87.046503,33.321634,L Boogie,260568108,2020-05-06 17:09:35,Every where,poi,Flying J,United States
184,103.845508,1.290475,Naru Channel,2605682424,2020-02-21 09:53:07,,poi,Warehouse Bistro (formerly L'entrepot Bistro),
88,139.73951449999998,35.56689400000001,Naru Channel,2605682424,2020-02-22 11:09:51,,city, ,
205,0.443604,51.355928000000006,,26056827,2020-03-26 14:48:00,"Saint Petersburg, Russia",city,"Halling, England",United Kingdom
171,121.22122023,14.55414286,jhoydee halina,2605682791,2020-02-18 08:54:54,,city,"Teresa, Calabarzon",Republic of the Philippines
65,6.5197575,45.35043450000001,Frederic Jacquemin,26056832,2020-02-14 18:00:03,Europe,city,"Saint-Martin-de-Belleville, France",France
128,4.570091000000001,50.672781,Frederic Jacquemin,26056832,2020-02-23 18:02:11,Europe,city,"Ottignies-Louvain-la-Neuve, Belgique",Belgium
205,-0.17311500000000002,51.5248355,Madelaine,260568344,2020-02-21 07:41:34,"London, England",city,"Paddington, London",United Kingdom
16980,-87.732013,41.8335845,Alex H,260568352,2020-02-16 22:43:09,"Glenview, IL",city,"Chicago, IL",United States
39580,-78.657837,35.8439815,Alex H,260568352,2020-03-05 22:26:16,"Glenview, IL",city,"Raleigh, NC",United States
47260,-76.703255,37.278994,Alex H,260568352,2020-03-06 00:55:39,"Glenview, IL",city,"Williamsburg, VA",United States
35620,-73.9685415,40.780709,Alex H,260568352,2020-03-08 21:06:28,"Glenview, IL",city,"Manhattan, NY",United States
16980,-87.732013,41.8335845,Alex H,260568352,2020-03-11 02:29:41,"Glenview, IL",city,"Chicago, IL",United States
24,-123.1204,49.2819,Kelsey,260568376,2020-05-29 03:18:49,"Vancouver, British Columbia",city,"Vancouver, British Columbia",Canada
19740,-104.9220935,39.713563,Zach Widder,2605684835,2020-04-30 16:11:43,"Denver, CO",city,"Denver, CO",United States
21,-46.5955455,-23.682803,Subelo Imveis ,2605686140,2020-02-29 18:31:09,So Paulo,city,"So Paulo, Brasil",Brasil
8,-60.69740600000001,-32.9516155,Flori,2605686195,2020-02-17 23:15:27,,city,"Rosario, Argentina",Argentina
37140,-88.6654685,37.036213,Carly Eskridge,260568650,2020-02-21 20:50:32,,city,"Lone Oak, KY",United States
171,121.0652415,14.504111499999999,AUBREY,2605688484,2020-04-27 04:44:19,,city,"Taguig City, National Capital Region",Republic of the Philippines
49,-79.770544,-2.011486,Gino,260568921,2020-05-25 15:45:38,Ecuador,city,"Samborondon, Ecuador",Ecuador
85,11.331656,44.488735,Alex Vickery,260569060,2020-03-02 13:32:37,"Madrid, Spain",city,"Bologna, Emilia Romagna",Italy
128,4.375468,50.855017,Alex Vickery,260569060,2020-05-01 12:15:52,"Madrid, Spain",city,"Brussels, Belgium",Belgium
41180,-90.23335601,38.63705689,SLU Campus Ministry,260569101,2020-04-19 16:30:42,St. Louis,city,"St Louis, MO",United States
91,37.079183,-1.0446959999999998,Adam Easti,2605693237,2020-05-15 02:01:13,lamu kenya,city,"Thika, Kenya",Kenya
14460,-71.1,42.48,Jamie Cechura,260569383,2020-02-18 18:13:41,"Revere, MA",city,"Stoneham, MA",United States
28300,-72.02,42.8103,Jamie Cechura,260569383,2020-06-04 20:56:44,"Revere, MA",city,"Jaffrey, NH",United States
14460,-71.1,42.48,Jamie Cechura,260569383,2020-06-06 21:10:26,"Revere, MA",city,"Stoneham, MA",United States
58,14.465875500000001,50.05958,Sabbir Jubaer,2605694257,2020-03-13 08:54:49,"Prague, Czech Republic",city,"Prague, Czech Republic",Czech Republic
21,-43.441578,-22.911421500000003,Juba,2605695817,2020-04-20 07:40:08,,city,"Rio de Janeiro, Brasil",Brasil
205,-3.5148765,50.72094,cassie brady,26056963,2020-04-06 14:16:17,Exeter ,city,"Exeter, England",United Kingdom
9,145.0531355,-37.9725665,Paul Anastasopoulos,260569804,2020-02-22 09:11:38,"Melbourne, Victoria",city,"Melbourne, Victoria",Australia
205,-1.54265642,53.80328986,Leanne ,2605698602,2020-02-18 07:26:05,"Leeds, Yorkshire",city,"Leeds, England",United Kingdom
35620,-73.98653849,40.75989341,Leanne ,2605698602,2020-05-01 07:54:34,"Leeds, Yorkshire",city,"Manhattan, NY",United States
175,40.491156,21.450532,Shahezad Ali Mirza,2605700311,2020-05-20 06:28:29,Makkah ,poi,    ,Kingdom of Saudi Arabia
88,138.88590549999998,36.3408925,@Don't sound girl/Prank Tones,2605701734,2020-02-19 14:23:49,,city, ,
45300,-82.440795,27.960244,al,2605703437,2020-03-01 19:45:03,snap:allie.dervil,poi,Club Prana,United States
38060,-111.928546,33.418268,Prof/Dr. Christy Till,26057043,2020-02-20 23:38:37,"Tempe, AZ",poi,ASU School Of Earth & Space Exploration,United States
33,-70.15641116,-24.15841233,Kaimapo,260570488,2020-02-25 02:32:17,,city,"Antofagasta, Chile",Chile
16980,-88.43228450000002,41.776247,Gigi,2605704924,2020-02-15 15:21:02,,city,"Sugar Grove, IL",United States
8,-58.3959475,-34.996995500000004,Ramiro Romero,2605704937,2020-05-24 21:05:47,,city,"San Vicente, Argentina",Argentina
153,10.2117,59.7425,vic,2605705453,2020-03-21 19:42:44,"Drammen, Norge",city,"Drammen, Norge",Norway
178,28.24308,-26.085862,mom,2605705593,2020-04-09 23:05:10,"Johannesburg, South Africa",city,"Kempton Park, South Africa",South Africa
222,107.597131,-6.880796000000001,hasan,260570599,2020-03-03 11:33:06,Bekasi,poi,372 Kopi Setiabudi,Indonesia
22420,-83.72561,42.9944585,TJ,2605706172,2020-03-05 18:02:20,Bestfriend here,city,"Flint, MI",United States
205,-2.3807945,53.772616000000006,Jamie.,26057064,2020-02-16 18:16:30,East Lancashire ,city,"Great Harwood, England",United Kingdom
38,-74.3577265,4.8111345000000005,Elcira Lugo Acevedo,260570847,2020-02-20 15:41:31,"Madrid, Colombia",city,"Facatativ, Colombia",Colombia
37980,-75.10645600000001,40.000242,Harrison Finberg,260571026,2020-03-08 17:07:55,"Philadelphia, PA",poi,SEPTA MFL Tioga Station,United States
33100,-80.13296249999998,25.8169655,Harrison Finberg,260571026,2020-03-13 17:59:26,"Philadelphia, PA",city,"Miami Beach, FL",United States
37980,-75.117998,40.0048655,Harrison Finberg,260571026,2020-03-31 20:31:14,"Philadelphia, PA",city,"Philadelphia, PA",United States
12100,-74.3863595,39.39821600000001,Harrison Finberg,260571026,2020-04-11 20:37:41,"Philadelphia, PA",city,"Brigantine, NJ",United States
37980,-75.117998,40.0048655,Harrison Finberg,260571026,2020-04-13 19:26:50,"Philadelphia, PA",city,"Philadelphia, PA",United States
12100,-74.3863595,39.39821600000001,Harrison Finberg,260571026,2020-05-25 22:58:40,"Philadelphia, PA",city,"Brigantine, NJ",United States
37980,-75.117998,40.0048655,Harrison Finberg,260571026,2020-05-27 02:26:25,"Philadelphia, PA",city,"Philadelphia, PA",United States
12100,-74.3863595,39.39821600000001,Harrison Finberg,260571026,2020-06-02 23:54:28,"Philadelphia, PA",city,"Brigantine, NJ",United States
171,123.822974,10.286686,Enigma with a swag,2605710348,2020-06-11 13:54:19,,city,"Talisay City, Central Visayas",Republic of the Philippines
119,-102.327207,21.849459000000003,Alex Boyer~Cagliero ,260571068,2020-02-14 21:07:07,Francia,city,"Aguascalientes, Mxico",Mxico
31080,-117.62476399999998,33.436817,DazednAmused,260571100,2020-04-16 17:41:36,,city,"San Clemente, CA",United States
16700,-80.045939,32.9144245,T. Williker,260571138,2020-03-13 15:43:38,,city,"North Charleston, SC",United States
222,106.63948400000001,-6.170197,cecep.,2605711598,2020-05-24 03:29:07,,poi,Masjid Raya Al-A'zhom,Indonesia
36740,-81.3775,28.5421,DJ Rey Rivas,26057130,2020-02-17 01:34:43,"Orlando, FL",city,"Orlando, FL",United States
29460,-81.63166667,28.13333333,DJ Rey Rivas,26057130,2020-04-05 06:17:53,"Orlando, FL",city,"Haines City, FL",United States
36740,-81.3775,28.5421,DJ Rey Rivas,26057130,2020-04-14 21:00:13,"Orlando, FL",city,"Orlando, FL",United States
16980,-87.732013,41.8335845,Mourinho FC,260571457,2020-03-03 20:47:52,"Chicago, IL",city,"Chicago, IL",United States
24,-79.616073,43.555244,United FC,260571457,2020-03-11 22:32:53,"Chicago, IL",city,"Mississauga, Ontario",Canada
82,85.8648255,26.212101500000006,Kameshwar Jha,2605714600,2020-04-02 08:46:45,darbhanga,city,"Darbhanga, India",India
8,-58.390363,-34.609781,Lara,260571643,2020-02-20 01:23:04,Buenos Aires,poi,Plaza del Congreso,Argentina
120,101.705305,3.1485305, ,260571654,2020-02-14 08:46:06,sabah|johor|sarawak|kl,city,"Kuala Lumpur City, Kuala Lumpur Federal Territory",Malaysia
12060,-84.212973,33.8503965,"Nzinga Harrison, MD",260571890,2020-02-26 18:46:47,"Atlanta, GA",city,"Tucker, GA",United States
222,104.790102,-2.9594515,ecaa,2605719438,2020-02-23 05:26:38,"Palembang, sumatera selatan",city,"Ilir Timur I, Indonesia",Indonesia
82,77.5564225,13.075209,HS SHYAMACHAR,260572001,2020-03-20 14:21:41,"Bengaluru, India",city,"Bengaluru, India",India
88,132.5485325,34.3645015,Naruhisa Mizuno,2605722865,2020-05-29 22:56:36,,city, ,
21,-47.057221999999996,-22.900833,Daniel NunesFerreira,2605725139,2020-02-18 01:41:12,"Campinas, So Paulo",city,"Campinas, Brasil",Brasil
193,100.514119,13.717297,BLACK  .. ..But I still want U,260572588,2020-05-05 04:37:17,,poi, (Wat Yannawa),Thailand
21,-43.6315365,-6.565208500000002,Pedro Neto,260572603,2020-04-19 03:06:20,,city,"So Joo dos Patos, Brasil",Brasil
119,-101.220857,26.8782035,Yahis,260572621,2020-02-26 20:14:49,"Monclova, Coahuila de Zaragoza",city,"Monclova, Coahuila de Zaragoza",Mxico
16980,-87.81600597,42.17320486,ashton,260572670,2020-03-08 17:42:20,flavortown,city,"Highland Park, IL",United States
12060,-84.43310600000001,33.7671945,Dannie Erwin,260572740,2020-05-11 17:13:18,"Atlanta, GA",city,"Atlanta, GA",United States
38,-74.849933,10.958072999999999,Jose Miguel,260572764,2020-03-06 16:56:36,Barranquilla - Colombia,city,"Barranquilla, Colombia",Colombia
21,-43.441578,-22.911421500000003,R.I.P POP SMOKE ,2605728626,2020-02-23 14:14:15,complexo do dende,city,"Rio de Janeiro, Brasil",Brasil
10140,-123.819267,46.976568,mattaniah,260572927,2020-03-07 03:36:46,aberdeen wa,city,"Aberdeen, WA",United States
88,137.87861111,35.55138889,,260573088,2020-05-13 13:03:08,from  Iida  Nagano  Japan,city, ,
35620,-73.9685415,40.780709,Alec Nimaroff,260573096,2020-03-23 16:35:10,,city,"Manhattan, NY",United States
48,-69.928392,18.485775,Jose Rodrguez Djs.,260573239,2020-04-10 17:43:59,"Santo Domingo, RD.",city,"anto Domingo de Guzmn, Dominican Republic",Dominican Republic
46520,-157.799589,21.3199435,S,260573281,2020-04-17 18:41:13,,city,"Honolulu, HI",United States
200,28.954340999999996,40.226213,KOYUN KAFA,2605734872,2020-04-20 22:29:09,Meme,city,"Nilfer, Trkiye",Trkiye
35620,-73.8494415,40.8503475,Boobie ,2605736828,2020-03-08 13:51:33,"Bronx, NY",city,"Bronx, NY",United States
12420,-97.754724,30.3233455,jacob,2605738520,2020-02-14 21:01:42,,city,"Austin, TX",United States
85,13.940810999999998,42.7446095,Carolina Snchez Vega,2605738555,2020-03-15 19:09:57,"Lima, Per ",city,"Giulianova, Abruzos",Italia
171,121.16196399999998,14.036412,Ybeth Vergara,2605738746,2020-04-13 05:44:55,"Malvar, Calabarzon",poi,"Silangan, Luta Sur, Malvar, Batangas",Republic of the Philippines
25540,-72.8815725,41.5990055,Hannah Cook,260574069,2020-02-21 18:55:14,,city,"Southington, CT",United States
178,18.4890615,-34.1216575,boyzin,2605741134,2020-02-17 11:20:48,"Cape Town, South Africa ",city,"Cape Town, South Africa",South Africa
200,37.0181055,39.7483805,Melike.,2605743680,2020-02-15 14:11:04,,city,"Sivas, Trkiye",Trkiye
24,-123.934998,49.1745345,Zach Komst,260574409,2020-02-25 20:50:52,Sunnyvale Trailer park,city,"Nanaimo, British Columbia",Canada
188,32.5450035,15.5244125, ,2605744186,2020-02-14 09:11:50,Sudan,city,Khartoum,
38900,-122.678,45.62377778,Jon Pienkowski,260574450,2020-02-16 23:07:05,WA State,city,"Vancouver, WA",United States
45300,-82.53435400000002,28.483847499999996,Lightskin Scorpio ,2605744640,2020-02-14 02:52:26,"Tampa, FL",city,"Spring Hill, FL",United States
31080,-118.4119065,34.0207895,Emily Tillery,2605744801,2020-02-24 05:29:12,"New York, New York",city,"Los Angeles, CA",United States
82,75.74752099999999,26.909683,Naveen Dhupar,2605746120,2020-03-21 08:47:57,Jaipur,city,"Jaipur, India",India
120,101.65158100000001,2.926311,Sun Zul,2605746320,2020-03-14 06:24:55,,poi,Ayam Gepuk Pak Gembus,Malaysia
242,121.561476,25.085756,Jhen-Wei Wu,2605747532,2020-02-22 12:54:21,Taipei,city,", ",
200,32.8183815,39.8889765,Savas Alagok,2605747569,2020-04-07 10:06:43,,city,"Ankara, Trkiye",Trkiye
160,-77.089605,-12.079635499999998,Hans Estacio,260574778,2020-02-19 02:32:31,,city,"San Miguel, Peru",Peru
171,121.076879,14.638333,Vee,2605749000,2020-02-29 08:40:40,Quezon City,poi,Science Education Complex C,Republic of the Philippines
8,-65.2231375,-26.844098499999998,Nacherooo,260575004,2020-03-13 14:33:39,,city,"San Miguel de Tucumn, Argentina",Argentina
88,139.5795995,35.5373545,,260575053,2020-02-22 07:41:26,,city,  ,
35620,-73.98602763,40.74929635,C Ed ,2605752534,2020-03-08 13:36:53,Jersey ,city,"Manhattan, NY",United States
44140,-72.6103894,42.196465100000005,dementedfx,2605753560,2020-03-17 20:38:03,"Holyoke, MA",city,"Holyoke, MA",United States
85,13.773660199999998,45.665974799999994,Andrea,2605754392,2020-03-22 21:03:06,Trieste,city,"Trieste, Friuli-Venezia Giulia",Italia
182,13.72201047,45.60538707,Andrea,2605754392,2020-05-14 07:36:57,Trieste,city,"Muggia, Friuli-Venezia Giulia",Italia
85,13.76922406,45.68405352,Andrea,2605754392,2020-05-24 10:35:32,Trieste,city,"Trieste, Friuli-Venezia Giulia",Italia
119,-99.163354,19.356819,angie,260575523,2020-03-01 03:27:08,,poi,Teatro Centenario Coyoacn,Mxico
222,108.86581608,-6.87518486,Ahmad aig Haykal,260575529,2020-03-16 10:12:31,"Banjarmasin, Indonesia",city,"Tanjung, Indonesia",Indonesia
40060,-77.49317049999998,37.529883,Russell,260575541,2020-02-17 23:16:01,,city,"Richmond, VA",United States
14500,-105.2426865,40.02398150000001,quinn,2605756370,2020-03-04 23:05:06,"Boulder, CO",city,"Boulder, CO",United States
24300,-108.5746165,39.0917505,quinn,2605756370,2020-03-27 06:06:53,"Boulder, CO",city,"Grand Junction, CO",United States
14500,-105.2426865,40.02398150000001,quinn,2605756370,2020-04-16 16:37:06,"Boulder, CO",city,"Boulder, CO",United States
24300,-108.5746165,39.0917505,quinn,2605756370,2020-06-02 21:08:05,"Boulder, CO",city,"Grand Junction, CO",United States
120,101.690093,3.0545560000000003,Shafiq Aziz,2605756741,2020-02-26 01:52:03,,poi,Kuala Lumpur Sports City (KLSC),Malaysia
10420,-81.35043449999999,41.1602505,"christine, reflecting",260575681,2020-05-15 12:48:21,,city,"Kent, OH",United States
96,48.085758,29.275439000000002,HA.,2605756842,2020-05-30 17:52:12,,poi,Salwa Block 12,Kuwait
171,120.429267,15.62006,Rose Ibaez,2605758091,2020-02-29 12:02:44,"Tarlac City, Central Luzon",poi,"Patar White Sand, Bolinao, Pangasinan",Republic of the Philippines
119,-101.166961,25.0326315,rod,260575844,2020-02-20 06:04:04,,city,"Saltillo, Coahuila de Zaragoza",Mxico
31080,-117.918989,33.810485,Thomas MagicFest Phoenix,2605760082,2020-02-17 17:52:25,San Francisco,poi,Disneyland Park,United States
41860,-122.4231185,37.658798499999996,Thomas Dreamhack Anaheim,2605760082,2020-02-19 16:55:02,San Francisco,city,"South San Francisco, CA",United States
31080,-117.85108899999999,33.842863,Thomas Dreamhack Anaheim,2605760082,2020-02-22 07:06:07,San Francisco,city,"Anaheim, CA",United States
41860,-122.4231185,37.658798499999996,Thomas MagicFest Reno,2605760082,2020-02-24 21:32:44,San Francisco,city,"South San Francisco, CA",United States
39900,-119.79186200000001,39.486046,Thomas MagicFest Reno,2605760082,2020-03-01 22:07:47,San Francisco,poi,Reno-Sparks Convention Center,United States
41860,-122.412244,37.778493,Thomas GAMA and ECCC!,2605760082,2020-03-07 03:51:00,San Francisco,poi,City Beer Store,United States
39900,-119.80081000000001,39.497325,Thomas GAMA and ECCC!,2605760082,2020-03-11 06:27:38,San Francisco,poi,Peppermill Race and Sports Book,United States
42660,-122.3306025,47.614816999999995,Thomas GAMA and ECCC!,2605760082,2020-03-13 21:31:41,San Francisco,city,"Seattle, WA",United States
41860,-122.43597849999999,37.7706565,Thomas Playing Lots of Boards Games,2605760082,2020-03-17 17:15:50,San Francisco,city,"San Francisco, CA",United States
12060,-84.43557056,33.64058128,BOBBY V.,26057604,2020-02-14 18:15:21,INTERNATIONAL,city,"College Park, GA",United States
30780,-92.3311,34.736,BOBBY V.,26057604,2020-02-16 08:09:56,INTERNATIONAL,city,"Little Rock, AR",United States
16980,-87.88593399999999,41.980641999999996,BOBBY V.,26057604,2020-02-17 21:58:27,INTERNATIONAL,city,"Chicago, IL",United States
12060,-84.3889,33.7566,BOBBY V.,26057604,2020-02-20 18:04:25,INTERNATIONAL,city,"Atlanta, GA",United States
16980,-87.632496,41.883221999999996,BOBBY V.,26057604,2020-02-23 01:03:30,INTERNATIONAL,city,"Chicago, IL",United States
16740,-80.84333333,35.22694444,BOBBY V.,26057604,2020-02-27 19:18:14,INTERNATIONAL,city,"Charlotte, NC",United States
19820,-83.04589257,42.33708687,BOBBY V.,26057604,2020-03-01 03:55:16,INTERNATIONAL,city,"Detroit, MI",United States
12060,-84.3889,33.7566,BOBBY V.,26057604,2020-03-08 23:49:26,INTERNATIONAL,city,"Atlanta, GA",United States
47900,-77.0367,38.8951,BOBBY V.,26057604,2020-03-12 13:22:34,INTERNATIONAL,city,"Washington, DC",United States
16980,-87.632496,41.883221999999996,BOBBY V.,26057604,2020-03-14 20:27:07,INTERNATIONAL,city,"Chicago, IL",United States
9,151.12369144,-33.84755948,BOBBY V.,26057604,2020-03-20 03:42:32,INTERNATIONAL,city,"Sydney, New South Wales",Australia
12060,-84.3889,33.7566,BOBBY V.,26057604,2020-04-04 21:11:10,INTERNATIONAL,city,"Atlanta, GA",United States
19300,-87.7752965,30.875838,Sean,2605760671,2020-02-17 04:47:41,,city,"Bay Minette, AL",United States
19820,-83.131274,42.641490999999995, ,2605762123,2020-02-22 01:07:51,"Royal Oak, MI",poi,Olive Garden,United States
20180,-78.7572935,41.124484,Steven McDole,26057622,2020-03-02 23:55:57,,city,"DuBois, PA",United States
14500,-105.072231,39.9472495,nickkii,260576240,2020-02-15 19:51:24,"Broomfield, CO ",city,"Broomfield, CO",United States
33100,-80.13296249999998,25.8169655,nickkii,260576240,2020-03-13 03:01:24,"Broomfield, CO ",city,"Miami Beach, FL",United States
14500,-105.072231,39.9472495,nickkii,260576240,2020-03-18 22:58:04,"Broomfield, CO ",city,"Broomfield, CO",United States
19740,-105.06629299999999,39.890339000000004,nickkii,260576240,2020-03-25 05:22:20,"Broomfield, CO ",poi,The Westin Westminster,United States
14500,-105.192784,40.0692485,nickkii,260576240,2020-03-25 18:12:33,"Broomfield, CO ",city,"Gunbarrel, CO",United States
19740,-104.847044,39.386794,nickkii,260576240,2020-03-26 13:10:10,"Broomfield, CO ",city,"Castle Rock, CO",United States
14500,-105.192784,40.0692485,nickkii,260576240,2020-03-26 22:02:12,"Broomfield, CO ",city,"Gunbarrel, CO",United States
19740,-104.88665149999999,39.536705,nickkii,260576240,2020-03-30 14:35:04,"Broomfield, CO ",city,"Lone Tree, CO",United States
14500,-105.192784,40.0692485,nickkii,260576240,2020-04-01 18:05:03,"Broomfield, CO ",city,"Gunbarrel, CO",United States
119,-92.9167,17.9833,PepeBriceo,260576263,2020-02-28 00:56:56,,city,"Centro, Tabasco",Mxico
96,47.959307,29.340185499999997,  *.,2605762891,2020-02-14 06:54:44,"Kifan, Kuwait",city,"Kifan, Kuwait",Kuwait
26900,-85.93180600000001,39.9826,Tyler Bradfield,260576318,2020-05-29 01:25:50,"Indianapolis, IN",poi,The District At Saxony,United States
12060,-84.2606725,33.7528875,Eric Smith,260576356,2020-02-25 14:04:01,Dekalb Preparatory Academy ,city,"Belvedere Park, GA",United States
21,-38.397988,-12.918625,_,2605763815,2020-04-14 21:02:03,"Salvador, Brasil",poi,Salvador - Bahia,Brasil
96,47.992792,29.2678,,2605764014,2020-02-15 11:49:22,,poi,360 Mall, 
19100,-97.2859135,32.7799665,Leslie Silva,26057671,2020-02-18 08:29:17,DeeEffDubb ,city,"Fort Worth, TX",United States
35380,-90.06623225,29.95326733,Leslie Silva,26057671,2020-02-29 02:45:31,DeeEffDubb ,city,"New Orleans, LA",United States
19100,-96.7977,32.7774,Leslie Silva,26057671,2020-03-29 03:17:01,DeeEffDubb ,city,"Dallas, TX",United States
120,101.552669,3.0512200000000003,AmirulAniq,2605767205,2020-03-21 11:19:07,,city,"Damansara, Selangor",Malaysia
222,112.61145049999999,-7.348292000000002,Lucia Melisa Putri N,260576790,2020-04-27 07:17:14,"Kota Surabaya, Jawa Timur",city,"Driyorejo, Indonesia",Indonesia
24,-84.5,46.8833,Verlyn Robinson-Edga,2605768185,2020-03-28 17:20:47,Batchawana Bay Ontario,city,"Algoma, Unorganized, North Part, Ontario",Canada
65,2.59122,48.87809,RJB.,2605768229,2020-04-16 16:46:14,"Paris, France",city,"Chelles, France",France
31080,-118.4119065,34.0207895,tinyjag,2605768387,2020-02-21 02:38:04,"Detroit, MI",city,"Los Angeles, CA",United States
21,-47.845040000000004,-24.49488,Sr. Violonstico,2605768915,2020-02-29 23:06:11,olar,city,"Registro, Brasil",Brasil
44260,-88.82,33.4625,Travis Noto,2605771532,2020-03-27 19:32:04,,city,"Starkville, MS",United States
31080,-117.815428,34.000937,William R Ortiz Jr,260577155,2020-02-15 03:14:13,,city,"Diamond Bar, CA",United States
40140,-117.72176100000001,33.9725155,William R Ortiz Jr,260577155,2020-02-19 02:10:24,,city,"Chino Hills, CA",United States
31080,-117.815428,34.000937,William R Ortiz Jr,260577155,2020-02-20 06:19:34,,city,"Diamond Bar, CA",United States
24,-114.087851,51.027664,shannonyac,260577299,2020-02-15 20:31:30,"Calgary, Alberta",city,"Calgary, Alberta",Canada
35380,-90.108205,29.8372455,donna,2605774730,2020-03-04 06:35:52,United States,city,"Estelle, LA",United States
31080,-118.405602,33.943324,LATVPHOTOG,2605774880,2020-03-07 06:32:52,Los Angeles ,poi,Los Angeles International Airport (LAX),United States
37100,-119.2289915,34.289689499999994,LATVPHOTOG,2605774880,2020-05-23 01:29:08,Los Angeles ,city,"Ventura, CA",United States
31080,-118.4119065,34.0207895,LATVPHOTOG,2605774880,2020-05-27 22:44:33,Los Angeles ,city,"Los Angeles, CA",United States
205,-1.216432,54.67899,Caroline Firth,26057764,2020-03-23 17:52:53,"Hartlepool, England",city,"Hartlepool, England",United Kingdom
205,-0.30440808,51.3758312,jo rose,26057765,2020-02-27 19:28:43,Surbiton Surrey UK,city,"Kingston upon Thames, London",United Kingdom
82,75.89291300000001,30.794095000000002,Shubhamm,2605777068,2020-03-23 12:32:38,,city,"Ludhiana, India",India
18140,-82.9928,39.9419,Sarah Pomeroy,260577730,2020-02-17 20:57:37,"Columbus, OH",city,"Columbus, OH",United States
28140,-94.3782315,38.916093,Rob Trainor    ,260577767,2020-02-16 19:29:01,Here,city,"Lee's Summit, MO",United States
205,-2.23348,53.4569525,Serious Feather,26057787,2020-03-09 12:39:25,"Manchester, UK",city,"Manchester, England",United Kingdom
38,-75.8833,8.75,silvia hoyos causil,2605778714,2020-02-16 03:30:50,Montera ,city,"Montera, Colombia",Colombia
222,110.355636,-7.2961149999999995,,260578252,2020-03-15 15:24:10,MGL-SRG,city,"Jambu, Indonesia",Indonesia
193,100.5214065,13.7872815, ,260578360,2020-02-23 11:47:13,"Mukdahan,Thailand",city,"Thanon Nakhon Chai Si, Thailand",Thailand
100,24.1286565,56.971492500000004,Egils Turks,26057839,2020-02-14 10:11:27,"Riga, Latvia",city,"Riga, Latvia",Latvia
88,139.7091805,35.701657,,2605784977,2020-03-13 08:48:02,,city, ,
151,3.3180660000000004,6.590611,Royzee,2605785686,2020-04-19 09:46:04,"Ikeja, Nigeria",city,"Ikeja, Nigeria",Nigeria
17460,-81.705467,41.49593950000001,Todd Hardoby II,260578630,2020-02-14 13:11:10,,city,"Cleveland, OH",United States
82,84.13841,22.88756,ANMOL LAKRA,2605787318,2020-04-22 16:19:37,Jashpur Chhattisgarh,city,"Jashpur, India",India
88,135.48163899999997,34.858789,.,2605788601,2020-02-14 08:51:07, ,city, ,
22060,-93.16425749999999,44.4497475,Sarah A. Bowles,26057891,2020-04-09 14:57:13,,city,"Northfield, MN",United States
33460,-93.51919207,44.87765357,Sarah A. Bowles,26057891,2020-06-08 21:38:11,,city,"Eden Prairie, MN",United States
21,-48.45979749999999,-1.2729295,Senhorita_i,260578937,2020-02-14 02:04:43,Belm-PA,city,"Belm, Brasil",Brasil
205,-0.3506925,51.461742,Adam Shailes,2605789736,2020-02-25 21:20:18,"Brentford and Ealing, London",city,"Hounslow, London",United Kingdom
88,139.6634575,35.929048,Sophie,260579227,2020-02-16 06:42:47,,city, ,
175,46.62491934,24.67517721,Lt,2605793622,2020-03-03 16:47:03,ksa,city,",   ",  
175,48.811737,27.888464000000003,Yahia Telmisany ,2605794188,2020-04-10 21:36:49,Eastern,poi,,Kingdom of Saudi Arabia
205,-2.0911695000000003,52.152915500000006,Oldbury Park Primary RSA Academy,2605794327,2020-05-12 08:33:07,"Worcester, England",city,"Peopleton, England",United Kingdom
8,-58.4397,-34.6089,Vir Sammartino,260579512,2020-04-17 01:56:19,Buenos Aires,city,"Ciudad Autnoma de Buenos Aires, Argentina",Argentina
160,-78.95769973,-8.08885013,Vir Sammartino,260579512,2020-04-21 22:07:26,Buenos Aires,city,"Laredo, Peru",Peru
222,107.62469499999999,-2.7411779999999997,JANE,260579530,2020-02-21 11:56:29,"Bandung, Jawa Barat, Indonesia",poi,Pantai Tanjung Pendam,Indonesia
41740,-117.10498899999999,32.810012,Susie,2605795560,2020-02-14 18:18:21,"Hillcrest, San Diego",city,"San Diego, CA",United States
119,-115.57987849999999,30.156488500000002,Susie,2605795560,2020-03-08 05:20:09,"Hillcrest, San Diego",city,"Ensenada, Baja California",Mexico
41740,-117.10498899999999,32.810012,Susie,2605795560,2020-03-09 14:22:10,"Hillcrest, San Diego",city,"San Diego, CA",United States
47260,-76.535528,36.810016499999996,IG: King_ofmy_Era,260579695,2020-02-14 20:45:56,"Suffolk, VA",city,"Suffolk, VA",United States
120,101.389219,3.223504,Fadhil Zonis,2605797252,2020-03-19 11:36:44,"Parkville, Melbourne",city,"Ujong Permatang, Selangor",Malaysia
186,2.1412275000000003,41.392657,Parapent ,26057989,2020-03-14 22:10:21,"Poblenou, Barcelona, Catalunya",city,"Barcelona, Espanya",Espanya
160,-79.83859457,-6.77117989,yonathan onofre,2605800582,2020-04-27 02:46:22,"Miraflores, Peru",city,"Chiclayo, Peru",Peru
13300,-97.751377,28.4099495,hensly,2605801506,2020-05-30 23:09:57,,city,"Beeville, TX",United States
26420,-95.35597800000001,29.749717999999998,Dough,260580172,2020-02-23 21:04:29,Dawg Country 30311,poi,Truck Yard,United States
12060,-84.475291,33.657586,Dough,260580172,2020-03-02 14:35:13,Dawg Country 30311,city,"East Point, GA",United States
31080,-118.4119065,34.0207895,Dough,260580172,2020-03-09 12:18:31,Dawg Country 30311,city,"Los Angeles, CA",United States
113,-6.6665470000000004,34.0981015,  ,2605804274,2020-03-18 23:27:49,  ,city,"Sidi Bouknadel, Royaume du Maroc", 
178,28.24308,-26.085862,Ian,26058047,2020-02-15 10:00:11,South Africa,city,"Kempton Park, South Africa",South Africa
29820,-115.16147099999999,36.153769,katrina,260580525,2020-03-11 18:21:53,"Las Vegas, NV",poi,Little Darlings Totally Nude 18+,United States
171,121.6264105,13.940447500000001,Syndy,260580590,2020-05-22 06:29:51,PH.,city,"Lucena City, Calabarzon",Republic of the Philippines
222,104.4551355,0.8999440000000001,muhammad ridwan,2605806048,2020-02-19 23:11:40,"Tanjung Pinang City, Indonesia",city,"Teluk Bintan, Indonesia",Indonesia
18140,-82.93154,40.12577,S. Lamont Brown,260580660,2020-03-26 06:21:22,"Columbus, OH",city,"Westerville, OH",United States
71,9.690259,53.17769200000001,chanel13_,26058071,2020-05-13 08:32:24,Germany,city,"Fintel, Deutschland",Germany
47900,-77.22082178,38.91464104,Sirius Bags,2605807220,2020-02-17 16:24:25,Somewhere You're Not,city,"Tysons Corner, VA",United States
12580,-76.7,39.0,Sirius Bags,2605807220,2020-02-22 00:39:28,Somewhere You're Not,city,"Crofton, MD",United States
47900,-77.40968574,39.41624596,Sirius Bags,2605807220,2020-02-24 15:57:33,Somewhere You're Not,city,"Frederick, MD",United States
12580,-76.7,39.0,Sirius Bags,2605807220,2020-04-06 16:06:30,Somewhere You're Not,city,"Crofton, MD",United States
47900,-77.01955395,38.89981442,Sirius Bags,2605807220,2020-04-08 20:05:53,Somewhere You're Not,city,"Washington, DC",United States
12580,-76.7,39.0,Sirius Bags,2605807220,2020-04-09 19:08:11,Somewhere You're Not,city,"Crofton, MD",United States
47900,-77.4204,39.4263,Sirius Bags,2605807220,2020-05-26 02:49:26,Somewhere You're Not,city,"Frederick, MD",United States
12580,-76.7,39.0,Sirius Bags,2605807220,2020-05-30 22:13:00,Somewhere You're Not,city,"Crofton, MD",United States
8,-68.330422,-34.6204205,julieta,2605807429,2020-02-16 23:05:37,"San Rafael, Argentina",city,"San Rafael, Argentina",Argentina
88,140.084546,36.092128,Sayed Hamid Fazly,2605807793,2020-02-17 17:58:53,"Ibaraki-ken, Japan",city,"Tsukuba-shi, Ibaraki",Japan
14460,-71.103227,42.337234,J-C Blisle-Pipon,2605810838,2020-02-27 17:39:58,"Cambridge, MA",poi,Harvard Medical School,Etats-Unis
24,-73.723025,45.5578305,J-C Blisle-Pipon,2605810838,2020-03-21 13:36:57,"Cambridge, MA",city,"Montral, Qubec",Canada
119,-98.1542665,19.0322295,Jalillah Bd,260581126,2020-02-16 15:53:22,"PUEBLA, MEXICO",city,"Puebla, Mxico",Mxico
162,16.9062755,52.3994955,Jalillah Bd,260581126,2020-03-09 08:38:11,"PUEBLA, MEXICO",city,"Poznan, Polonia",Polonia
152,6.0015730000000005,51.208966499999995,Jalillah Bd,260581126,2020-03-21 14:58:14,"PUEBLA, MEXICO",city,"Roermond, Nederland",Holanda
71,7.7869765,51.3649,Jalillah Bd,260581126,2020-03-21 22:35:47,"PUEBLA, MEXICO",city,"Hemer, Deutschland",Alemania
152,6.0015730000000005,51.208966499999995,Jalillah Bd,260581126,2020-04-27 12:00:59,"PUEBLA, MEXICO",city,"Roermond, Nederland",Holanda
161,74.323543,31.583216999999998,Roheena,2605811960,2020-05-09 09:19:55,  ,poi,Wazir Khan Masjid   ,Pakistan
175,42.63672250000001,16.902668,s3ud_90,2605814306,2020-02-18 21:50:14,",   ",city,",   ",  
16980,-88.03426999999999,41.904938,STELLAR WEST,2605814725,2020-02-29 22:36:30,"Naperville, IL",poi,Brauerhouse Bar & Grill,United States
119,-99.15234,19.328383,Tovarich,260581500,2020-03-16 18:48:50,,city,"Coyoacn, Distrito Federal",Mxico
40060,-77.49317049999998,37.529883,Weezy,260581587,2020-02-14 01:12:24,"District of Columbia, USA",city,"Richmond, VA",United States
47900,-77.12025249999998,39.043469,Weezy,260581587,2020-02-15 22:24:57,"District of Columbia, USA",city,"North Bethesda, MD",United States
49620,-76.7964465,40.1574435,Robert Morris,260581593,2020-05-13 06:59:07,"Pennsylvania, USA",city,"Valley Green, PA",United States
34980,-86.70600999999998,36.3334125,Tyler Greenman,260581627,2020-02-24 09:05:31,No tellin,city,"Goodlettsville, TN",United States
200,26.4096465,40.131109499999994,asl,2605816606,2020-03-05 15:39:57,intikam,city,"anakkale, Trkiye",Trkiye
82,76.257509,20.3450985,Adv Vijay Kothari,2605818121,2020-03-22 11:45:28,"Chikhli, India",city,"Chikhli, India",India
175,40.4908105,21.38543,MA.,2605818204,2020-02-14 13:48:41,Jeddah. ,city,",   ",  
21,-49.2884605,-25.4952495,ADEMAR JUNIOR ,26058191,2020-03-29 11:51:16,"Curitiba, Brasil",city,"Curitiba, Brasil",Brasil
205,-0.1815875,51.3618975,Em ,26058204,2020-02-18 22:00:56,Somewhere,city,"Sutton, London",United Kingdom
82,92.4557815,24.738812,Lalvohbika R Darkim,2605820984,2020-03-23 10:09:00,"Aizawl, India",city,"Aizawl, India",India
31080,-118.4119065,34.0207895,sona ,2605821116,2020-03-15 22:34:04,,city,"Los Angeles, CA",United States
19740,-104.9220935,39.713563,sona,2605821116,2020-03-19 16:49:10,,city,"Denver, CO",United States
12060,-84.368787,33.844867,sona,2605821116,2020-05-09 01:22:07,,poi,Ruth's Chris Steak House - Buckhead Atlanta,
19740,-104.9220935,39.713563,sona,2605821116,2020-05-18 03:28:21,,city,"Denver, CO",United States
12060,-84.336742,33.572593,sona ,2605821116,2020-05-29 17:00:41,,poi,UEI - Morrow,United States
10420,-81.552273,41.3175885,Brian Dossa,260582115,2020-02-15 15:03:36,"Cleveland, OH",city,"Sagamore Hills, OH",United States
17460,-81.6314405,41.385772499999995,Brian Dossa,260582115,2020-02-28 21:32:08,"Cleveland, OH",city,"Independence, OH",United States
10420,-81.552273,41.3175885,Brian Dossa,260582115,2020-02-29 08:38:47,"Cleveland, OH",city,"Sagamore Hills, OH",United States
18140,-82.985772,39.9946835,Brian Dossa,260582115,2020-03-01 05:56:00,"Cleveland, OH",city,"Columbus, OH",United States
17460,-81.705467,41.49593950000001,Brian Dossa,260582115,2020-03-03 01:30:07,"Cleveland, OH",city,"Cleveland, OH",United States
10420,-81.552273,41.3175885,Brian Dossa,260582115,2020-03-04 12:28:19,"Cleveland, OH",city,"Sagamore Hills, OH",United States
21,-43.369873,-22.779776000000002,LEY ,2605821787,2020-02-20 02:02:31,"Rio de Janeiro, Brasil",poi,O Braseiro Burger,Brasil
82,77.095086,28.638489500000002,wasim khan,260582330,2020-03-07 04:32:50,,city,"New Delhi, India",India
41740,-117.10498899999999,32.810012,charles schnell,2605823335,2020-03-03 00:28:20,"Bay Park, San Diego",city,"San Diego, CA",United States
205,-3.17086,53.3801355,Whitby Heath Primary,2605823377,2020-03-02 22:37:59,"Ellesmere Port, Cheshire",city,"Hoylake, England",United Kingdom
9,145.0531355,-37.9725665,Tim Stillman,260582355,2020-02-20 08:04:49,"Melbourne, Australia",city,"Melbourne, Victoria",Australia
175,49.9945455,26.353591499999997,,2605825549,2020-04-13 08:46:47,,city,",   ",  
12580,-76.746089,39.326988,Chris Little,260582598,2020-03-04 14:20:58,"Baltimore, MD",poi,"STV, Incorporated",United States
119,-99.13449,19.430277,pyroflux developer,26058261,2020-03-06 00:58:31,,poi,Casa Pepe,Mexico
41940,-121.8737305,37.331159,RELLI.,2605827809,2020-04-16 03:19:47,"San Jose, CA",city,"San Jose, CA",United States
8,-58.442643,-34.604315,Juancho ,260582874,2020-02-14 14:51:02,,city,"Ciudad Autnoma de Buenos Aires, Argentina",Argentina
82,77.194529,28.647748999999997,Tony Bike Centre,260582959,2020-02-16 09:10:05,"New Delhi, India",city,"New Delhi, India",India
152,4.904053500000001,52.354728,Tom,26058298,2020-02-15 23:22:02,"Amsterdam, The Netherlands",city,"Amsterdam, The Netherlands",The Netherlands
41180,-90.2658225,38.72161800000001,Michael A. Smith,260583006,2020-03-06 02:31:23,,city,"Jennings, MO",United States
21,-44.26259067,-2.48494114,negreiros,2605831567,2020-05-18 01:39:04,,city,"So Lus, Brasil",Brasil
16980,-87.875045,42.2401645,Rachel Abel,260583170,2020-02-14 18:04:53,"Chicago, IL",city,"Lake Forest, IL",United States
178,27.938714500000003,-26.625156,Itumeleng Geraldine,2605831727,2020-02-21 14:09:40,"Boksburg, South Africa",city,"Vereeniging, South Africa",South Africa
41940,-121.967821,37.370990000000006,Adam,26058342,2020-04-18 02:59:03,"California, USA",city,"Santa Clara, CA",United States
31080,-118.399639,34.083006999999995,Jeff Runyan,260583432,2020-02-27 17:36:33,"Malibu, CA",neighborhood,"Beverly Hills, CA",United States
82,80.09330299999998,17.187561499999997,DEADPOOL BABU  ,2605834604,2020-02-14 17:42:38,"Hyderabad, India",city,"Khammam, India",India
175,39.939926,21.331875,BA,2605834736,2020-02-25 08:09:13,,poi,UQU Faculty of Pharmacy (      ),  
19100,-96.7617535,32.819858499999995,,2605835052,2020-02-21 05:23:45,United States,city,"Dallas, TX",United States
42340,-81.1096165,32.017284499999995,Greg Talbott,260583587,2020-02-14 04:31:55,"Savannah, GA",city,"Savannah, GA",United States
44340,-81.8005785,32.440510499999995,Greg Talbott,260583587,2020-02-15 22:44:55,"Savannah, GA",city,"Statesboro, GA",United States
42340,-81.1096165,32.017284499999995,Greg Talbott,260583587,2020-02-16 06:38:05,"Savannah, GA",city,"Savannah, GA",United States
25940,-80.91805,32.2568125,Greg Talbott,260583587,2020-02-24 22:39:45,"Savannah, GA",city,"Bluffton, SC",United States
42340,-81.1096165,32.017284499999995,Greg Talbott,260583587,2020-02-25 00:28:12,"Savannah, GA",city,"Savannah, GA",United States
44340,-81.8005785,32.440510499999995,Greg Talbott,260583587,2020-03-03 18:33:33,"Savannah, GA",city,"Statesboro, GA",United States
42340,-81.1096165,32.017284499999995,Greg Talbott,260583587,2020-03-03 23:52:06,"Savannah, GA",city,"Savannah, GA",United States
31420,-83.619175,32.842853999999996,Greg Talbott,260583587,2020-03-05 20:37:05,"Savannah, GA",poi,Macon Centreplex Coliseum and Convention Center,United States
42340,-81.1096165,32.017284499999995,Greg Talbott,260583587,2020-03-06 16:22:43,"Savannah, GA",city,"Savannah, GA",United States
44340,-81.783171,32.412212,Greg Talbott,260583587,2020-03-09 17:51:38,"Savannah, GA",poi,Paulson Stadium,United States
42340,-81.1096165,32.017284499999995,Greg Talbott,260583587,2020-03-10 15:53:07,"Savannah, GA",city,"Savannah, GA",United States
16700,-80.045939,32.9144245,Greg Talbott,260583587,2020-03-21 20:00:14,"Savannah, GA",city,"North Charleston, SC",United States
42340,-81.1096165,32.017284499999995,Greg Talbott,260583587,2020-03-21 23:09:12,"Savannah, GA",city,"Savannah, GA",United States
44340,-81.8005785,32.440510499999995,Greg Talbott,260583587,2020-03-24 17:43:36,"Savannah, GA",city,"Statesboro, GA",United States
42340,-81.1096165,32.017284499999995,Greg Talbott,260583587,2020-03-24 22:07:09,"Savannah, GA",city,"Savannah, GA",United States
25940,-80.91805,32.2568125,Greg Talbott,260583587,2020-05-10 20:15:31,"Savannah, GA",city,"Bluffton, SC",United States
42340,-81.01516550000001,32.034645000000005,Greg Talbott,260583587,2020-05-11 19:40:12,"Savannah, GA",city,"Whitemarsh Island, GA",United States
25940,-80.748747,32.1898025,Greg Talbott,260583587,2020-05-16 18:52:24,"Savannah, GA",city,"Hilton Head Island, SC",United States
42340,-81.1096165,32.017284499999995,Greg Talbott,260583587,2020-05-16 22:59:31,"Savannah, GA",city,"Savannah, GA",United States
25940,-80.91805,32.2568125,Greg Talbott,260583587,2020-05-18 22:21:29,"Savannah, GA",city,"Bluffton, SC",United States
42340,-81.1096165,32.017284499999995,Greg Talbott,260583587,2020-05-19 01:20:23,"Savannah, GA",city,"Savannah, GA",United States
25940,-80.748747,32.1898025,Greg Talbott,260583587,2020-05-23 18:42:17,"Savannah, GA",city,"Hilton Head Island, SC",United States
42340,-81.01516550000001,32.034645000000005,Greg Talbott,260583587,2020-05-23 23:25:23,"Savannah, GA",city,"Whitemarsh Island, GA",United States
88,134.5448485,34.191466999999996,,260583626,2020-02-23 02:38:16,,city, ,
21,-46.71777778,-23.52805556,Z Coelho Sincero,26058364,2020-05-07 11:33:46,"-23.288897,-49.00998",city,"Sao Paulo, Brazil",Brazil
24,-113.49261750000001,53.5558195,Bobbie~Ann Craig,260583726,2020-02-25 14:19:18,"Alberta, Canada",city,"Edmonton, Alberta",Canada
82,72.87424399999999,19.174139999999998,Indian   | ,260583829,2020-02-22 02:50:02,"Mumbai, India",city,"Mumbai, India",India
89,-77.913306,18.44039,QUEEN,260583881,2020-04-06 17:43:37,Jamaica,poi,Meadows Of Irwin,Jamaica
21,-46.5955455,-23.682803,Patrick Yuki Sugahar,2605839618,2020-02-16 04:13:04,Mogi das Cruzes,city,"So Paulo, Brasil",Brasil
88,135.77728603,34.9948955,,2605839943,2020-06-06 18:42:47,,city,  ,
19820,-82.94371445,42.44540728,TopHat,26058402,2020-02-19 20:15:02,ChiTroit,city,"Harper Woods, MI",United States
12580,-76.54701961,39.28004459,TopHat,26058402,2020-03-06 13:23:07,ChiTroit,city,"Baltimore, MD",United States
17460,-81.6937,41.4996,TopHat,26058402,2020-04-02 19:48:56,ChiTroit,city,"Cleveland, OH",United States
82,75.57065,31.30159,TopHat,26058402,2020-04-16 22:20:48,ChiTroit,city,"Jalandhar, India",India
49,-80.091193,-2.512995,Alberto Pazmio,260584195,2020-02-19 21:25:47,"Babahoyo, Ecuador",city,"Guayaquil, Ecuador",Ecuador
35620,-73.667436,41.0062425,J,260584258,2020-05-11 21:40:04, ,city,"Port Chester, NY",United States
21,-43.441578,-22.911421500000003,EH,260584560,2020-02-15 07:30:47,"Jacarezinho, Brasil",city,"Rio de Janeiro, Brasil",Brasil
31080,-118.4119065,34.0207895,winners WINN,260584673,2020-02-17 20:54:58,"Los Angeles, CA",city,"Los Angeles, CA",United States
82,75.89291300000001,30.794095000000002,Mohinder Jeet Singh,2605847304,2020-02-15 02:37:55,Ludhiana ,city,"Ludhiana, India",India
200,27.036828000000003,38.387443,frat,2605847962,2020-03-12 13:35:22,"Balova, zmir",poi,Balova Baraj Yolu,Trkiye
41940,-121.8737305,37.331159,2$,260584819,2020-02-16 00:09:04,7 REES,city,"San Jose, CA",United States
222,106.783258,-6.239886,iyoo,2605848589,2020-02-14 15:10:55,Bekasi - Matraman,poi,Halfway Jakarta,Indonesia
19820,-83.49998049999998,42.570558,Danielle,2605848734,2020-02-14 03:03:07,,city,"Commerce, MI",United States
21,-54.26173703,-28.30550208,leticia ma,2605849844,2020-03-08 04:05:03,Balnerio Cambori,city,"Santo ngelo, Brasil",Brasil
49700,-121.66186950000001,39.2735895,selso ,2605852026,2020-05-08 01:23:44,"Gridley, CA",city,"Live Oak, CA",United States
42660,-122.3392868,47.6156961,Jenn Godwin,260585412,2020-02-17 22:50:59,"Seattle, WA",city,"Seattle, WA",United States
26900,-85.9500505,39.96376100000001,Brian Johnson,26058549,2020-04-03 03:28:52,Fishers,city,"Fishers, IN",United States
41740,-116.98492659,32.62790768,Junior Cesena (Diego),2605856250,2020-03-20 08:48:10,Chula Vista ,city,"Chula Vista, CA",United States
57,12.9815625,46.6620635,Somertijd vrienden,2605857661,2020-02-18 16:44:16,online,city,"Ktschach-Mauthen, sterreich",Oostenrijk
88,141.36126299999998,43.1001895,,2605857710,2020-02-16 21:03:45,,city,  ,
65,3.0448125,50.698275,Hache Myriam-annie,2605858017,2020-03-15 06:58:08,"Lille, Nord-Pas-de-Calais",city,"Wambrechies, France",France
19100,-96.835249,33.1501395,Alan  Blair,26058584,2020-02-21 08:53:16,"carrollton,tx",city,"Frisco, TX",United States
21,-46.5955455,-23.682803,NiX,260586154,2020-05-05 01:04:43,"Sao Paulo, Brazil",city,"Sao Paulo, Brazil",Brazil
171,121.037,14.6439,E L O I S A ,2605862898,2020-02-14 09:17:42,"National Capital Region, Repub",city,"Quezon City, National Capital Region",Republic of the Philippines
88,139.77,35.68,,26058650,2020-03-14 06:03:53,Japan / Vietnam,city, ,
38,-75.1845072,4.4426016,JOSE T sexorgi,2605865275,2020-02-22 03:58:35,,city,"Ibagu, Colombia",Colombia
119,-99.310428,19.473794,Pit Garca,260586687,2020-03-19 23:28:18,mexico d.f.,city,"Naucalpan de Jurez, Mxico",Mxico
28140,-94.58319,39.09296,Chester Gregg,26058674,2020-02-25 22:22:42,"Kansas City, MO",city,"Kansas City, MO",United States
91,35.2740035,0.5085675000000001,Tagi Paul,2605867418,2020-04-28 18:52:26,"Nairobi, Kenya",city,"Eldoret, Kenya",Kenya
24,-104.64089399999999,50.455135999999996,Cheryl,2605868634,2020-02-16 03:25:41,,city,"Regina, Saskatchewan",Canada
39300,-71.437487,41.845773,Joseph Zucker,260586898,2020-02-29 01:02:40,"North Providence, RI",poi,Providence College Alumni Hall,United States
32020,-83.12786949999999,40.5837275,Joseph Zucker,260586898,2020-06-08 17:07:26,"North Providence, RI",city,"Marion, OH",United States
33660,-88.16155549999998,30.683649,George Davis,260587228,2020-05-06 22:42:53,My location is more words.,city,"Mobile, AL",United States
12580,-76.61399999999999,39.2944,Jose Francisco,260587318,2020-06-02 10:51:51,,city,"Baltimore, MD",United States
31080,-118.4119065,34.0207895,Daniella Soofer,260587354,2020-05-30 20:15:00,LA/Berkeley CA,city,"Los Angeles, CA",United States
88,136.79075999999998,35.310094,masuda,260587363,2020-06-07 13:42:22, ,city,"Ichinomiya-shi, Aichi",Japan
45220,-84.26617399999999,30.4762155,THEChanceDaniels,260587428,2020-02-22 03:07:13,Tallahassee,city,"Tallahassee, FL",United States
24,-71.95553249999999,45.412629,Jaime Damak,26058752,2020-04-19 11:14:33,"Sherbrooke, Quebec",city,"Sherbrooke, Qubec",Canada
38900,-122.630908,45.536402,.....bruce brian,260587674,2020-02-20 03:01:59,"Oklahoma, USA",city,"Portland, OR",United States
41860,-122.43597849999999,37.7706565,.....bruce brian,260587674,2020-02-26 17:16:36,"Oklahoma, USA",city,"San Francisco, CA",United States
39820,-122.36005300000001,40.5539945,.....bruce brian,260587674,2020-02-28 17:28:01,"Oklahoma, USA",city,"Redding, CA",United States
38900,-122.630908,45.536402,.....bruce brian,260587674,2020-02-29 04:29:46,"Oklahoma, USA",city,"Portland, OR",United States
46140,-95.913642,36.1093915,.....bruce brian,260587674,2020-03-04 20:24:30,"Oklahoma, USA",city,"Tulsa, OK",United States
39740,-75.9250215,40.3341185,Rachel,2605876855,2020-03-11 14:10:54,,city,"Reading, PA",United States
37980,-75.34440699999998,40.43968649999999,Rachel,2605876855,2020-05-03 14:30:18,,city,"Quakertown, PA",United States
41860,-122.19732353,37.76599974,Liu_Will59,260587724,2020-02-17 05:08:11,I be everywhere,city,"Oakland, CA",United States
29820,-115.17532386,36.09585915,Liu_Will59,260587724,2020-03-01 05:13:01,I be everywhere,city,"Paradise, NV",United States
41860,-122.19239295,37.76770055,Liu_Will59,260587724,2020-03-02 13:18:22,I be everywhere,city,"Oakland, CA",United States
42020,-120.648,35.1483,Liu_Will59,260587724,2020-03-07 17:15:02,I be everywhere,city,"Pismo Beach, CA",United States
41860,-122.19732353,37.76599974,Liu_Will59,260587724,2020-03-13 04:22:30,I be everywhere,city,"Oakland, CA",United States
44700,-121.287,37.9574,Liu_Will59,260587724,2020-03-15 02:16:43,I be everywhere,city,"Stockton, CA",United States
41860,-122.19732353,37.76599974,Liu_Will59,260587724,2020-03-15 16:06:42,I be everywhere,city,"Oakland, CA",United States
38,-73.92732149999999,11.0734625,Ma Claudia Bustillo,260587802,2020-02-16 22:08:18,"Cartagena, Colombia",city,"Santa Marta, Colombia",Colombia
33,-70.652271,-33.41836,Christian Iglesias Parra,2605879201,2020-04-02 15:26:33,"Santiago, Chile",poi,Instituto Nacional del Cncer,Chile
42660,-122.38757531,47.31605835,Evas Books blogs and More,26058802,2020-03-07 04:35:42,"Seattle, WA",city,"Federal Way, WA",United States
29820,-115.03833700000001,36.006256,mtrieu51,260588112,2020-02-24 06:45:57,,city,"Henderson, NV",United States
12060,-84.1511495,33.4424245,Keona G ,2605881428,2020-05-15 21:18:46,Home bitch,city,"McDonough, GA",United States
40380,-77.6885355,43.2514515,Nelle McG,260588245,2020-05-13 23:03:50,"Rochester, NY",city,"Greece, NY",United States
44340,-81.8005785,32.440510499999995, Mel Vega ,260588358,2020-05-17 13:47:59,The Land Before Fucks ,city,"Statesboro, GA",United States
26420,-95.4464865,29.838495,Luuuara,260588632,2020-02-24 07:24:19,"The Woodlands, TX",city,"Houston, TX",United States
31080,-117.91893393,33.812437200000005,Luuuara,260588632,2020-03-09 21:02:26,"The Woodlands, TX",city,"Anaheim, CA",United States
95,127.00281299999999,37.30207,,260588689,2020-05-18 23:18:05,   914-24,poi,cafe Daoom,
222,106.572308,-6.1528089999999995,RIZKY YUDHISTIR,260588714,2020-03-27 16:52:12,#Sayapyudhistira,poi,Perumahan Kuta bumi,Indonesia
24,-82.34337049999998,43.036842,chuck orae,260588792,2020-04-04 17:38:58,,city,"Sarnia, Ontario",Canada
205,-1.385366,54.89924250000001,Carl ,2605888596,2020-02-16 05:20:41,Sunderland,city,"Sunderland, England",United Kingdom
38900,-122.1158,45.576103,jas,2605889606,2020-02-26 16:37:49,"California, USA ",poi,Multnomah Falls,United States
41740,-117.21111,32.740176,jas,2605889606,2020-03-21 22:05:33,"California, USA ",poi,Liberty Public Market,United States
45620,-83.95952650000002,30.8626945,b,2605889641,2020-02-21 03:41:10,"Smiths, AL",city,"Thomasville, GA",United States
12220,-85.08841699999998,32.524128000000005,b,2605889641,2020-04-12 04:27:36,"Smiths, AL",city,"Smiths, AL",United States
29660,-104.9537095,42.052615,LO,260589120,2020-03-24 05:34:52,WYOMING,city,"Wheatland, WY",United States
38300,-79.6493965,40.44276,Nicole,26058941,2020-02-24 15:43:38,"Municipality of Murrysville, PA",city,"Municipality of Murrysville, PA",United States
29700,-99.2363,28.4341,STILL DRIPPIN,260589756,2020-04-02 17:40:49,STILL DRIPPIN,city,"Cotulla, TX",United States
41700,-98.1036,29.7381,STILL DRIPPIN,260589756,2020-04-03 22:30:53,STILL DRIPPIN,city,"New Braunfels, TX",United States
88,135.1608905,34.679779,SIN,2605899109,2020-02-23 12:26:10,  ,city,  ,
35620,-73.9487755,40.655138,Aaron Abramov,2605899914,2020-02-14 04:06:23,"New York, NY",city,"Brooklyn, NY",United States
42660,-122.2964885,47.442583,Aaron Abramov,2605899914,2020-02-24 19:39:18,"New York, NY",city,"SeaTac, WA",United States
35620,-73.985812,40.75757,Joe Floccari NewsGuy,260590025,2020-03-24 01:31:49,"Atlanta, Georgia",poi,Times Square,United States
222,106.49319799999999,-6.268336,ELSA LUDFIANA,260590027,2020-05-23 10:19:02,Indonesia,city,"Tigaraksa, Indonesia",Indonesia
41540,-75.6003113,38.365730299999996,Kindness Bracelet,2605900550,2020-02-17 12:55:04,in over 30 countries so far,city,"Salisbury, MD",United States
16980,-87.732013,41.8335845,michael tinley,2605900628,2020-02-18 22:27:13,chicago,city,"Chicago, IL",United States
222,110.407494,-7.7022710000000005,i'm tennis ball,260590073,2020-04-05 07:52:50,indonesia,city,"Ngaglik, Indonesia",Indonesia
35620,-74.505072,40.834593,John G McCurdy III,260590162,2020-05-05 13:47:57,Jersey,poi,Greystone Park Psychiatric Hospital,United States
13140,-94.075013,30.042061999999998,.underrated,2605902110,2020-02-19 16:38:40,"Houston, TX",poi,Lamar University,
26420,-95.4464865,29.838495,.underrated,2605902110,2020-03-01 19:05:05,"Houston, TX",city,"Houston, TX",United States
13140,-94.12863349999999,30.086918,.underrated,2605902110,2020-03-02 01:22:49,"Houston, TX",city,"Beaumont, TX",United States
19100,-97.1356375,32.70185,.underrated,2605902110,2020-03-08 17:26:23,"Houston, TX",city,"Arlington, TX",United States
26420,-95.19268000000001,29.972668,.underrated,2605902110,2020-03-13 18:42:13,"Houston, TX",city,"Atascocita, TX",United States
109,101.044872,43.231275,,260590232,2020-04-26 15:43:26,Mongolia,poi,Gurvantes soum,Mongolia
12060,-84.400942,33.755297999999996,King tut,2605906068,2020-02-23 01:39:32,,poi,Mercedes-Benz Stadium,United States
38,-74.24367099999999,4.2622835,Danny ,2605906105,2020-05-29 23:07:21,Bogot D.C,city,"Bogot, D.C., Colombia",Colombia
16740,-80.8467855,35.209059,Jonathan McIntyre,26059104,2020-02-14 04:39:54,"Charlotte, NC",city,"Charlotte, NC",United States
9,115.75550600000001,-31.936339,Trent Lee,260591490,2020-05-03 08:45:58,,poi,City Beach,Australia
14860,-73.547167,41.053838,Caribea ,260591745,2020-04-22 03:39:32,"Connecticut, USA",poi,Sacred Heart R.C. Church,United States
47900,-77.10199899999999,38.8808445,,260591749,2020-05-11 23:54:21,"Washington, DC",city,"Arlington, VA",United States
19820,-83.37334949999997,42.397315500000005,,260591749,2020-05-26 19:33:45,"Washington, DC",city,"Livonia, MI",United States
47900,-77.10199899999999,38.8808445,,260591749,2020-05-31 03:13:20,"Washington, DC",city,"Arlington, VA",United States
42660,-122.3502075,47.6514961,Fremont Chamber,26059196,2020-02-17 20:07:30,"Seattle, WA",city,"Seattle, WA",United States
82,77.095086,28.638489500000002,Vishwas kumar,2605920319,2020-05-15 07:45:17,"Rohini, New Delhi",city,"New Delhi, India",India
21,-48.101460499999995,-10.115636,Murillo,260592091,2020-02-22 20:29:02,"Palmas, tocantins",city,"Palmas, Brasil",Brasil
49,-78.6307705,-3.7144160000000004,Miguel Arias,260592110,2020-02-20 13:41:38,"Guayaquil, Ecuador",city,"Yantzaza, Ecuador",Ecuador
88,138.46464928,35.66724845,@,2605921290,2020-04-12 05:10:11,,city, ,
82,87.263154,26.3020175,Dr Deepak sharma,260592142,2020-02-26 08:23:09,"forbesganj,india",city,"Forbesganj, India",India
119,-103.23313,25.244223,gruon Rangel,260592145,2020-04-24 16:54:50,,city,"Torren, Coahuila de Zaragoza",Mxico
42660,-122.205,47.0961,Krisy Clayton,26059224,2020-02-21 15:28:58,"Lake Tapps, WA",city,"Orting, WA",United States
119,-102.5336857,22.75740387,davis.blur,260592243,2020-03-07 03:10:42,"Zacatecas, Mxico",city,"Guadalupe, Zacatecas",Mxico
161,67.00954,24.841196,Sabeen Zahoor,2605922714,2020-02-22 03:34:40,,poi,Consulate of the United States of America,Pakistan
191,6.8394710000000005,46.82262950000001,Joel Wright,260592367,2020-04-14 16:17:38,"Manila City, National Capital Region",city,"Lully (FR), Suisse",Switzerland
119,-99.14775999999999,23.73337,Edwin S. De Leon,260592549,2020-02-15 22:08:40,Cd.victoria ,city,"Victoria, Tamaulipas",Mxico
16980,-87.632496,41.883221999999996,DJ Khaaliq,26059274,2020-02-17 01:14:46,Chicago,city,"Chicago, IL",United States
19820,-83.0478,42.3339,DJ Khaaliq,26059274,2020-02-23 04:43:29,Chicago,city,"Detroit, MI",United States
24,-83.04780006,42.32671287,DJ Khaaliq,26059274,2020-02-24 18:43:14,Chicago,city,"Detroit, MI",United States
16980,-87.62304128,41.81994492,DJ Khaaliq,26059274,2020-02-26 02:59:15,Chicago,city,"Chicago, IL",United States
120,103.92218665,1.46770521,S.Mariam Md.Iliyas,260592901,2020-03-26 13:47:55,"Johor Darul Takzim, Malaysia",city,"Plentong, Johor",Malaysia
88,140.11319167,35.61312222,Teddy So,260592926,2020-02-18 08:18:20,,city,"Chiba-shi Inage, Chiba",Japan
22260,-95.837867,46.8002505,InyanCanupaWin,260592989,2020-02-14 16:40:51,Occupied Dakota Territory,city,"Detroit Lakes, MN",United States
222,107.37039650000001,-6.932987000000002,CAPTAIN MARVEL,260593298,2020-03-31 07:48:16,"Cililin, Indonesia",city,"Cipongkor, Indonesia",Indonesia
17780,-96.2916485,30.5854715,Dom,2605933040,2020-02-18 12:27:17,,city,"College Station, TX",United States
205,-3.507624,55.8796855,alixjenkins,2605933341,2020-03-14 12:49:55,,city,"Dedridge, Scotland",United Kingdom
29820,-115.13516499999999,36.060964500000004,Las Vegas Artist,260593408,2020-02-18 00:27:14,"Las Vegas, NV",city,"Paradise, NV",United States
71,13.4246065,52.506701,Vince,26059343,2020-02-17 16:20:51,Austin,city,"Berlin, Germany",Germany
48,-70.6952615,19.684563,Lee Laframboise,260593535,2020-03-11 21:05:18,Earlton Ontario Canada,city,"Puerto Plata, Dominican Republic",Dominican Republic
24,-79.82430550000002,47.71115,Lee Laframboise,260593535,2020-03-15 10:04:12,Earlton Ontario Canada,city,"Armstrong, Ontario",Canada
31080,-118.4119065,34.0207895,Tati,260593557,2020-03-02 02:43:41,"Los Angeles, CA",city,"Los Angeles, CA",United States
205,-4.2417515,55.85830249999999,Jon Cairns ,260593577,2020-02-19 01:21:56,The Source Wall,city,"Glasgow, Scotland",United Kingdom
41860,-122.16229399999999,37.7050435,jem,260593592,2020-04-24 14:52:09,,city,"San Leandro, CA",Estados Unidos
35620,-73.9487755,40.655138,POETRY BAE ,2605936076,2020-02-15 16:57:00,"Brooklyn, NY",city,"Brooklyn, NY",United States
173,86.05158349999998,55.3593195,,260593857,2020-02-25 15:10:48,,city,", ",
12020,-83.3901,33.9701,Frank M,26059388,2020-02-22 00:56:39,Georgia,city,"Athens, GA",United States
12060,-83.717253,33.932238500000004,Frank M,26059388,2020-02-22 03:07:40,Georgia,city,"Bethlehem, GA",United States
12020,-83.3901,33.9701,Frank M,26059388,2020-02-22 17:09:54,Georgia,city,"Athens, GA",United States
46660,-83.30251200000002,30.856084499999998,Frank M,26059388,2020-02-24 12:56:48,Georgia,city,"Valdosta, GA",United States
29460,-81.9581,28.0461,Frank M,26059388,2020-02-25 00:32:53,Georgia,city,"Lakeland, FL",United States
27260,-81.4157395,30.342904,Frank M,26059388,2020-02-26 21:34:54,Georgia,city,"Atlantic Beach, FL",United States
12060,-83.717253,33.932238500000004,Frank M,26059388,2020-02-28 22:50:10,Georgia,city,"Bethlehem, GA",United States
12020,-83.3901,33.9701,Frank M,26059388,2020-02-29 17:30:53,Georgia,city,"Athens, GA",United States
29460,-81.9493,28.0747,Frank M,26059388,2020-03-01 17:36:45,Georgia,city,"Lakeland, FL",United States
45300,-82.5422,28.0145,Frank M,26059388,2020-03-01 21:04:44,Georgia,city,"Town 'n' Country, FL",United States
29460,-81.9581,28.0461,Frank M,26059388,2020-03-02 00:17:44,Georgia,city,"Lakeland, FL",United States
12060,-84.917518,33.7211,Frank M,26059388,2020-03-10 10:58:48,Georgia,city,"Villa Rica, GA",United States
31420,-83.65407950000001,32.8488175,Frank M,26059388,2020-03-16 11:14:44,Georgia,city,"Macon, GA",United States
12060,-83.717253,33.932238500000004,Frank M,26059388,2020-03-18 23:37:14,Georgia,city,"Bethlehem, GA",United States
29460,-81.97270499999998,28.049601000000006,Frank M,26059388,2020-05-19 23:57:03,Georgia,city,"Lakeland, FL",United States
12020,-83.3901,33.9701,Frank M,26059388,2020-05-23 17:10:42,Georgia,city,"Athens, GA",United States
12060,-83.717253,33.932238500000004,Frank M,26059388,2020-05-23 20:38:22,Georgia,city,"Bethlehem, GA",United States
36740,-81.5422,28.5693,Frank M,26059388,2020-05-31 19:55:41,Georgia,city,"Ocoee, FL",United States
45300,-82.5092,27.9591,Frank M,26059388,2020-06-02 22:37:45,Georgia,city,"Tampa, FL",United States
12060,-83.717253,33.932238500000004,Frank M,26059388,2020-06-08 22:26:30,Georgia,city,"Bethlehem, GA",United States
222,106.87929,-6.32827,Kream of Wheat - I like it thick ,260593895,2020-04-02 02:35:54,"Manhattan, NY",city,"Ciracas, Indonesia",Indonesia
21,-43.441578,-22.911421500000003,Andressa Maria ,2605939679,2020-02-17 02:37:31,,city,"Rio de Janeiro, Brasil",Brasil
119,-100.270474,25.736715,Viry Escamilla,260594001,2020-04-16 21:03:49,"Monterrey, N.L., Mxico",city,"San Nicols de los Garza, Nuevo Len",Mxico
21,-43.37982123,-22.84345328,twitch.tv/gabrielarchanjo,260594191,2020-04-18 23:20:34,"Brasil, Rio de Janeiro RJ",city,"Rio de Janeiro, Brasil",Brasil
38,-75.619213,6.270883,sebastian monsalve,260594664,2020-03-06 21:25:48,,city,"Medelln, Colombia",Colombia
21,-47.796623,-15.776254000000002,Nikky Dias,260594889,2020-02-14 15:21:17,Brasilia df  Brasil ,city,"Braslia, Brasil",Brasil
19100,-96.961483,32.863917,Mark David,260594990,2020-02-18 03:11:59,,city,"Irving, TX",United States
205,-3.4977015,50.679594,Peter helsby,2605950359,2020-03-29 17:35:19,Exminster,city,"Exminster, England",United Kingdom
119,-98.082815,22.560886,Miguel Garcia,2605951442,2020-02-21 07:58:28,"Altamira, Tamaulipas",city,"Altamira, Tamaulipas",Mxico
119,-99.15234,19.328383,,260595309,2020-02-17 21:12:15,"Coyoacn, Distrito Federal",city,"Coyoacn, Distrito Federal",Mxico
39140,-112.45162079999999,34.6170894,Kerry Baker ,2605953145,2020-02-18 16:26:31,"Mazatln, Sinaloa & Denver, CO",city,"Prescott, AZ",United States
19740,-104.9847179,39.737567,Kerry Baker ,2605953145,2020-02-19 23:56:53,"Mazatln, Sinaloa & Denver, CO",city,"Denver, CO",United States
39140,-112.45162079999999,34.6170894,Kerry Baker ,2605953145,2020-02-21 02:09:48,"Mazatln, Sinaloa & Denver, CO",city,"Prescott, AZ",United States
24,-114.087851,51.027664,Carlos Cuevas,26059540,2020-02-26 02:26:43,"Calgary, Alberta, Canada",city,"Calgary, Alberta",Canada
119,-103.683159,20.566663000000002,Sahi Macias,2605955959,2020-03-26 20:37:04,"Guadalajara, Jalisco",city,"Tala, Jalisco",Mxico
36820,-92.9174,41.4073,Stacie ,260595615,2020-02-24 02:46:30,"Iowa, USA",city,"Pella, IA",United States
16300,-91.6828545,41.976528,Stacie ,260595615,2020-05-09 12:00:58,"Iowa, USA",city,"Cedar Rapids, IA",United States
47260,-76.29476,36.736360999999995,Anita Christful,260595695,2020-04-26 13:08:31,"Chesapeake, VA",poi,Veterans Bridge,United States
222,102.30865899999999,-3.816979,MAY Sudarta,260595738,2020-02-23 15:03:16,"Bengkulu, Indonesia",city,"Teluk Segara, Indonesia",Indonesia
188,32.5450035,15.5244125,asimkamal,2605960864,2020-05-26 12:42:54,,city,Khartoum,
40140,-117.58565800000001,33.859093,knnockers,2605961629,2020-05-24 22:21:15,,city,"Corona, CA",United States
31080,-117.7823605,33.689732,knnockers,2605961629,2020-05-28 16:34:34,,city,"Irvine, CA",United States
40140,-117.58565800000001,33.859093,knnockers,2605961629,2020-05-31 04:54:35,,city,"Corona, CA",United States
31080,-117.874032,33.617638,knnockers,2605961629,2020-06-07 18:36:37,,city,"Newport Beach, CA",United States
40140,-117.58565800000001,33.859093,knnockers,2605961629,2020-06-09 04:15:10,,city,"Corona, CA",United States
31080,-117.7823605,33.689732,knnockers,2605961629,2020-06-09 18:56:09,,city,"Irvine, CA",United States
40140,-117.58565800000001,33.859093,knnockers,2605961629,2020-06-10 08:17:04,,city,"Corona, CA",United States
31080,-117.7823605,33.689732,knnockers,2605961629,2020-06-10 18:44:28,,city,"Irvine, CA",United States
119,-100.219365,25.719864,Jorge A. Rocha,260596182,2020-02-14 02:29:19,"Guadalupe, Nuevo Len",poi,Paseo La Fe,Mxico
82,77.095086,28.638489500000002,Ragini,2605961918,2020-02-21 13:14:13,"New Delhi, India",city,"New Delhi, India",India
21,-52.38,-24.045,Dalillah G,2605962744,2020-02-28 11:03:43,Campo Mouro-PR/Brasil,city,"Campo Mouro, Brasil",Brasil
21,-43.904070000000004,-19.91291,Oficina dos Tons,2605964893,2020-03-09 14:23:48,Belo Horizonte ,city,"Belo Horizonte, Brasil",Brasil
191,7.3949355,46.954573,Fabio,2605965516,2020-03-02 09:01:58,Schweiz,city,"Bern, Schweiz",Schweiz
205,-3.4974455,50.553553,RIchard Toomer Musician,2605965578,2020-02-27 19:18:08,Dawlish,city,"Teignmouth, England",United Kingdom
21,-37.246839,-9.5307905,Melina Barbosa,2605965636,2020-03-29 00:17:47,"Macei, Brasil",city,"Olho d'gua das Flores, Brasil",Brasil
82,86.504196,21.051249,Ayusman jena,2605966491,2020-05-20 07:10:59,Bhubaneswar,city,"Bhadrak, India",India
119,-96.927554,19.575702, ,2605967796,2020-02-28 21:46:33,"xalapa, ver",poi,Bachilleres experimental,Mxico
171,120.865845,14.426355,fhiz,2605967900,2020-06-07 11:56:15,MNL|PHL,poi,Province of Cavite,Republic of the Philippines
47900,-76.95560981,38.9662791,Summer Mami ,26059680,2020-03-10 22:59:34,The District,city,"Chillum, MD",United States
31080,-118.1567105,33.809171500000005,lucy,2605968030,2020-03-21 21:38:46,"Long Beach, CA",city,"Long Beach, CA",United States
119,-102.327207,21.849459000000003,Yair Gmez T,2605968612,2020-05-05 19:59:11,Aguascalientes,city,"Aguascalientes, Mxico",Mxico
119,-92.9164995,18.0219595,parakikafran,2605968614,2020-02-26 07:08:54,,city,"Centro, Tabasco",Mxico
35380,-90.01100799999999,29.982601000000003,Alan Donnes,26059698,2020-02-23 07:56:00,"Los Angeles, CA",city,"New Orleans, LA",United States
31080,-118.4119065,34.0207895,Alan Donnes,26059698,2020-05-29 03:42:42,"Los Angeles, CA",city,"Los Angeles, CA",United States
222,106.9363825,-6.2931675,Caturnuss,260597257,2020-02-18 22:46:37,Indonesia,city,"Pondokgede, Indonesia",Indonesia
175,46.685077,24.7219435,  ,2605972836,2020-02-14 22:30:22,Qassim ,city,",   ",  
88,139.41454099999999,35.325075,chiiko,260597320,2020-02-18 04:46:50,,poi,,
21,-43.296872,-22.644558,thurzin,2605974456,2020-02-14 11:11:05,"Parque Paulista, Duque de Caxi",city,"Duque de Caxias, Brasil",Brasil
120,101.6494125,3.2946425,xxxxxxxxxx,260597449,2020-03-11 14:47:17,"Selangor, Malaysia",city,"Batu, Selangor",Malaysia
205,-2.226226,53.44381,a.alzuwawi,2605975039,2020-02-25 12:31:35," ,  ",poi,EF International Language Centres,United Kingdom
96,48.098712,29.179463000000002,a.alzuwawi,2605975039,2020-04-29 19:27:58," ,  ",poi,Egaila Block 4, 
119,-96.886083,19.542054,Yahiire Garciia,260597606,2020-05-10 20:34:06,,city,"Xalapa, Veracruz de Ignacio de la Llave",Mxico
42660,-122.323,47.6531,Angel Latterell,260597671,2020-02-14 03:50:49,"Seattle, Washington",city,"Seattle, WA",United States
24,-79.3872,43.648,Angel Latterell,260597671,2020-02-19 01:16:09,"Seattle, Washington",city,"Toronto, Ontario",Canada
42660,-122.27833000000001,47.49103,Angel Latterell,260597671,2020-02-21 07:58:37,"Seattle, Washington",city,"Tukwila, WA",United States
186,-3.67701942,40.43564517,Angel Latterell,260597671,2020-05-05 03:27:14,"Seattle, Washington",city,"Madrid, Spain",Spain
42660,-122.4357206,47.661978999999995,Angel Latterell,260597671,2020-05-06 03:57:48,"Seattle, Washington",city,"Seattle, WA",United States
71,11.57468523,48.14313591,Sascha M. Hilpert,26059774,2020-02-23 16:19:54,Mnchen,city,"Mnchen, Deutschland",Deutschland
119,-87.0316645,21.048719000000002,Omar Islas ,2605977498,2020-04-03 19:41:19,"Quintana Roo, Mxico",city,"Benito Jurez, Quintana Roo",Mxico
175,49.6276765,25.458642,.MBS,2605977733,2020-05-22 23:39:37,",   ",city,",   ",  
21,-46.5955455,-23.682803,Claudia Rocha,260597774,2020-05-07 01:28:36,Brasil,city,"So Paulo, Brasil",Brasil
175,46.685077,24.7219435,   ,2605977848,2020-02-15 14:17:34,,city,",   ",  
15500,-79.499489,36.193493,kayladavis ,260597820,2020-05-23 16:22:44,,poi,Ace Speedway,United States
16980,-88.1202154,41.7979336,Jacob Osojnak,260597868,2020-02-19 00:22:00,"Naperville, IL",city,"Naperville, IL",United States
46140,-95.818827,36.298144,\\DonJon//,260597889,2020-02-17 21:05:13,"Oklahoma, USA",city,"Owasso, OK",United States
82,73.910077,18.5081615,Sanjay Isure,2605979138,2020-04-21 18:39:27,,city,"Haveli, India",India
18140,-82.985772,39.9946835,Mr. Henderson,260597915,2020-02-16 00:03:24,"Columbus, OH",city,"Columbus, OH",United States
35620,-73.9685415,40.780709,Lora McManus,26059792,2020-04-28 16:35:48,New York City,city,"Manhattan, NY",United States
32820,-90.05114,35.138489,Gregg Crone,260597981,2020-02-16 01:17:39,Memphis,poi,FedExForum,United States
151,3.38485,6.488129,Target HT,2605980399,2020-05-29 09:00:45,WORLDWIDE,poi,Home Zone Bar,Nigeria
119,-100.196134,25.6766035,Beto Leal,26059804,2020-02-25 13:55:37,"Guadalupe, Nuevo Len",city,"Guadalupe, Nuevo Len",Mxico
71,8.636605500000002,50.1212355,Landliebe,2605981133,2020-04-30 11:53:33,"Hessen, Deutschland",city,"Frankfurt am Main, Deutschland",Deutschland
119,-99.087817,19.4320755,Fer Saldana,260598118,2020-02-16 03:29:36,"El Parque, Venustiano Carranza",city,"Venustiano Carranza, Distrito Federal",Mxico
222,107.185461,-6.2976855,nia,260598301,2020-03-15 01:51:07,"Cikarang, Indonesia",city,"Lemahabang, Indonesia",Indonesia
88,139.65925049999998,35.7060655,,2605983024,2020-02-22 08:10:59,,city, ,
16980,-87.732013,41.8335845,Amanda Reis,2605983397,2020-03-16 21:04:21,,city,"Chicago, IL",United States
37100,-119.170804,34.217658,Brandy*,2605984711,2020-02-28 20:39:43,"Oxnard, CA",poi,Pacifica High School,United States
31080,-118.267191,34.043085,Brandy*,2605984711,2020-03-08 12:12:51,"Oxnard, CA",poi,STAPLES Center,United States
47900,-77.0143985,38.898603,Jason Secrest,260598478,2020-05-02 18:09:27,"Washington, DC",city,"Washington, DC",United States
49,-78.9223245,0.8656905,Diana Carolina,2605986062,2020-05-18 01:19:07,"Manta, Ecuador",city,"Eloy Alfaro, Ecuador",Ecuador
33100,-80.271087,25.6994485,Eric Molina,2605986285,2020-02-19 12:48:42,,city,"Coral Gables, FL",United States
31080,-118.4119065,34.0207895,Puss Titter,260598888,2020-05-16 03:24:04,"Los Angeles, California",city,"Los Angeles, CA",United States
222,107.621921,-6.905953,Tira,260599051,2020-02-23 07:25:56,"Bandung, Indonesia",poi,FABRIK Eatery & Bar,Indonesia
21,-48.101460499999995,-10.115636,Emanuela Medina,26059913,2020-04-05 00:26:20,Palmas,city,"Palmas, Brasil",Brasil
41700,-98.511459,29.609395000000003,Stinga,260599207,2020-02-26 21:48:19,Sa Town Texas,poi,Pasha Mediterranean Grill,United States
31080,-118.4119065,34.0207895,DeTrekz,2605992218,2020-03-06 22:07:28,"Los Angeles, CA",city,"Los Angeles, CA",United States
31080,-118.3318,33.98872,Boyd,26059950,2020-03-01 03:34:30,"Phoenix, AZ",city,"Los Angeles, CA",United States
71,6.856052999999998,51.230374,Johannes Kinast,26059969,2020-02-14 17:02:23,"Bonn, Deutschland",neighborhood,"Gerresheim, Dsseldorf",Deutschland
21,-46.784484000000006,-23.533433,nobruxo,260599774,2020-02-14 17:33:07,"So Paulo, Brasil",city,"Osasco, Brasil",Brasil
225,55.772158999999995,24.291649,aysha alsheryani,260599796,2020-04-03 08:24:51,  ,poi,Al Hili - ,  
24,-122.818486,49.111519,Jason,260599871,2020-05-28 00:39:56,,city,"Surrey, British Columbia",Canada
88,139.71509400000002,35.7291085,yuichimatsuda,260599917,2020-06-05 06:00:50, ,city,"Toshima-ku, Tokyo",Japan
16980,-87.648732,41.885849,Mark Smithivas,2606,2020-02-28 00:53:15,"Chicago, IL, USA",poi,The Hoxton,United States
222,106.9426145,-6.6936160000000005,Ashari Fauzi,260600103,2020-05-02 07:05:57,"Bogor, Jawa Barat",city,"Cisarua, Indonesia",Indonesia
31080,-117.85108899999999,33.842863,f,2606001542,2020-02-17 23:15:10,,city,"Anaheim, CA",United States
186,-3.5979675,37.180409000000004,Le Fou Andalou,260600237,2020-03-22 17:28:06,Grenade,city,"Granada, Espaa",Espaa
44100,-89.6596895,39.774346,Vincent Andrews,260600289,2020-03-31 06:06:51,"Springfield, IL",city,"Springfield, IL",United States
16980,-87.732013,41.8335845,Vincent Andrews,260600289,2020-04-29 04:59:57,"Springfield, IL",city,"Chicago, IL",United States
44100,-89.6596895,39.774346,Vincent Andrews,260600289,2020-05-08 20:01:52,"Springfield, IL",city,"Springfield, IL",United States
88,131.34639049999998,31.893178499999998,,260600307,2020-02-14 14:28:27,,city, ,
23420,-119.7824645,36.786042,Samuel Thomas,2606003131,2020-02-14 00:17:04,,city,"Fresno, CA",United States
47380,-97.12929559999999,31.55488516,Dr Pepper Museum,26060061,2020-03-14 03:51:42,"Waco, TX",city,"Waco, TX",United States
162,19.40385,50.144059999999996,Wojciech Janas,2606006907,2020-04-10 15:57:38,Chrzanw Polska maopolskie,city,"Chrzanw, Polska",Polska
88,139.45565399999998,35.363040000000005,MICHIKO EYE(),260600699,2020-03-14 03:49:33,1-1-8-2F,city, ,
119,-103.23313,25.244223,Fernando Segovia,260600759,2020-03-18 17:30:21,,city,"Torren, Coahuila de Zaragoza",Mexico
41740,-117.10498899999999,32.810012,solidoroku,26060142,2020-04-01 02:59:06,"San Diego, CA",city,"San Diego, CA",United States
8,-58.442643,-34.604315,Mer Simoncini,260601526,2020-03-11 20:58:30,,city,"Ciudad Autnoma de Buenos Aires, Argentina",Argentina
19100,-96.7349005,33.06124250000001,Lynn Walker-Cmar,26060160,2020-06-04 06:03:28,Dallas Texas,city,"Plano, TX",United States
51,-6.815333,53.15480650000001,Bernadette Murphy,26060162,2020-03-24 18:56:14,Ireland,city,"Kildare, Ireland",Ireland
82,88.64324450000002,27.0280375,Binayak Homestay,2606017076,2020-02-18 00:04:18,"21st Mile, Reshi Road, Damsang",city,"Kalimpong, India",India
82,77.095086,28.638489500000002,.GURMET SINGH,2606017135,2020-04-19 19:38:55,,city,"New Delhi, India",India
8,-64.26465999999999,-27.7930225,,2606017296,2020-06-09 02:32:52,Argentina ,city,"Santiago del Estero, Argentina",Argentina
222,100.4266685,-0.916883,Revo Dwika Utama,260601764,2020-02-23 07:14:14,Indonesia,city,"Kuranji, Indonesia",Indonesia
21,-42.880259,-20.7479715,dane se,2606017880,2020-02-15 19:24:03,,city,"Viosa, Brasil",Brasil
205,-2.3107900000000003,53.09443149999999,Derek Bridson,2606017966,2020-02-21 11:54:17,"Market Drayton, England",city,"Alsager, England",United Kingdom
82,77.5584485,12.9231145,Venkatakiran Renati,260601856,2020-02-21 08:41:15,"Bengaluru South, India",city,"Bengaluru South, India",India
186,-5.8955855,43.2095025,Ivi 1510,2606019047,2020-03-14 05:01:55,Espaa,city,"Riosa, Espaa",Espaa
88,139.69668810000002,35.6512463, ,260601950,2020-02-14 06:31:00, ,city, ,
186,-5.9151345000000015,43.563758,Berto Bango,260602003,2020-04-10 10:28:29,Avils,city,"Avils, Espaa",Espaa
8,-58.446241,-34.659632,buscayaosvaldo,2606021880,2020-02-14 05:15:12,,city,"Villa Soldati, Argentina",Argentina
205,-0.14893599999999999,51.500091999999995,Gabriel Fine Arts,2606023375,2020-02-18 18:37:31,"London, England",city,"London, England",United Kingdom
8,-58.54075699999999,-34.4902185, Tichuu!!,2606024095,2020-03-11 00:20:07,Que te importa,city,"San Isidro, Argentina",Argentina
21,-42.6007415,-19.4454605,marcospauloibm,2606025699,2020-02-17 17:46:56,,city,"Ipatinga, Brasil",Brasil
31180,-101.897173,33.5705265,D,2606026034,2020-03-17 23:37:37,"Lubbock, TX",city,"Lubbock, TX",United States
34620,-85.474858,40.1876545,,2606028096,2020-02-21 13:05:31,"Yorktown, Indiana",city,"Yorktown, IN",United States
26900,-86.1429225,39.7795625,,2606028096,2020-02-28 19:21:58,"Yorktown, Indiana",city,"Indianapolis, IN",United States
34620,-85.474858,40.1876545,,2606028096,2020-03-12 23:17:46,"Yorktown, Indiana",city,"Yorktown, IN",United States
222,112.193288,-7.499649499999999,Dini,260603053,2020-03-07 07:04:35,,city,"Megaluh, Indonesia",Indonesia
186,-2.373698,36.868748,Lola Barranco,2606032795,2020-02-18 23:08:58,"Almera, Espaa",city,"Almera, Espaa",Espaa
31080,-117.85108899999999,33.842863,Denise Ayala,260603340,2020-03-04 04:36:08,"Anaheim,CA",city,"Anaheim, CA",United States
37980,-75.295,40.00139,Andrea Gencarella,260603350,2020-03-08 03:45:08,,city,"Ardmore, PA",United States
85,9.1593365,45.461345,Maria Magro,2606035508,2020-03-07 13:28:46,,city,"Milano, Lombardia",Italia
117,59.538006,22.5581535,s.d,2606035598,2020-02-16 00:12:02,",  ",city,"Sur, Oman",Oman
24,-81.25244,42.982621,X - London Knights,26060356,2020-02-27 15:01:22,"London, Ontario",poi,Budweiser Gardens,Canada
45300,-82.44269399999997,27.9965945,Alfonso Sanchez,2606035789,2020-02-23 22:12:41,"Florida, USA",city,"Tampa, FL",United States
34940,-81.581214,26.292870500000003,Alfonso Sanchez,2606035789,2020-03-14 20:16:36,"Florida, USA",city,"Orangetree, FL",United States
200,29.393704999999997,40.798294,tamam aye,2606035847,2020-05-11 18:09:51,"Antalya, Trkiye",poi,Kocaeli Gebze,Trkiye
47900,-77.28204699999999,38.942015500000004,Shirin Nariman,26060377,2020-02-15 13:29:59,,city,"Wolf Trap, VA",United States
200,38.403996,40.91001,Gagi,2606037711,2020-04-11 19:17:22,,poi,Shire,Trkiye
222,111.0409655,-7.180666499999999,M billy baid,2606037938,2020-02-14 09:50:20,pwd,city,"Pulokulon, Indonesia",Indonesia
191,6.143025499999999,46.204758,Patou Uhlmann,260603928,2020-02-18 04:36:12,Genve,city,"Genve, Suisse",Suisse
65,2.346084,48.846229,Patou Uhlmann,260603928,2020-02-24 05:31:10,Genve,poi,Panthon,France
191,6.143025499999999,46.204758,Patou Uhlmann,260603928,2020-02-26 22:34:34,Genve,city,"Genve, Suisse",Suisse
16980,-87.65992198,41.95116865,Alison Bixby Buckley,260604443,2020-03-17 00:56:22,"Chicago, IL",city,"Chicago, IL",United States
69,-1.7607099999999998,4.9025999,GhanaLinx Media,26060450,2020-04-16 12:47:59,"CANADA, GHANA, US, UK",city,"Sekondi Takoradi, Ghana",Ghana
85,8.3855895,39.068479,Luca Rombi,260604539,2020-02-22 07:18:20,Hospitality Manager,city,"Calasetta, Sardinia",Italy
34980,-86.5851,36.307425,Heather Ellis,26060455,2020-02-18 01:03:06,"Nashville, Tn",city,"Hendersonville, TN",United States
200,29.0052225,41.0213205,AYHAN BOLAT,2606046654,2020-05-25 15:03:50,,city,"stanbul, Trkiye",Trkiye
17460,-81.70572847,41.4995609,Datdudechuck,2606047489,2020-05-20 16:32:06,"Cleveland, OH",city,"Cleveland, OH",United States
51,-6.399521,53.2735025,Ian McGowan,2606049121,2020-02-14 18:42:48,Dublin,city,"South Dublin, Ireland",Ireland
222,110.4050255,-7.712573,Unicorn,260604915,2020-02-14 23:05:18,DKI Jakarta - SLEMAN SEMBADA,city,"Ngaglik, Indonesia",Indonesia
222,116.87682450000001,-1.1540175,Suardi,260605076,2020-02-20 23:39:06,"Sidenreng Rappang, Sulawesi Se",city,"Balikpapan Utara, Indonesia",Indonesia
43340,-93.66637800000001,32.5246725,.,2606051756,2020-03-02 03:46:05,,city,"Bossier City, LA",United States
41740,-117.10498899999999,32.810012,.,2606051756,2020-05-25 03:52:32,,city,"San Diego, CA",United States
96,47.971984,29.320588,  ,2606053080,2020-02-16 12:03:02,Kuwait,poi,college of engineering and petroleum -  , 
119,-111.498181,28.9698625,Cristhian Torri,260605328,2020-05-07 19:46:25,London,city,"Hermosillo, Sonora",Mexico
222,106.65811299999999,-6.145593,Dista Adelina F.,260605423,2020-03-22 16:06:08,,city,"Batu Ceper, Indonesia",Indonesia
8,-55.909711,-27.404671,20%Angel80%Diabla,2606054720,2020-02-26 16:29:34,En El Infierno De Avellaneda,city,"Posadas, Argentina",Argentina
19100,-96.96558449999999,32.475781500000004,Diane Barnes,2606055096,2020-02-16 16:43:09,"Midlothian, TX",city,"Midlothian, TX",United States
36420,-97.37907299999999,35.647467,Diane Barnes,2606055096,2020-03-21 18:28:48,"Midlothian, TX",poi,Arcadia Lake,United States
19100,-96.96558449999999,32.475781500000004,Diane Barnes,2606055096,2020-03-26 23:54:19,"Midlothian, TX",city,"Midlothian, TX",United States
-9999,-61.8117305,44.321234,Dogan Saglam,260605543,2020-02-14 23:43:48,Edmonton,city,"Halifax, Nova Scotia",Canada
8,-58.013021499999994,-34.9363185,Martin_YT.,2606057438,2020-04-17 06:32:15,la plata,city,"La Plata, Argentina",Argentina
175,39.109509,21.590884,noor,260605762,2020-02-20 18:21:32,"Jeddah, Saudi Arabia",poi,   -  ,Kingdom of Saudi Arabia
205,-2.231909,51.7454065,John Holland,2606059199,2020-03-25 10:05:11,"Stroud, Gloucestershire",city,"Stroud, England",United Kingdom
12060,-84.50306649999997,34.110776,Taylor Williams,26060597,2020-02-16 12:08:03,"Collierville, TN",city,"Woodstock, GA",United States
32820,-89.92202900000002,35.1335205,Taylor Williams,26060597,2020-04-08 00:35:22,"Woodstock, GA",city,"Memphis, TN",United States
12060,-84.50306649999997,34.110776,Taylor Williams,26060597,2020-04-12 12:15:46,"Woodstock, GA",city,"Woodstock, GA",United States
235,20.120173,45.10519,Frid@,2606059933,2020-02-18 18:20:21,,city,"Inija, Srbija",Republic of Serbia
88,140.34156299999998,38.252051,chef_yusuke,260606152,2020-02-14 14:00:16, ,city,"Yamagata-shi, Yamagata",Japan
21,-46.5955455,-23.682803,Ita Ibrahim,26060618,2020-02-14 00:46:37,"So Paulo, Brasil",city,"So Paulo, Brasil",Brasil
33100,-80.134986,26.3739755,A Nobody,2606063209,2020-02-14 18:56:40,,city,"Boca Raton, FL",United States
12060,-84.7231,33.7497,Trina Numa,2606063761,2020-03-21 01:30:08,,city,"Douglasville, GA",United States
14380,-81.657895,36.215092,Austin Venrick,260606422,2020-02-29 19:26:34,"Boone, NC",city,"Boone, NC",United States
41620,-111.850082,40.623028000000005,Steph ,260606433,2020-03-13 13:02:20,Pocket Camp: 09277163108,poi,Target,United States
34060,-79.9438375,39.6293145,,2606065830,2020-02-16 02:56:13,toronto - morgantown,city,"Morgantown, WV",United States
38300,-80.237729,40.22153400000001,,2606065830,2020-03-04 03:53:48,toronto - morgantown,city,"Meadowlands, PA",United States
34060,-79.9438375,39.6293145,,2606065830,2020-03-05 05:32:05,toronto - morgantown,city,"Morgantown, WV",United States
222,115.22122900000001,-8.6373,Ocean,260606596,2020-03-01 12:20:05,"Denpasar, Bali",poi,Gatsu Timur,Indonesia
161,69.31107349999999,28.001486,Imtiaz Ruk,2606066112,2020-05-28 07:55:04,"Sukkur, Pakistan",city,"Ghotki, Pakistan",Pakistan
21,-49.92895603,-29.15787671,julia,2606068723,2020-02-20 23:08:14,em busca de um grande talvez ,city,"Praia Grande, Brasil",Brasil
21,-46.40921979,-23.46905521,Jessica Guilherme,2606068733,2020-04-11 04:36:59,Itaquaquecetuba-SP,city,"Guarulhos, Brasil",Brasil
119,-99.12660247,19.69125633,Jorge Alberto,26060689,2020-02-17 16:31:27,"19.692118,-99.125792",city,"Tultepec, Mxico",Mxico
19740,-104.8117385,39.53495,Mike Davis,260607004,2020-04-25 15:42:24,Denver,city,"Stonegate, CO",United States
20460,-96.40266899999999,34.00352,Austin,2606070734,2020-02-16 18:31:13,,poi,Applebee's Grill + Bar,United States
16980,-88.272514,41.564693,Trinity J Allen,2606072179,2020-04-22 22:38:47,"Illinois, USA",poi,Plainfield South High School,United States
205,0.553941,51.8895475,Maria Pitt,2606073028,2020-02-14 21:48:31,"Braintree, England",city,"Braintree, East",United Kingdom
119,-99.1158905,19.518656,Arturo Ramirez,260607306,2020-03-26 23:30:14,"Distrito Federal, Mxico",city,"Gustavo A. Madero, Distrito Federal",Mxico
82,76.320306,10.105393,Thampi Nagarjuna,2606073998,2020-06-06 10:23:16,Bahrain,poi,Dhanya Auditorium,India
51,-6.247621499999999,53.3549025,Anne Coffey,2606074442,2020-02-28 15:36:37,Dublin,city,"Dublin City, Ireland",Ireland
205,-1.0853245,53.96620649999999,Jaymz Hatstand,260607545,2020-02-19 01:45:54,"York, UK",city,"York, England",United Kingdom
222,112.629076,-7.972494999999999,Iqbal Khakam,260607584,2020-05-02 03:51:02,INDONESIA,city,"Klojen, Indonesia",Indonesia
19100,-96.869076,33.158183,Leon Friedrich,26060800,2020-06-03 17:22:13,"Frisco, TX",poi,Fisher Elementary School,United States
119,-99.245061,18.192778500000006,WORLDPHOTOS,2606080345,2020-05-20 14:26:29,"CD. HUITZUCO, GUERRERO",city,"Huitzuco de los Figueroa, Guerrero",Mxico
88,139.79716398,35.69076718,htoshihito,260608042,2020-05-01 21:58:13,,city,"Sumida-ku, Tokyo",Japan
222,106.6778875,-6.2026825,,260608044,2020-02-20 00:41:21,,city,"Cipondoh, Indonesia",Indonesia
21,-50.109245,-6.485811,Dionathas Moreira,2606081338,2020-02-14 01:44:39,,city,"Cana dos Carajs, Brasil",Brasil
82,72.86820999999999,19.23941,SOUVIK GHOSH,260608148,2020-04-20 21:20:35,"Indianapolis, IN",city,"Mumbai, India",India
45300,-82.44269399999997,27.9965945,Addie,2606082164,2020-03-13 03:35:02,"Ann Arbor, MI",city,"Tampa, FL",United States
11460,-83.72997149999999,42.2708395,Addie,2606082164,2020-03-14 19:36:35,"Ann Arbor, MI",city,"Ann Arbor, MI",United States
13340,-83.75183050000001,40.3540635,Addie,2606082164,2020-04-15 14:29:32,"Ann Arbor, MI",city,"Bellefontaine, OH",United States
11460,-83.72997149999999,42.2708395,Addie,2606082164,2020-04-27 15:23:30,"Ann Arbor, MI",city,"Ann Arbor, MI",United States
13340,-83.75183050000001,40.3540635,Addie,2606082164,2020-06-11 14:21:45,"Ann Arbor, MI",city,"Bellefontaine, OH",United States
31080,-118.38731999999999,33.81617,TenThousandVillages,2606082570,2020-05-04 21:59:20,"1907 S. Catalina Ave., RB 9027",city,"Redondo Beach, CA",United States
88,127.75620500000001,26.273795,,260608262,2020-02-17 09:09:53,,city,"Ginowan-shi, Okinawa",Japan
82,78.37807099999999,17.455135000000002,mohit Sharma,260608434,2020-02-15 08:53:42,india,city,"Rajendra Nagar, India",India
31420,-83.65407950000001,32.8488175,Daniel Peavy,26060845,2020-02-29 21:41:07,"Georgia, USA",city,"Macon, GA",United States
186,-3.3656230000000003,40.496023,Pepe87Alcala,2606084715,2020-03-07 02:15:24,Alcala de Henares,city,"Alcal de Henares, Espaa",Espaa
88,130.555749,31.522809000000002,,2606084996,2020-03-30 18:00:45,,city, ,
31080,-118.4119065,34.0207895,Ally Bolour,260608508,2020-02-14 14:23:17,LA - Palm Springs - Salinas,city,"Los Angeles, CA",United States
40140,-116.5172895,33.8250795,Ally Bolour,260608508,2020-06-11 13:41:27,LA - Palm Springs - Salinas,city,"Palm Springs, CA",United States
12060,-84.3262175,33.820161,Night Sloth,260608629,2020-03-08 20:36:20,"Atlanta, GA",city,"North Druid Hills, GA",United States
200,36.6335425,37.022616,Gkhan nl,2606086663,2020-03-24 21:33:09,,city,"slahiye, Trkiye",Trkiye
15,-87.95800600000001,17.927984,Famous Jet Jackson,260608689,2020-02-22 00:11:53,"Washington, DC",poi,Belize Barrier Reef,Belize
47900,-77.0143985,38.898603,Famous Jet Jackson,260608689,2020-02-26 21:20:38,"Washington, DC",city,"Washington, DC",United States
175,46.685077,24.7219435,Haya,2606087030,2020-02-19 13:57:07,,city,",   ",  
12060,-84.212973,33.8503965,OVOChe,2606088563,2020-02-15 08:29:01,"Atlanta, GA",city,"Tucker, GA",United States
205,-1.8906405,52.493966500000006,Ultimate Fitness Birmingham,2606088888,2020-02-14 09:08:10,"Birmingham, England",city,"Birmingham, England",United Kingdom
178,26.7064315,-30.699826,Eve,2606089990,2020-04-13 15:33:28,Bloem|Estourt| Aliwal north ,city,"Aliwal North, South Africa",South Africa
29420,-114.347169,34.454987,SierraSoutherland,2606091038,2020-05-24 15:50:40,Colorado State University,poi,Lake Havasu,United States
24,-114.057,51.045,Calgary Fire CFBTS,260609188,2020-02-20 15:03:27,Calgary,city,"Calgary, Alberta",Canada
8,-58.442643,-34.604315,Grow UP HR,2606093317,2020-02-17 12:45:01,Ciudad Autnoma de Buenos Aire,city,"Ciudad Autnoma de Buenos Aires, Argentina",Argentina
35620,-74.00824,40.7146,Charles Amuzie,26060944,2020-05-14 11:34:18,,city,"Manhattan, NY",United States
119,-103.377831,25.623188,Los Desgraciados,260609490,2020-05-27 18:36:50,"E. Lopez Sanchez, esquina con",poi,TSM,Mxico
82,72.845706,19.055589,Zuned hamza,2606095417,2020-03-18 13:30:42,"Bandra East, Mumbai",poi,Bandra Court,India
119,-100.196134,25.6766035,MaggieUchis,260609685,2020-02-15 02:08:10,"Monterrey, Nuevo Len",city,"Guadalupe, Nuevo Len",Mexico
91,37.3486715,-1.302663,GreenGold,2606098455,2020-02-26 15:56:42,"Kentucky, USA n Nairobi, Kenya",city,"Kangundo, Kenya",Kenya
49,-79.93933100000002,-0.382704,Melina Moreira,2606098838,2020-03-18 19:43:11,"Portoviejo, Ecuador",city,"Chone, Ecuador",Ecuador
152,6.2416625,52.2694005,Bert Hoeve,26060990,2020-03-09 18:19:37,"Harderwijk, Nederland",city,"Deventer, Nederland",Nederland
173,37.42764250000001,55.7547875,cereal chiller,2606099273,2020-02-18 07:47:45,  ,city,", ",
193,99.95513236,12.5972494,,260609941,2020-02-22 06:32:38,"Bangkok,Thailand",city,"Hua Hin, Thailand",Thailand
205,-0.1313,50.8429,Sarah Klugman,26061003,2020-03-25 08:55:53,Brighton,city,"Brighton, England",United Kingdom
16980,-87.6561945,41.6661375,Fedora The Explorer,260610070,2020-02-19 21:25:45,"Chicago, IL, USA",city,"Calumet Park, IL",United States
119,-98.33407249999999,19.0742235,Lily Mtz. Schiaffini,2606101219,2020-03-21 19:23:45,,city,"San Pedro Cholula, Puebla",Mxico
24,-113.49261750000001,53.5558195,Gregory McCosham,2606101368,2020-04-08 16:13:07,"Edmonton, Alberta",city,"Edmonton, Alberta",Canada
8,-60.69740600000001,-32.9516155,Esteban Oz,2606101812,2020-02-17 13:02:31,"Rosario, Argentina",city,"Rosario, Argentina",Argentina
24,-80.3326055,43.402109,Jeff,2606101954,2020-03-14 03:30:49,At A Dirt Track,city,"Cambridge, Ontario",Canada
96,47.99945099999999,29.2747135,.   ,2606102556,2020-03-12 17:07:08,Al-zahra -south surra ,city,"Zahra, Kuwait",Kuwait
200,29.0052225,41.0213205, Zeynep ,2606103455,2020-02-14 06:02:02,"Gztepe, zmir",city,"stanbul, Trkiye",Trkiye
173,56.22043435,58.01312705,Ekaterina Startseva,2606104404,2020-02-15 08:34:39,,city,", ",
8,-58.527781,-33.014360499999995,,2606105389,2020-05-01 17:41:06,"Gualeguaych, Argentina",city,"Gualeguaych, Argentina",Argentina
35620,-74.3220025,40.4752365,Megan,260610596,2020-02-15 13:46:14,New Jersey,city,"Sayreville, NJ",United States
222,102.200874,-2.0961220000000003,ShintaCen,260610598,2020-06-02 00:52:56,"Bangko, Jambi",city,"Bangko, Indonesia",Indonesia
40900,-121.42453559999998,38.4231751,A Tale of 2 Cities,26061072,2020-03-03 04:39:04,"Minneapolis,MN",city,"Laguna, CA",United States
33460,-93.2645,44.9774,A Tale of 2 Cities,26061072,2020-03-25 04:50:10,"Minneapolis,MN",city,"Minneapolis, MN",United States
40140,-117.69487600000001,34.125351,Donnie,260610936,2020-03-01 18:47:24,CALIFORNIA ,poi,Mt. Baldy,United States
31080,-118.4119065,34.0207895,Donnie,260610936,2020-03-03 16:21:32,CALIFORNIA ,city,"Los Angeles, CA",United States
40140,-117.603783,34.0451585,Donnie,260610936,2020-03-10 17:04:06,CALIFORNIA ,city,"Ontario, CA",United States
85,16.5003815,38.53415200000001,Rosa Caristo ,2606113372,2020-03-14 12:10:41,,city,"Santa Caterina dello Ionio, Calabria",Italia
37100,-119.16538899999999,34.181956,Joe,260611442,2020-02-14 22:08:29,"Ventura, CA",city,"Oxnard, CA",United States
31080,-118.30856599999998,33.891034999999995,Joe,260611442,2020-05-06 18:53:10,"Ventura, CA",city,"Gardena, CA",United States
37100,-119.2289915,34.289689499999994,Joe,260611442,2020-05-07 06:52:52,"Ventura, CA",city,"Ventura, CA",United States
6,13.502382999999998,-9.04808,Adilson Pedro,2606114573,2020-05-22 06:14:07,Angola,poi,Luanda Internacional Airport,Angola
191,7.9829735,46.7062045, ,2606116656,2020-05-07 22:22:49,"Montral, Qubec",city,"Iseltwald, Schweiz",Suisse
24,-73.723025,45.5578305, ,2606116656,2020-05-10 09:34:53,"Montral, Qubec",city,"Montral, Qubec",Canada
205,-2.620288,51.440119,Matt,2606120107,2020-03-08 12:41:49,,poi,Ashton Gate Stadium,United Kingdom
33460,-93.461096,44.9349355,David H,260612214,2020-03-02 15:39:28,"Otsego, MN",city,"Minnetonka, MN",United States
35620,-74.15394699999997,40.57237600000001,Joe Sanger,260612477,2020-04-02 03:19:38,NEW YORK,city,"Staten Island, NY",United States
55,-89.478737,13.680152,Rojito sanchez,260612581,2020-03-26 02:57:11,El salvador,city,"Tepecoyo, El Salvador",El Salvador
82,77.195885,28.596844,Heman,2606126802,2020-02-20 05:31:01,"Nagaland, India",poi,The Ashok hotel,India
193,100.752235,13.622314000000001,prht,260612683,2020-04-06 10:17:36,"BKK,Thailand",city,", ",
19660,-81.0963155,29.289812,Elizabeth Eads,2606127283,2020-02-14 01:52:09,Ormond Beach Florida,city,"Holly Hill, FL",United States
45300,-82.662124,27.629644,Anthony Pasqualone,2606127322,2020-02-25 15:13:57,,poi,Tampa Bay,United States
35840,-82.666286,27.4644885,Anthony Pasqualone,2606127322,2020-02-25 23:04:33,,city,"Cortez, FL",United States
36740,-81.3677725,28.5016785,Anthony Pasqualone,2606127322,2020-02-28 13:19:30,,city,"Orlando, FL",United States
35620,-74.074252,40.86173150000001,Anthony Pasqualone,2606127322,2020-03-06 10:53:49,,city,"Hasbrouck Heights, NJ",United States
31080,-117.7823605,33.689732,Cam,2606127325,2020-02-15 21:53:59,sc: caamrynn_64,city,"Irvine, CA",United States
42200,-119.62585700000001,34.436010499999995,Cam,2606127325,2020-02-18 19:35:57,sc: caamrynn_64,city,"Montecito, CA",United States
29460,-81.9079715,28.033121,Cam,2606127325,2020-03-10 00:08:51,sc: caamrynn_64,city,"Crystal Lake, FL",United States
45300,-82.36273249999998,27.709769,Cam,2606127325,2020-03-13 21:34:41,sc: caamrynn_64,city,"Sun City Center, FL",United States
23420,-119.7824645,36.786042,Cam,2606127325,2020-03-15 06:05:54,sc: caamrynn_64,city,"Fresno, CA",United States
32900,-120.47181,37.3162225,Cam,2606127325,2020-03-18 01:20:28,sc: caamrynn_64,city,"Merced, CA",United States
200,33.77609276,41.37968264,Sinemis,2606127870,2020-06-01 16:52:23,Amasya - Kastamonu,city,"Kastamonu, Trkiye",Trkiye
222,111.02956299999998,-6.751072,aku masa depanmu,260613130,2020-06-05 01:57:01,Pati,poi,Kantor SAMSAT Kab. Pati,Indonesia
12420,-97.79516388,30.37594901,Hope Teel,26061316,2020-02-16 20:38:49,"Austin, Texas",city,"Austin, TX",United States
26420,-95.35806904,29.75439204,Hope Teel,26061316,2020-02-17 22:51:23,"Austin, Texas",city,"Houston, TX",United States
12420,-97.79516388,30.37594901,Hope Teel,26061316,2020-02-22 20:06:49,"Austin, Texas",city,"Austin, TX",United States
29820,-115.17149356,36.1024625,Hope Teel,26061316,2020-02-26 03:19:48,"Austin, Texas",city,"Paradise, NV",United States
12420,-97.7475,30.2677,Hope Teel,26061316,2020-03-07 00:30:35,"Austin, Texas",city,"Austin, TX",United States
41180,-89.997928,38.2067015,Kelsey Ebel,260613188,2020-03-27 22:48:28,"Orlando, FL",city,"Red Bud, IL",United States
41860,-121.60054199999999,37.908494,Carter,260613249,2020-03-16 22:21:42,"California, USA",poi,Discovery Bay,United States
178,31.31959,-24.89082,Delsy Dee Sithole ,2606132853,2020-05-13 04:05:40,Mpumalang,poi,Ximhungwe,South Africa
82,77.4233395,28.773568,Alok Tiwari,260613303,2020-04-12 10:31:51,Noida,city,"Ghaziabad, India",India
193,100.512506,13.738101, ,260613331,2020-05-31 03:52:20,Thailand,poi, (Thian Fah Foundation) ,Thailand
21,-43.4506035,-22.73690244,letcia,2606134291,2020-02-19 10:52:00,+55,city,"Nova Iguau, Brasil",Brasil
21,-56.17959613,-15.60213143,Ana Rita,2606134717,2020-02-15 00:26:50,"Vrzea Grande, Brasil",city,"Vrzea Grande, Brasil",Brasil
35620,-73.9487755,40.655138,Jackson Rollings,2606134987,2020-02-19 11:22:01,"New York, NY",city,"Brooklyn, NY",United States
42340,-81.1096165,32.017284499999995,Jackson Rollings,2606134987,2020-03-23 15:35:49,"New York, NY",city,"Savannah, GA",United States
31080,-117.86481850000001,33.926652000000004,Brandon itatani,2606135383,2020-04-01 19:58:57,,city,"Brea, CA",United States
35620,-73.9685415,40.780709,SC Farrell,2606135916,2020-02-29 06:00:48,"Colorado, USA",city,"Manhattan, NY",United States
128,4.1603505,50.8113855,roger wauters,260613622,2020-02-22 11:14:59,oostduinkerke,city,"Lennik, Belgi",Belgi
9,115.85340500000001,-31.95635,expotradeglobal,260613977,2020-03-04 01:42:32,Australia/Middle East,poi,Perth Convention & Exhibition Centre,Australia
27260,-81.526924,30.257689000000003,Laura Wright,2606140862,2020-04-10 22:31:31,"Florida, USA",poi,The Cheesecake Factory,United States
26900,-86.13660949999998,40.0357415,Ilsa,2606140914,2020-03-24 21:09:21,,city,"Westfield, IN",United States
193,100.634252,13.954926, ,260614151,2020-04-28 10:52:20,,city,"Khu Khot, Thailand",Thailand
205,-3.1215439999999997,54.39514499999999,Nick Bod,26061418,2020-03-19 13:04:50,Yorkshire,poi,Swirl How,United Kingdom
22220,-94.2187445,36.3739955,Cody Allen Bryan,260614268,2020-04-17 00:47:49,"Bentonville, AR",city,"Bentonville, AR",United States
21,-46.51211650000001,-22.5984895,Lil Gee,2606143794,2020-02-14 15:45:00,019,city,"Socorro, Brasil",Brasil
24,-122.5390695,49.260203999999995,Margaret Cleaver,260614465,2020-04-06 13:55:29,Maple Ridge B.C. Canada,city,"Maple Ridge, British Columbia",Canada
88,130.97350799999998,34.142483,,2606146987,2020-02-20 15:18:26,,city, ,
151,3.39583,6.45306,OLAPOBYBEAUTYHUB,26061482,2020-05-16 07:26:29,"T: 6.521851,3.328165",city,"Lagos, Nigeria",Nigeria
88,139.7004,35.689526,,260614978,2020-03-28 04:37:43,,poi,JR  (JR Shinjuku Sta.),
12260,-82.1142,33.471428,TheModeLessTraveled,2606150233,2020-03-01 22:49:08,"Everywhere, USA",city,"Augusta, GA",United States
15260,-81.43611275,31.36925701,TheModeLessTraveled,2606150233,2020-03-06 03:41:34,"Everywhere, USA",city,"Darien, GA",United States
45300,-82.3507,28.1787,TheModeLessTraveled,2606150233,2020-03-09 16:22:45,"Everywhere, USA",city,"Wesley Chapel, FL",United States
45220,-84.5847,30.5853,TheModeLessTraveled,2606150233,2020-04-21 12:48:09,"Everywhere, USA",city,"Quincy, FL",United States
22380,-111.6509,35.1992,TheModeLessTraveled,2606150233,2020-04-24 15:40:12,"Everywhere, USA",city,"Flagstaff, AZ",United States
29820,-115.149,36.1675,TheModeLessTraveled,2606150233,2020-05-20 06:02:09,"Everywhere, USA",city,"Las Vegas, NV",United States
23420,-118.979,37.6369,TheModeLessTraveled,2606150233,2020-05-21 00:22:27,"Everywhere, USA",city,"Mammoth Lakes, CA",United States
175,40.1755065,29.896484499999996, ,2606150244,2020-03-04 14:03:42,,city,",   ",  
8,-58.9846755,-27.452821500000002,Emalidic ,2606152241,2020-02-21 21:30:45,"Chaco, Argentina",city,"Resistencia, Argentina",Argentina
60,27.673748,62.99783299999999,Pekka Ritvanen,2606155440,2020-04-12 19:07:21,,city,"Kuopio, Suomi",Suomi
71,6.7667,51.4333,Karen Keyhani,2606156899,2020-06-03 17:39:01,Iran,city,"Duisburg, Germany",Germany
41700,-98.104814,29.737035, ,2606156934,2020-05-29 13:40:15,"San Antonio, TX",poi,Gruene River Grill,United States
12420,-97.754724,30.3233455, ,2606156934,2020-05-30 16:21:56,"San Antonio, TX",city,"Austin, TX",United States
41700,-98.5406515,29.417501, ,2606156934,2020-06-01 05:25:21,"San Antonio, TX",city,"San Antonio, TX",United States
222,110.3451535,-7.736615,Radika Tri Dewa,260615865,2020-03-31 05:50:02,,city,"Mlati, Indonesia",Indonesia
88,135.5212205,34.787812,,260616028,2020-03-12 01:03:53,2-32-303,city, ,
33100,-80.14917249999999,26.150368,wmpd411,2606160367,2020-04-09 18:55:46,"Wilton Manors, FL",city,"Fort Lauderdale, FL",United States
205,-1.6344325000000002,54.779434,BearparkParishCounc,2606160510,2020-02-22 12:53:22,"Bearpark, England",city,"Bearpark, England",United Kingdom
88,139.5781,35.4624575,,260616182,2020-03-05 14:51:58,,city,  ,
21,-52.9788145,-33.189349,Al Osandabarz,2606162097,2020-03-31 15:32:22,"Rio Grande do Sul, Brasil",city,"Santa Vitria do Palmar, Brasil",Brasil
41860,-122.275,37.8718,David Chang,260616221,2020-04-06 02:06:12,"Berkeley, CA",city,"Berkeley, CA",United States
23420,-119.7824645,36.786042,alan ,260616238,2020-02-26 17:42:57,,city,"Fresno, CA",United States
222,112.79437450000002,-7.341717500000001,fiyaaa,260616294,2020-03-01 10:40:33,Surabaya,city,"Gunung Anyar, Indonesia",Indonesia
12060,-84.43310600000001,33.7671945,NCR Corporation,26061631,2020-02-21 15:36:22,"Atlanta, GA",city,"Atlanta, GA",United States
48620,-97.323666,37.629257,kenny,2606164285,2020-02-26 15:53:58,,poi,Wells Alternative Middle School,United States
200,29.414521500000003,40.806087,Ayhan Baba,2606164539,2020-02-15 11:58:06,,city,"Gebze, Trkiye",Trkiye
24,-123.12661000000001,49.27986,Anders Falk,260616513,2020-02-21 03:36:29,Vancouver B.C.,poi,Sheraton Vancouver Wall Centre,Canada
200,30.005726,40.69223,DA,2606165647,2020-04-26 20:58:55,STANBUL,poi,Darda,Trkiye
24,-79.41824,44.60658,Chris Spencer,2606168172,2020-02-23 12:58:58,"Somewhere, Ontario",city,"Orillia, Ontario",Canada
19740,-104.9220935,39.713563,Matt Moore,260616846,2020-02-14 14:48:46,"Denver, CO",city,"Denver, CO",United States
22660,-105.51899499999999,40.382956,Matt Moore,260616846,2020-03-21 18:07:55,"Denver, CO",poi,Stanley Hotel,United States
19740,-105.36662700000001,39.654325,Matt Moore,260616846,2020-04-19 17:40:02,"Denver, CO",poi,Elk Meadow Park Stagecoach Trailhead,United States
16940,-104.787092,41.1352835,Matt Moore,260616846,2020-04-25 18:12:32,"Denver, CO",city,"Cheyenne, WY",United States
19740,-104.9220935,39.713563,Matt Moore,260616846,2020-04-26 21:36:55,"Denver, CO",city,"Denver, CO",United States
22660,-105.556725,40.273363,Matt Moore,260616846,2020-05-30 19:24:45,"Denver, CO",poi,Rocky Mountain National Park Longs Peak Entrance,United States
21,-43.972484,-19.864622,Higo ,2606169225,2020-02-16 21:58:10,"BH CITY,cidade do Galo...",poi,Estdio Governador Magalhes Pinto (Mineiro),Brasil
26900,-86.14184625,39.65783035,Shay,26061697,2020-02-14 21:47:59,Your moms house,city,"Indianapolis, IN",United States
151,3.410566,6.4090110000000005,KingDav,260616980,2020-03-27 09:37:41,"Lagos, Nigeria",poi,Eko Pearl Towers,Nigeria
9,145.0531355,-37.9725665,K,260617021,2020-02-20 22:13:02,,city,"Melbourne, Victoria",Australia
37980,-75.6683,40.2655,Muse of Booze,2606171029,2020-02-15 19:17:53,,city,"Pottstown, PA",United States
39740,-75.6389,40.335,Muse of Booze,2606171029,2020-03-15 01:10:51,,city,"Boyertown, PA",United States
35620,-74.3798765,41.4501055,big dick daddy,2606171213,2020-03-10 02:51:54,United States,city,"Mechanicstown, NY",United States
42660,-122.3306025,47.614816999999995,us,2606171461,2020-02-24 14:13:09,US,city,"Seattle, WA",United States
119,-99.2115105,19.4299345,@chilakillerscdmx,2606171922,2020-02-16 14:51:54,Av revolucion  #23 Tacubaya,city,"Miguel Hidalgo, Distrito Federal",Mxico
9,145.0531355,-37.9725665,J.G.R,260617336,2020-02-18 08:55:43,"melboune, Australia",city,"Melbourne, Victoria",Australia
171,120.9839865,14.5914565,dex,260617344,2020-02-16 02:17:09,"Quezon City,Philippines",city,"Manila City, National Capital Region",Republic of the Philippines
38900,-122.630908,45.536402,mina ,2606173760,2020-02-20 22:06:51,"Portland, OR",city,"Portland, OR",United States
31080,-118.82314699999999,34.015566,mina ,2606173760,2020-05-24 05:00:01,,poi,Zuma Beach,United States
222,107.6158815,-6.8817675000000005,Rizki Firdaus,260617534,2020-03-09 15:17:49,"Pretoria, South Africa",city,"Coblong, Indonesia",Indonesia
12420,-97.8083795,30.455692,Christina Lublin,260617801,2020-04-10 18:06:25,,city,"Anderson Mill, TX",United States
88,136.948527,34.9677375,DQN,2606180654,2020-02-14 14:37:36, ,city, ,
33340,-88.106462,43.105018,WATER.LO,2606181576,2020-05-07 19:44:47,,poi,Your Heart,United States
24,-115.5688185,51.177144,Lentz,260618230,2020-06-08 17:20:35,,city,"Banff, Alberta",Canada
42660,-122.2054375,47.306631,Eddie Allen Webb,260618442,2020-03-02 11:29:19,"Graham,Wa",city,"Auburn, WA",United States
16980,-88.040002,41.791584,MWL Archives,2606184516,2020-02-24 20:01:57,The Midwest,city,"Downers Grove, IL",United States
