currentGEOID,lon,lat,name,author_Id,created_at,location,place_type,place_full_name,place_country
21,-51.1593095,-30.099836,MR 15 em (),4081836389,2020-05-31 14:35:20,Porto Alegre/Zona leste,city,"Porto Alegre, Brasil",Brasil
200,41.2655875,39.9100375,Emre KURT,4081840641,2020-02-28 19:44:05,"Erzurum, Trkiye",city,"Erzurum, Trkiye",Trkiye
65,7.2530225,43.703021,Daouda Kon,408184128,2020-04-14 11:31:12,Nice,city,"Nice, France",France
41180,-89.99784,38.66329,CatherineCrankypants,408184213,2020-03-17 15:10:19,Southern Illinois,city,"Collinsville, IL",United States
-9999,-109.54972222,38.5725,CatherineCrankypants,408184213,2020-06-02 02:07:37,Southern Illinois,city,"Moab, UT",United States
171,120.995337,14.4388285,Mikey GT,40818443,2020-02-14 06:14:26,,city,"Las Pinas City, National Capital Region",Republic of the Philippines
88,139.55054750000002,36.17368,Yukikosugishita,408185128,2020-02-16 07:19:43,,city, ,
38,-74.24367099999999,4.2622835,juan manuel amaya,408185176,2020-02-21 17:22:34,Bogota,city,"Bogot, D.C., Colombia",Colombia
17460,-82.019612,41.3824635,Vince Bellomo,408185451,2020-04-03 20:31:13,United States,city,"North Ridgeville, OH",United States
186,-0.79618,38.4753,Alex La Sandwich,408185591,2020-03-18 13:42:22,Elda,city,"Elda, Espaa",Spain
41700,-98.41055300000001,29.537442,Metal Mina,40818561,2020-03-01 18:42:44,"Dallas, TX.",city,"San Antonio, TX",United States
88,136.73689169,35.35588738,,40818570,2020-02-23 05:12:03,,city, ,
222,106.977346,-6.201172,Deon Oxivar,40818573,2020-02-24 17:55:56,Indonesia,city,"Bekasi Barat, Indonesia",Indonesia
85,11.091269500000001,43.8826005,Deon Oxivar,40818573,2020-03-03 21:26:12,Indonesia,city,"Prato, Tuscany",Italy
222,106.977346,-6.201172,Deon Oxivar,40818573,2020-03-17 12:14:30,Indonesia,city,"Bekasi Barat, Indonesia",Indonesia
186,-3.6459129999999997,40.471564,  ,408186162,2020-05-11 20:12:39,,neighborhood,"Pinar del Rey, Madrid",Espaa
38,-74.04586858,4.76230292,Marcelita,408186229,2020-04-30 14:28:25,Bogota,city,"Bogot, D.C., Colombia",Colombia
117,56.631961,24.279028500000006, ,4081863478,2020-02-18 19:57:22,,city,"Sohar, Oman",Oman
19820,-83.0507,42.3368,Pablo Pleasure ,408186349,2020-02-27 19:10:04,"Detroit, MI",city,"Detroit, MI",United States
38060,-111.7385665,33.295215,Splash Bandicoot ,408186608,2020-02-14 04:27:45,NCVAAZ,city,"Gilbert, AZ",United States
38,-76.59739499999999,1.1345425,Jairo Eduardo Castro,408186626,2020-03-02 00:17:32,Mocoa-Putumayo-Colombia,city,"Mocoa, Colombia",Colombia
160,-77.03603625,-12.12715166,OdVictorSeijas,408187160,2020-02-15 00:11:56,POZ-VENEZUELA,city,"Miraflores, Peru",Peru
222,96.130098,4.131978,mardalena,408187188,2020-04-08 00:32:54,Meulaboh aceh,poi,Pantai Ujung Karang ( Meulaboh - Aceh Barat ),Indonesia
119,-99.2115105,19.4299345,@Leviatan,408187392,2020-02-27 21:31:21,cdmx,city,"Miguel Hidalgo, Distrito Federal",Mxico
71,7.624091,51.9501445,Annechile,40818776,2020-02-22 20:35:04,Germany,city,"Mnster, Germany",Germany
88,141.261321,39.746962,,4081879033,2020-02-14 17:46:16, ,city,"Morioka-shi, Iwate",Japan
38,-74.0794,4.5997,julio echeverry ,408187925,2020-02-18 01:50:11,CD MEXICO ,city,"Bogot, D.C., Colombia",Colombia
40060,-77.58889350000001,37.599557,EJ MousE,408188125,2020-02-17 17:59:36,Out of site Out if mind ,city,"Tuckahoe, VA",United States
120,101.57849499999999,3.1565125,Tan Seng Giaw,40818836,2020-02-25 06:13:53,,city,"Sungai Buloh, Selangor",Malaysia
43620,-97.1147,44.0077,Andy Meyer,40818841,2020-06-09 01:51:45,South Dakota,city,"Madison, SD",United States
33100,-80.2333285,25.7823535,  ,4081884389,2020-03-13 02:36:13,"Bali, Indonesia",city,"Miami, FL",United States
27140,-90.1580165,32.230987,  ,4081884389,2020-03-15 11:02:46,jxn,city,"Jackson, MS",United States
26580,-82.4398345,38.407664000000004,Sportsman,408188752,2020-02-15 21:01:31,"Chesapeake, OH",city,"Huntington, WV",United States
24,-79.27256949999999,43.629311,Becca McNeil,408188801,2020-02-15 03:44:13,Toronto,city,"Toronto, Ontario",Canada
33460,-93.3478,44.9483,Jenn Chuchvara,408189319,2020-04-26 20:16:58,Flavortown,city,"St Louis Park, MN",United States
12060,-84.31507049999998,33.8745435,Q.Samule Harris,408189573,2020-02-16 03:42:29,,city,"Brookhaven, GA",United States
37900,-89.6347035,40.698518,Zakrajsek,408189623,2020-02-14 15:00:37,the DUB (aka West Peoria),city,"West Peoria, IL",United States
21,-54.4582245,-21.6507585,@JP,4081896616,2020-03-19 04:56:27,ms,city,"Rio Brilhante, Brasil",Brasil
45820,-95.6907325,39.037579,Tonya Foster,408189796,2020-02-20 12:52:00,"Topeka, KS",city,"Topeka, KS",United States
31740,-96.5745935,39.2099285,Tonya Foster,408189796,2020-03-05 16:04:07,"Topeka, KS",city,"Manhattan, KS",United States
45820,-95.6907325,39.037579,Tonya Foster,408189796,2020-03-16 16:21:51,"Topeka, KS",city,"Topeka, KS",United States
49,-80.091193,-2.512995,ROBERTO ROSALES,408189993,2020-02-18 12:47:42,Quito-Ecuador,city,"Guayaquil, Ecuador",Ecuador
39300,-71.46396800000001,41.768938,Tony Marino,408190506,2020-04-04 13:33:08,,city,"Cranston, RI",United States
24,-113.44746950000001,53.802427,pat sasseville,408190567,2020-02-15 17:05:47,Morinville/ edmonton,city,"Sturgeon County, Alberta",Canada
24,-114.087851,51.027664,Cam Hayden,408190643,2020-03-03 00:08:02,Calgary,city,"Calgary, Alberta",Canada
35620,-73.97943833,40.75907167,Jo ,40819079,2020-02-19 22:57:08,"Juneau, AK",city,"Manhattan, NY",United States
119,-105.43798203,20.86824741,Jo ,40819079,2020-05-14 01:48:15,"Juneau, AK",city,"Baha de Banderas, Nayarit",Mexico
27940,-134.40679,58.299730000000004,Jo ,40819079,2020-06-07 03:25:20,"Juneau, AK",city,"Juneau, AK",United States
33100,-80.1418,26.1358,Sophia Hamilton,408190874,2020-02-23 18:11:41,,city,"Fort Lauderdale, FL",United States
36740,-81.3417295,28.6001855,soph,408190874,2020-05-10 00:13:36,,city,"Winter Park, FL",United States
18140,-82.985772,39.9946835,soph,408190874,2020-05-31 22:30:35,,city,"Columbus, OH",United States
88,141.50051499999998,40.476677,,408190922,2020-03-27 22:48:32,,city, ,
222,107.451054,-6.897296000000001,,408190928,2020-02-14 12:43:20,Ciwidey - Batujajar,city,"Batujajar, Indonesia",Indonesia
82,80.232955,13.104701,INDRAKUMAR,4081910180,2020-02-20 05:19:10,,city,"Perambur Purasavakam, India",India
91,36.9516675,-0.4240555,James Hill,40819144,2020-02-17 15:39:43,,city,"Nyeri, Kenya",Kenya
38,-76.67783299999998,3.4212985000000002,Claudia Lorena Muoz Orozco,408191794,2020-05-24 01:51:30,Cali,city,"Cali, Colombia",Colombia
205,-0.882951,52.238853999999996,Oduneye Olalekan,408191822,2020-05-05 19:11:34,"Northampton, England",city,"Northampton, England",United Kingdom
14460,-71.0887125,42.3136695,Nick,408192065,2020-02-15 01:56:29,"Boston, MA",city,"Boston, MA",United States
35300,-72.81680250000001,41.4565815,Nick,408192065,2020-04-18 21:38:30,"Boston, MA",city,"Wallingford, CT",United States
14460,-71.0887125,42.3136695,Nick,408192065,2020-04-19 01:18:35,"Boston, MA",city,"Boston, MA",United States
36740,-81.3183475,28.654408500000002,loading......,408192150,2020-02-19 14:49:41,touch your nose nigga!,city,"Casselberry, FL",United States
88,139.7091805,35.701657,,408192418,2020-04-03 21:22:56,,city,"Shinjuku-ku, Tokyo",Japan
16980,-87.732013,41.8335845,Isaiah Gransberry,408193013,2020-03-13 20:27:59,,city,"Chicago, IL",United States
40900,-121.4393835,38.410428,Old Man J,408193349,2020-02-19 22:08:07,,city,"Laguna, CA",United States
222,104.0281,1.1248,  ,408194188,2020-04-02 02:59:43,"Kota Batam, Kepulauan Riau",city,"Lubuk Baja, Indonesia",Indonesia
49620,-76.69522850000001,39.933444,Lyndsay Barna,408194363,2020-02-16 23:10:24,,city,"Tyler Run, PA",United States
28580,-81.7707575,24.5693445,Lyndsay Barna,408194363,2020-03-10 14:45:01,,city,"Key West, FL",United States
33100,-80.1677155,26.062405,Lyndsay Barna,408194363,2020-03-14 16:11:34,,city,"Dania Beach, FL",United States
16740,-80.68503100000001,35.351186,Lyndsay Barna,408194363,2020-05-24 16:02:06,,poi,Charlotte Motor Speedway,United States
222,119.93179350000001,-0.8720855000000001,Eka R. Ramadhanty,408194402,2020-05-22 06:03:58,"palu, sulawesi tengah",city,"East Palu, Indonesia",Indonesia
47900,-76.920117,38.6035215,Jacob,408194472,2020-02-22 18:21:53,Maryland,city,"St Charles, MD",United States
12060,-84.404222,33.656244,Jacob,408194472,2020-03-06 14:45:40,Maryland,poi,Dwarf House,United States
47900,-76.920117,38.6035215,Jacob,408194472,2020-03-16 17:57:28,Maryland,city,"St Charles, MD",United States
205,-4.261647,55.450385,Rachel Sinclair,4081946879,2020-02-14 15:27:02,,city,"Cumnock, Scotland",United Kingdom
26660,-95.5527,30.7238,Conall Barnard  D.A.N.B. Founder,408194888,2020-03-04 21:06:55,"Huntsville, TX",city,"Huntsville, TX",United States
119,-99.171853,19.400337,the girl with the thorn in her side,408195281,2020-02-26 01:53:13,Mexico,poi,La Chula,
41100,-113.5777655,37.0855815,~DiamondDave~,408195334,2020-03-12 02:38:26,"Los Angeles, CA",city,"St George, UT",United States
16260,-113.0923375,37.6917225,~DiamondDave~,408195334,2020-04-04 01:40:56,"Los Angeles, CA",city,"Cedar City, UT",United States
30700,-96.6965625,40.803235,addison grace.,408195854,2020-05-20 03:03:06,402,city,"Lincoln, NE",United States
9,152.9931965,-27.382143,Mindy Evans,40819617,2020-02-16 07:05:10,Australia,city,"Brisbane, Queensland",Australia
88,139.15207003,37.88223711,Sadashi Torimoto,408196305,2020-03-09 03:51:35,,city,  ,
120,101.6536755,3.0329245,Adinda,408196331,2020-05-16 12:22:54,Tawau Sabah,city,"Petaling, Selangor",Malaysia
38060,-111.5605185,33.1982355,Hayley Baker,408196472,2020-02-15 00:35:34,"Queen Creek, AZ",city,"San Tan Valley, AZ",United States
88,139.81707356,35.88429692,,408197057,2020-03-20 01:23:00,,city, ,
38,-75.606961,6.3605795,Alexis Hdz,408197235,2020-03-01 04:17:20,Colombia,city,"Bello, Colombia",Colombia
35620,-73.978382,40.8244895,Michael Saitowitz,408197358,2020-04-21 13:24:48,"Edgewater, NJ",city,"Edgewater, NJ",United States
14460,-71.052126,42.405331,Vitt,408197940,2020-03-16 18:47:54,"Everett, MA",city,"Everett, MA",United States
24,-75.80014150000001,45.248791,Rachel Forrest,408198029,2020-03-08 15:34:45,"Ottawa, ON",city,"Ottawa, Ontario",Canada
71,13.4246065,52.506701,Saskia Reis,408198245,2020-04-08 06:04:26,BERLIN | LONDON,city,"Berlin, Germany",Germany
184,103.91008599999999,1.328487,hadeelmish,40819837,2020-05-24 07:00:11,saudi arabia,poi,Blk 101 Bedok Reservoir Road,Singapore
120,101.398355,3.1133740000000003,Aidi,408198371,2020-02-23 11:56:32,astro arena,city,"Kapar, Selangor",Malaysia
88,127.6876045,26.2112665,,4081984460,2020-02-18 18:08:32,,city, ,
222,106.666142,-6.118511,husni massaid,408198536,2020-02-22 03:12:02,depok,poi,Terminal 3,
33,-70.64592597,-33.557185499999996, Esteban Marcel,408198584,2020-02-18 02:02:50,"Santiago, Chile",city,"La Pintana, Chile",Chile
38,-74.04495478,4.67984518, Esteban Marcel,408198584,2020-04-28 20:39:51,"Santiago, Chile",city,"Bogot, D.C., Colombia",Colombia
33,-70.64471322,-33.52254358, Esteban Marcel,408198584,2020-05-11 17:00:34,"Santiago, Chile",city,"San Ramn, Chile",Chile
41860,-121.96806862,37.95047713,DLSCrossCountry,408198741,2020-03-07 19:30:19,,city,"Concord, CA",United States
31080,-118.33001000000002,33.88472,DLSCrossCountry,408198741,2020-04-21 15:51:55,,city,"Alondra Park, CA",United States
41860,-122.0770345,37.953816499999995,DLSCrossCountry,408198741,2020-05-07 01:28:43,,city,"Pleasant Hill, CA",United States
11100,-101.816092,35.211115500000005,Laura G.,408198839,2020-03-12 06:38:35,,city,"Amarillo, TX",United States
119,-100.366033,25.6502875,Laura G.,408198839,2020-05-20 13:15:04,,city,"San Pedro Garza Garca, Nuevo Len",Mexico
17980,-84.917307,32.4823035,just call me fam,408198897,2020-02-18 13:18:52,"Georgia, USA",city,"Columbus, GA",United States
161,67.09101700000001,24.930673000000002,,4081990234,2020-03-09 19:47:28,"Karachi, Pakistan",poi,Dewa Academy,Pakistan
33100,-80.285189,26.0781705,Alex ,408199126,2020-02-16 05:57:46,"Miami, FL",city,"Davie, FL",United States
119,-99.2480095,19.318042000000002,zoila lopez,408199169,2020-04-16 23:34:22,"Coyoacn, Distrito Federal",city,"lvaro Obregn, Distrito Federal",Mxico
205,-2.955045,56.476952000000004,jay,408199305,2020-03-06 10:15:04,#sideydrags,city,"Dundee, Scotland",United Kingdom
31080,-118.243,34.0522,Nathan Helberg,408199477,2020-04-03 15:14:23,"California, USA",city,"Los Angeles, CA",United States
41700,-98.5406515,29.417501,Pantherchap,408199600,2020-02-14 00:28:59,Toyota Field,city,"San Antonio, TX",United States
29820,-115.13516499999999,36.060964500000004,Pantherchap,408199600,2020-03-12 02:30:10,Toyota Field,city,"Paradise, NV",United States
38060,-111.928142,33.392883999999995,Pantherchap,408199600,2020-03-12 23:52:46,Toyota Field,city,"Tempe, AZ",United States
43500,-108.706712,32.348428999999996,Pantherchap,408199600,2020-03-13 13:02:34,Toyota Field,city,"Lordsburg, NM",United States
21340,-106.4174305,31.793368,Pantherchap,408199600,2020-03-13 18:34:59,Toyota Field,city,"El Paso, TX",United States
41700,-98.5406515,29.417501,Pantherchap,408199600,2020-03-14 14:40:19,Toyota Field,city,"San Antonio, TX",United States
222,106.90055600000001,-6.245278,Rifky A. Irmanda,40819980,2020-02-15 05:43:07,Jakarta,city,"Makassar, Indonesia",Indonesia
31080,-118.2445,34.0564,Chiara Maya,40819983,2020-06-02 17:27:51,"West Hollywood, California",city,"Los Angeles, CA",United States
9,153.028,-27.4678,lisa scharoun,408199914,2020-03-06 13:27:22,"Brisbane, Queensland",city,"Brisbane, Queensland",Australia
31080,-118.3512175,33.8337145,Mental Health Mam ,408199916,2020-02-14 19:52:37,"Westwood, Los Angeles",city,"Torrance, CA",United States
35300,-72.9209165,41.39347,Richard Lassen,408200112,2020-02-17 14:35:32,,city,"Hamden, CT",United States
17460,-81.434934,41.524692,Katie Bucur,408200275,2020-04-28 00:40:19,Ohio,poi,Target,United States
88,139.79390940000002,35.70640220000001,,4082005034,2020-03-16 04:40:58,,city, ,
35620,-73.9685415,40.780709,DJ ,408200521,2020-02-21 01:57:27,"Richmond, VA",city,"Manhattan, NY",United States
40060,-77.49317049999998,37.529883,DJ ,408200521,2020-02-24 18:38:03,"Richmond, VA",city,"Richmond, VA",United States
35620,-73.9685415,40.780709,DJ ,408200521,2020-03-03 20:37:43,"Richmond, VA",city,"Manhattan, NY",United States
40060,-77.49317049999998,37.529883,DJ ,408200521,2020-03-05 19:24:48,"Richmond, VA",city,"Richmond, VA",United States
47260,-76.069946,36.8025415,DJ ,408200521,2020-03-09 12:08:10,"Richmond, VA",city,"Virginia Beach, VA",United States
35620,-73.8311875,40.6708795,DJ ,408200521,2020-03-11 21:59:02,"Richmond, VA",city,"Queens, NY",United States
47260,-76.069946,36.8025415,DJ ,408200521,2020-03-13 22:20:15,"Richmond, VA",city,"Virginia Beach, VA",United States
35620,-73.9685415,40.780709,DJ ,408200521,2020-03-14 00:24:09,"Richmond, VA",city,"Manhattan, NY",United States
40060,-77.49317049999998,37.529883,DJ ,408200521,2020-03-14 03:55:55,"Richmond, VA",city,"Richmond, VA",United States
47260,-76.069946,36.8025415,DJ ,408200521,2020-03-15 23:04:03,"Richmond, VA",city,"Virginia Beach, VA",United States
222,106.5968135,-7.026044000000001,D Faisal Tanjung,408200633,2020-03-25 22:14:45,INDONESIA,city,"Pelabuhan Ratu, Indonesia",Indonesia
31080,-118.4119065,34.0207895,Tierra Marsh,408200805,2020-04-15 04:22:06,"Los Angeles, CA",city,"Los Angeles, CA",United States
169,26.101999999999997,44.4325,tuta adrian,4082008217,2020-04-20 21:33:59,,city,"Bucureti, Romnia",Romnia
35620,-73.8604,40.839, Wander-_-YT ,408201030,2020-02-17 20:39:29,"bronx, estados unidos ",city,"Bronx, NY",Estados Unidos
48,-69.8667,18.5, Wander-_-YT ,408201030,2020-04-28 12:28:53,"bronx, estados unidos ",city,"anto Domingo de Guzmn, Dominican Republic",Dominican Republic
35620,-74.0064,40.7142, Wander-_-YT ,408201030,2020-04-29 18:17:55,"bronx, estados unidos ",city,"Manhattan, NY",Estados Unidos
45940,-74.7561,40.2217, Wander-_-YT ,408201030,2020-06-03 17:30:04,"bronx, estados unidos ",city,"Trenton, NJ",Estados Unidos
21,-43.441578,-22.911421500000003,AL-47 ,4082011288,2020-04-15 03:39:06,"Realengo, Rio de Janeiro",city,"Rio de Janeiro, Brasil",Brasil
152,5.829937,50.96381150000001,Ralf Franssen,40820117,2020-03-19 18:43:54,Geleen,neighborhood,"Kluis, Sittard-Geleen",Nederland
222,110.374721,-6.966703999999999,"Allif, Faqih",408201170,2020-02-16 01:25:44,"Semarang, Jawa Tengah",poi,Ahmad Yani International Airport (SRG),Indonesia
175,47.108287,17.4830095,omsalah,408201193,2020-02-16 14:22:48,Sharorah.. ,city,",   ",  
58,15.421325,50.688882,josefbalcar,408201299,2020-02-24 08:34:40,ceska republika,poi,Horn T,esk republika
222,112.73743950000001,-7.273555,#janganinjakterumbukarang,408201359,2020-03-14 12:57:37,"Stay - Kupang, NTT - Indonesia",city,"Tegalsari, Indonesia",Indonesia
211,-72.219761,7.7694945,cesar  sierra balza,408202327,2020-02-25 13:48:57,,city,"San Cristbal, Venezuela",Venezuela
88,139.9162875,35.873705,,408202514,2020-02-14 15:30:13,,city, ,
158,172.63948059999998,-43.5326309,Camille Solari,40820320,2020-02-23 05:28:21,"Los Angeles, Boston",city,"Christchurch City, New Zealand",New Zealand
205,-1.826198,51.17906,jermaine yne calderon,40820336,2020-03-14 18:51:47,Philippines,poi,Stonehenge,United Kingdom
171,120.48951799999999,16.044213,jermaine yne calderon,40820336,2020-04-12 16:38:12,Philippines,poi,"Manaoag Shrine, Pangasinan",Republic of the Philippines
205,-1.2334334999999998,51.75428599999999,jermaine yne calderon,40820336,2020-04-22 12:21:48,Philippines,city,"Oxford, England",United Kingdom
11020,-78.24229150000001,40.6760435,Sean McGovern,408203421,2020-05-07 01:07:18,"State College, PA",city,"Tyrone, PA",United States
44300,-77.8581095,40.7835375,Sean McGovern,408203421,2020-05-27 11:54:43,"State College, PA",city,"State College, PA",United States
186,-16.72048,28.3678,Edwin Rivera,40820366,2020-02-24 16:53:07,"Puerto Rico, USA",city,"Icod de los Vinos, Espaa",Spain
41980,-66.15,18.38333333,Edwin Rivera,40820366,2020-05-03 23:34:16,"Puerto Rico, USA",city,"Minillas, USA",United States
171,120.714863,14.821411999999999,mya,408203876,2020-02-15 07:17:47,"hagonoy, bulacan",city,"Hagonoy, Central Luzon",Republic of the Philippines
41740,-117.1585,32.7155,Anakin,408203934,2020-03-20 21:48:53,"San Diego, California",city,"San Diego, CA",United States
88,136.855393,35.079181000000005, ,408204194,2020-03-13 01:11:08,/,city,  ,
173,37.42764250000001,55.7547875, ,408204285,2020-04-02 20:21:57,,city,", ",
222,109.8035235,-7.075811999999999,nur khikmatunnisa',408204353,2020-03-06 23:29:58,,city,"Bandar, Indonesia",Indonesia
80,19.129828,47.4812305,5555future,4082046309,2020-02-16 20:30:47,"Woking, South East",city,"Budapest, Hungary",Hungary
205,-0.5488354999999999,51.316522,5555future,4082046309,2020-03-24 09:32:15,"Woking, South East",city,"Woking, South East",United Kingdom
12580,-76.5676841,39.27672074,Miss Tee Tee Butts,40820476,2020-03-15 00:26:52,Ravens Nation ,city,"Baltimore, MD",United States
119,-100.87473198,21.98958573,Monse Garca,408204850,2020-03-14 00:59:23,MADhattan ,city,"Villa de Reyes, San Luis Potos",Mxico
31080,-117.7823605,33.689732,Aruhn Venkat,408204906,2020-05-07 23:14:53,"Irvine, CA",city,"Irvine, CA",United States
48,-69.8927,18.4715,By Jimenez,40820501,2020-02-16 18:37:42,Republica Dominicana,city,"anto Domingo de Guzmn, Dominican Republic",Dominican Republic
82,74.93307899999998,32.991907,ankush heera,408205743,2020-05-04 11:26:12,katra (j&k),city,"Katra, Jammu And Kashmir",
171,120.385819,14.602492000000002,Jose Victor Puno,40820593,2020-04-04 11:05:10,"Manila, Philippines",poi,Las Casas Filipinas de Acuzar,Republic of the Philippines
16740,-80.8467855,35.209059,Micah Gaddy,408205958,2020-02-27 16:33:39,"Charlotte, NC",city,"Charlotte, NC",United States
12260,-82.095304,33.526322,Carrie,408206010,2020-02-15 17:15:20,Augusta GA,city,"Martinez, GA",United States
119,-103.335882,20.676652,Nats,4082061794,2020-03-17 23:08:06,"Guadalajara, Jalisco",city,"Guadalajara, Jalisco",Mexico
188,33.2996675,14.741141,Ahmed Broxy,4082062156,2020-02-14 08:15:29,"Bergen, NY",city,Hasiheisa,
40900,-121.31248899999999,38.761624,Ash ,408206239,2020-02-20 00:40:03,"University of Nevada, Reno",poi,Golds Gym,United States
82,73.113833,18.966801,Pritesh Bhure,408206373,2020-03-11 06:31:07,Mumbai,city,"Panvel, India",India
88,139.69888896,35.69565035,Hiro,40820678,2020-04-02 13:39:02,Tokyo,city, ,
16980,-87.685764,41.964392,DBaboorian,40820702,2020-02-18 22:05:15,Chicago,poi,Old Town School of Folk Music,United States
33,-70.5189175,-33.425400499999995,Roberto Carlos,408207208,2020-03-22 12:37:59,Chile,city,"Las Condes, Chile",Chile
24,-52.829425,47.4826065,Michael Martin,408207270,2020-02-22 05:37:44,"St. John's, Newfoundland and Labrador",city,"St. John's, Newfoundland and Labrador",Canada
8,-57.5814305,-38.01158750000001,maria laura paso,408207272,2020-03-20 16:11:19,,city,"Mar del Plata, Argentina",Argentina
82,75.85974300000002,25.021984,ghanshyam meena,4082074338,2020-03-26 03:46:10,,city,"Kota, India",India
38900,-122.630908,45.536402,space cadet,40820783,2020-03-16 09:48:23,Black Lives Matter!,city,"Portland, OR",United States
119,-99.22531586,20.21777444,La nia que llora en tus fiestas,408208058,2020-04-26 03:00:07,"Mixquiahuala de Jurez, Hidalg",city,"Mixquiahuala de Jurez, Hidalgo",Mxico
119,-101.15701589,22.40396182,rika Martnez,408208875,2020-03-30 19:55:22,Mxico,city,"Ahualulco, San Luis Potos",Mxico
88,139.662506,35.2601965,Thomas Shelby,408209006,2020-02-19 10:11:31,FW TX,city,"Yokosuka-shi, Kanagawa",Japan
222,110.398885,-7.760046000000001,zatidaily,408209416,2020-06-03 11:10:26,Stairway to Heaven,poi,Hakata Ikkousha,Indonesia
38060,-111.96819305,33.68171107,Foundation Fitness,408209615,2020-02-14 16:42:37,"Scottsdale, AZ",city,"Phoenix, AZ",United States
41860,-122.27944063,37.84622252,Foundation Fitness,408209615,2020-03-29 19:13:27,"Scottsdale, AZ",city,"Oakland, CA",United States
38060,-111.98208036,33.33370522,Foundation Fitness,408209615,2020-04-19 03:18:45,"Scottsdale, AZ",city,"Phoenix, AZ",United States
24,-126.5625,51.17934298,Foundation Fitness,408209615,2020-05-24 13:12:42,"Scottsdale, AZ",city,"Mount Waddington A, British Columbia",Canada
19740,-104.9220935,39.713563,ray,408209635,2020-02-14 00:50:04,"Colorado, USA",city,"Denver, CO",United States
19100,-97.079654,32.931834,el quesito michoacano,408209635,2020-05-19 15:03:24,"Colorado, USA",city,"Grapevine, TX",United States
119,-101.27577,19.652724,el quesito michoacano,408209635,2020-05-25 17:39:33,"Colorado, USA",city,"Morelia, Michoacn de Ocampo",Mexico
19740,-104.9220935,39.713563,el quesito michoacano,408209635,2020-06-04 19:19:23,"Colorado, USA",city,"Denver, CO",United States
186,-3.8953235,40.4169805,Ricardo Daz Martn,4082099830,2020-02-16 13:52:50,Boadilla del Monte,city,"Boadilla del Monte, Espaa",Espaa
120,110.15458999999998,1.41598,Felix Agustus,408210470,2020-04-19 00:15:16,"Bau, Sarawak",city,"Bau, Sarawak",Malaysia
38,-74.24367099999999,4.2622835,ANDUN,408210569,2020-03-13 21:27:13,Bogot,city,"Bogot, D.C., Colombia",Colombia
222,112.73937088,-7.33670735,Mr.Branddy Official,408210801,2020-03-03 15:04:11,Jakarta,city,"Wonocolo, Indonesia",Indonesia
41740,-116.78533700000001,33.013825,Shellz Dezign Photography & Dogs,40821107,2020-02-19 05:49:58,San Diego,city,"San Diego Country Estates, CA",United States
33,-70.55934149999999,-33.593537999999995,#elcomenTario@cido,408211072,2020-04-19 18:53:42,,city,"Puente Alto, Chile",Chile
48700,-77.063162,41.248342,GP,408211168,2020-03-04 00:14:29,,city,"Williamsport, PA",United States
172,-66.004657,18.437701, ,408211305,2020-03-10 08:37:36,bay area,poi,Luis Muoz Marn International Airport (SJU),United States
41860,-121.99864450000001,37.973327000000005, ,408211305,2020-04-19 03:12:14,bay area,city,"Concord, CA",United States
88,139.764033,35.6696,homie*,408211445,2020-03-21 04:44:37,Nagano  Tokyo,poi,Ginza Six,
24,-97.697232,49.9703195,golfinginstyle,408211459,2020-02-16 14:41:38,St Francois Xavier MB Can,city,"St. Franois Xavier, Manitoba",Canada
35620,-73.82726324,40.86561735,Mohamed alnzy,408211567,2020-02-28 19:16:47, ,city,"Bronx, NY",United States
33100,-80.18632685,25.77771052,Mohamed alnzy,408211567,2020-03-05 16:51:06, ,city,"Miami, FL",United States
36740,-81.47255505,28.47400355,Mohamed alnzy,408211567,2020-03-09 23:07:37, ,city,"Orlando, FL",United States
33100,-80.12221556,25.81546192,Mohamed alnzy,408211567,2020-03-11 21:47:07, ,city,"Miami Beach, FL",United States
35620,-73.87602,40.877303999999995,Mohamed alnzy,408211567,2020-03-27 21:07:56, ,city,"Bronx, NY",United States
39580,-78.657837,35.8439815,jane doe ,4082124893,2020-02-28 23:08:16,chillin,city,"Raleigh, NC",United States
205,-6.161753,54.2352545,Gareth O'Hare,4082125420,2020-02-18 22:03:34,"Rathfriland, Northern Ireland",city,"Rathfriland, Northern Ireland",United Kingdom
200,32.8183815,39.8889765,senacakir,4082126139,2020-02-22 07:32:45,Hogwarts,city,"Ankara, Trkiye",Trkiye
222,109.038827,-7.6690949999999996,eko septianto,408212759,2020-03-28 13:57:59,Cilacap,city,"Cilacap Utara, Indonesia",Indonesia
171,121.009165,14.567058,Calai Salinas Zepeda,40821300,2020-03-02 08:06:26,"Manila, Philippines",city,"Makati City, National Capital Region",Republic of the Philippines
42660,-122.149768,47.5978565,SUN JIN,4082130738,2020-03-18 05:00:37,"Seattle, WA",city,"Bellevue, WA",United States
222,120.45729874,-5.6139124,MR PRATOMO,408213835,2020-04-28 06:34:30,Jakarta Capital Region,city,"Bontobahari, Indonesia",Indonesia
13140,-94.12863349999999,30.086918,PYT,408213849,2020-05-24 18:05:54,"Beaumont, TX",city,"Beaumont, TX",United States
222,106.719303,-6.226839,Rake Gala Matahari,408214122,2020-02-16 04:44:21,,poi,Kemang Raya,Indonesia
222,107.6158815,-6.8817675000000005,Dicky Fajar Maulana,40821422,2020-04-09 08:32:31,"Bandung, Jawa Barat",city,"Coblong, Indonesia",Indonesia
38,-75.5751,6.2359,Federico,408214221,2020-02-25 14:55:39,"Medelln, Colombia",city,"Medelln, Colombia",Colombia
205,0.061121,51.6408955,Rian Wunderlin,40821437,2020-05-14 10:37:27,"London, England",city,"Loughton, East",United Kingdom
19740,-104.9220935,39.713563,Doug Hacker,408214454,2020-03-21 05:46:40,,city,"Denver, CO",United States
119,-99.2115105,19.4299345,Francisco Espinosa,40821475,2020-03-09 05:11:07,mx/bcn,city,"Miguel Hidalgo, Distrito Federal",Mexico
186,-3.684064,40.426074,migue sin..ya sabeis,408214940,2020-02-21 09:13:08,El infierno,poi,Morao Tapas (Velzquez 40),Espaa
15540,-73.22577249999999,44.4925995,Rufus Frost,408215108,2020-02-23 04:40:24,"Boston, MA",city,"Burlington, VT",United States
14460,-71.10372199999999,42.3954025,Rufus Frost,408215108,2020-02-27 13:49:18,"Boston, MA",city,"Somerville, MA",United States
24860,-82.40413427,34.86809862,blake arambula,40821566,2020-02-21 16:50:53,"South Carolina, USA",city,"Park Place, SC",United States
47940,-92.4457,42.5221,blake arambula,40821566,2020-03-14 16:53:31,"South Carolina, USA",city,"Cedar Falls, IA",United States
12420,-97.7475,30.2677,blake arambula,40821566,2020-03-19 17:53:13,"South Carolina, USA",city,"Austin, TX",United States
12060,-84.3889,33.7566,blake arambula,40821566,2020-06-09 23:32:46,"South Carolina, USA",city,"Atlanta, GA",United States
88,139.71766064,35.90294309,JUN,40821599,2020-02-16 13:25:12,,city,  ,
-9999,-34.550309000000006,-4.8747985,cansada,40821611,2020-02-14 00:10:23,"Natal, Brasil",city,"Natal, Brasil",Brasil
29820,-115.03741200000002,36.105865,Keeks,408216208,2020-04-01 01:50:18,253 | 510,city,"Whitney, NV",United States
36540,-96.053431,41.275721,Hunter,408216232,2020-02-19 02:01:25,Blissful,city,"Omaha, NE",United States
38900,-122.93553,45.530779,Breyanna Remington,408216255,2020-03-08 17:20:01,Oregon ,city,"Hillsboro, OR",United States
49,-79.9383105,-3.3140495000000003,WASHINGTON CABRERA T,408216493,2020-02-16 20:09:59,MACHALA,city,"Machala, Ecuador",Ecuador
205,-2.124884,52.587791,Lewis Botfield,4082165853,2020-02-22 22:53:47,,poi,Planet Nightclub,United Kingdom
82,77.31785,28.569118, | Siddharth | SidTree,40821700,2020-03-22 10:41:24,   ,poi,India Today Mediaplex,India
31140,-85.72234549999999,38.195555,z@zswag.com,408217128,2020-02-19 19:08:47,"Chicago, IL",city,"Louisville, KY",United States
65,3.06555033,50.63144119,Johan Verstraete,4082181333,2020-05-18 10:23:51,"Lille, France",city,"Lille, France",France
19340,-90.5876765,41.464422,JHerbie,408218162,2020-02-19 19:59:40,"Princeton, Iowa",city,"Rock Island, IL",United States
88,138.96720200000001,35.313234,k,408218312,2020-03-26 04:12:03,,poi,EXPASA (),
26900,-86.13244850000002,39.963249499999996,Matthew Huck,40821864,2020-03-04 02:42:17,"Chicago, IL",city,"Carmel, IN",United States
16980,-87.732013,41.8335845,Matthew Huck,40821864,2020-03-20 19:28:44,"Chicago, IL",city,"Chicago, IL",United States
41860,-122.31542150000001,37.552481,DTLA Eric,40821872,2020-02-16 08:36:31,"South Pasadena, CA",city,"San Mateo, CA",United States
42540,-75.66877,41.4194095,DTLA Eric,40821872,2020-05-11 01:23:43,"South Pasadena, CA",city,"Scranton, PA",United States
41860,-122.4231185,37.658798499999996,DTLA Eric,40821872,2020-05-12 23:42:19,"South Pasadena, CA",city,"South San Francisco, CA",United States
40900,-121.469664,38.561721999999996,DTLA Eric,40821872,2020-05-22 04:06:30,"South Pasadena, CA",city,"Sacramento, CA",United States
120,101.66079845,2.92770718,Amer Putra,408218792,2020-02-16 12:31:43,malaysia,city,"Dengkil, Selangor",Malaysia
41860,-122.419,37.7793,Angelina Quinteros,40821909,2020-02-27 00:16:51,"San Francisco, CA",city,"San Francisco, CA",United States
26420,-95.3694,29.7602,Gabriel Rodriguez,408219358,2020-04-14 20:31:20,", ",city,"Houston, TX",United States
88,130.77909865,32.82731516,,408219405,2020-02-15 03:57:09,,city, ,
82,72.87424399999999,19.174139999999998,Andi,40821961,2020-02-14 06:38:14,"New Delhi, India",city,"Mumbai, India",India
222,106.743997,-6.150752,Andi,40821961,2020-04-01 05:20:08,"New Delhi, India",city,"Cengkareng, Indonesia",Indonesia
175,47.457722,24.201688,Different,4082196760,2020-04-26 12:40:47,",   ",city,",   ",  
40900,-121.469664,38.561721999999996,Shanna Niroumand,408219680,2020-02-14 01:20:56,"Sacramento, CA",city,"Sacramento, CA",United States
19100,-96.80317413,32.77239667,Jenna Bassler,408219952,2020-02-27 23:29:05,"Sacramento, CA",city,"Dallas, TX",United States
88,139.793384,35.703844000000004,Adrian Lozano,40822040,2020-02-15 14:20:05,Akihabara (Tokyo),poi,Nui. Hostel & Bar Lounge,Japan
193,100.532054,13.745156,fern_ferniie,408220479,2020-06-01 11:30:39,,poi,ONCE ..,
19100,-96.7617535,32.819858499999995,jemillstein,40822053,2020-03-19 21:04:32,New York,city,"Dallas, TX",United States
171,121.05657,14.586247,bnn,40822080,2020-02-14 14:18:22,not here,poi,Pepper Lunch,Republic of the Philippines
47900,-77.17092338,38.88317711,Sery Chesson,408220868,2020-02-26 22:03:42,"Arlington, VA",city,"Falls Church, VA",United States
35620,-74.0064,40.7142,Sery Chesson,408220868,2020-03-13 20:11:51,"Arlington, VA",city,"Manhattan, NY",United States
47900,-77.0367,38.8951,Sery Chesson,408220868,2020-03-16 07:21:07,"Arlington, VA",city,"Washington, DC",United States
35620,-73.96831,40.8023,Sery Chesson,408220868,2020-03-17 13:13:09,"Arlington, VA",city,"Manhattan, NY",United States
47900,-77.17092338,38.88317711,Sery Chesson,408220868,2020-03-22 20:02:09,"Arlington, VA",city,"Falls Church, VA",United States
12060,-84.51335372,33.79971077,Sery Chesson,408220868,2020-04-23 10:25:54,"Arlington, VA",city,"Smyrna, GA",United States
47900,-77.0854,38.8914,Sery Chesson,408220868,2020-04-26 10:30:43,"Arlington, VA",city,"Arlington, VA",United States
35620,-74.0064,40.7142,Sery Chesson,408220868,2020-04-27 22:11:16,"Arlington, VA",city,"Manhattan, NY",United States
47900,-77.17092338,38.88317711,Sery Chesson,408220868,2020-05-01 11:32:59,"Arlington, VA",city,"Falls Church, VA",United States
12060,-84.3889,33.7566,Sery Chesson,408220868,2020-06-07 01:25:51,"Arlington, VA",city,"Atlanta, GA",United States
120,101.705305,3.1485305,DAH VIRAL Ni,408220948,2020-03-14 01:11:38,sini sini je,city,"Kuala Lumpur City, Kuala Lumpur Federal Territory",Malaysia
222,106.815476,-6.553465,Lindawati Halim,40822107,2020-06-01 10:11:04,west java,city,"Bogor Utara 2, Indonesia",Indonesia
200,34.660455,36.8196825,ali gedik,4082211022,2020-03-11 21:44:20,"Mersin, Trkiye",city,"Mersin, Trkiye",Trkiye
35620,-74.14269949999998,40.9947125,New York Blues,408221131,2020-02-14 01:03:32,New York City,city,"Midland Park, NJ",United States
28740,-73.99300149999998,41.9597995,New York Blues,408221131,2020-02-22 11:58:23,New York City,city,"Lincoln Park, NY",United States
35620,-74.14269949999998,40.9947125,New York Blues,408221131,2020-02-22 18:57:16,New York City,city,"Midland Park, NJ",United States
28740,-73.99300149999998,41.9597995,New York Blues,408221131,2020-02-24 01:39:04,New York City,city,"Lincoln Park, NY",United States
35620,-74.14269949999998,40.9947125,New York Blues,408221131,2020-02-25 00:50:40,New York City,city,"Midland Park, NJ",United States
40140,-116.259899,34.091194,brittany obrien,408221732,2020-03-10 03:59:03,IG: @britobrien,poi,Joshua Tree National Park,United States
31080,-118.4119065,34.0207895,brittany obrien,408221732,2020-05-12 01:43:41,IG: @britobrien,city,"Los Angeles, CA",United States
42220,-122.7529205,38.508209,brittany obrien,408221732,2020-05-16 02:33:31,IG: @britobrien,city,"Larkfield, CA",United States
46380,-123.20995549999999,39.145408,brittany obrien,408221732,2020-05-17 23:06:17,IG: @britobrien,city,"Ukiah, CA",United States
14460,-70.87375,42.810829999999996,She's Basically,408222046,2020-03-09 00:24:17,Connecticut. ,city,"Newburyport, MA",United States
21340,-106.48899999999999,31.7658,Daniel Ponce de Leon,408222258,2020-03-04 16:45:19,"Los Angeles, California ",city,"El Paso, TX",Estados Unidos
31080,-118.2445,34.0564,Daniel Ponce de Leon,408222258,2020-04-23 02:04:43,"Los Angeles, California ",city,"Los Angeles, CA",Estados Unidos
17460,-81.705467,41.49593950000001,Tom Bogo,40822235,2020-04-07 20:27:18,"Baker Mayfield, OH",city,"Cleveland, OH",United States
205,-2.1556405,53.41460849999999,Matt,4082223976,2020-02-15 06:41:07,"Manchester, England",city,"Stockport, England",United Kingdom
171,123.277577,9.295242,arlouie tagubar,408222828,2020-05-21 16:21:40,"Manila, Philippines",city,"Dumaguete City, Central Visayas",Republic of the Philippines
119,-87.058502,20.666175,Christopher,408222861,2020-05-18 13:12:59,"Benito Jurez, Quintana Roo",poi,Villamar 2,Mxico
46060,-110.91557350000001,32.1893905,Michael Rincon Photo,40822290,2020-02-15 20:03:58,"Tucson, AZ",city,"Tucson, AZ",United States
65,2.1192045,48.8038845,ReminiSens,4082230733,2020-02-22 14:35:36,"Versailles, Ile-de-France",city,"Versailles, France",France
21,-46.5955455,-23.682803,Asole Adelakin,4082231681,2020-03-15 12:11:59,"So Paulo, Brasil",city,"So Paulo, Brasil",Brasil
12580,-76.60177849,39.12216269,john john forsythe,408223203,2020-05-09 15:02:43,"glen burnie, maryland",city,"South Gate, MD",United States
21,-46.5955455,-23.682803,Eduardo Karev,408223216,2020-02-14 23:46:52,"So Paulo, SP",city,"Sao Paulo, Brazil",Brazil
21,-46.5955455,-23.682803,cris ferreira,4082233221,2020-02-29 19:36:30,"So Paulo, Brasil",city,"So Paulo, Brasil",Brasil
35620,-74.00076130000001,40.7207559,Jeremy Paul Locke,408223375,2020-04-22 22:07:09,"Fairview, MT",city,"Manhattan, NY",United States
162,21.06179,52.2328355,VaidehiLovesTayTay ,4082235374,2020-03-05 12:30:51,"Ahmadabad City, India",city,"Warsaw, Poland",Poland
-9999,122.947014,25.1233055,,408223918,2020-02-20 15:32:40,"Yilan, Taiwan",city,", ",
40900,-121.469664,38.561721999999996,elina Maravilla,408224030,2020-02-21 02:24:16,Sacramento | Salinas,city,"Sacramento, CA",United States
41500,-121.64126850000001,36.6891495,elina Maravilla,408224030,2020-04-10 07:09:53,Sacramento | Salinas,city,"Salinas, CA",United States
40900,-121.469664,38.561721999999996,elina Maravilla,408224030,2020-04-16 06:30:39,Sacramento | Salinas,city,"Sacramento, CA",United States
41500,-121.64126850000001,36.6891495,elina Maravilla,408224030,2020-05-10 01:30:17,Sacramento | Salinas,city,"Salinas, CA",United States
40900,-121.469664,38.561721999999996,elina Maravilla,408224030,2020-05-15 16:17:35,Sacramento | Salinas,city,"Sacramento, CA",United States
88,139.725449,35.626740999999996,,408224251,2020-04-09 05:01:53,,poi,Barley Village,
46700,-122.054,38.2578,EGO,40822525,2020-02-26 04:23:56,California,city,"Fairfield, CA",United States
40900,-121.4927,38.5763,EGO,40822525,2020-03-21 22:57:34,California,city,"Sacramento, CA",United States
46700,-122.054,38.2578,EGO,40822525,2020-03-31 06:53:24,California,city,"Fairfield, CA",United States
14500,-105.2426865,40.02398150000001,lilly west,4082257273,2020-02-16 19:33:41,"Colorado, USA",city,"Boulder, CO",United States
17820,-104.789327,38.888518499999996,lilly west,4082257273,2020-02-22 07:37:53,"Colorado, USA",city,"Colorado Springs, CO",United States
14500,-105.2426865,40.02398150000001,lilly west,4082257273,2020-02-24 04:51:08,"Colorado, USA",city,"Boulder, CO",United States
17820,-104.789327,38.888518499999996,lil e,4082257273,2020-03-20 18:09:13,"Colorado, USA",city,"Colorado Springs, CO",United States
88,139.435,35.6744, ,408225836,2020-02-29 17:21:04,,city, ,
19740,-104.990047,39.74416,Colby Robertson,408226000,2020-03-07 17:23:00,"Edmond, OK",poi,Paramount Theatre,United States
36420,-97.455741,35.695221999999994,Colby Robertson,408226000,2020-03-09 03:47:15,"Edmond, OK",city,"Edmond, OK",United States
48220,-98.98210350000001,35.4970195,Colby Robertson,408226000,2020-03-09 17:35:25,"Edmond, OK",city,"Clinton, OK",United States
36420,-97.552161,35.4828435,Colby Robertson,408226000,2020-03-12 16:45:13,"Edmond, OK",city,"Oklahoma City, OK",United States
48220,-98.98210350000001,35.4970195,Colby Robertson,408226000,2020-05-07 16:11:51,"Edmond, OK",city,"Clinton, OK",United States
36420,-97.455741,35.695221999999994,Colby Robertson,408226000,2020-05-11 12:34:14,"Edmond, OK",city,"Edmond, OK",United States
48220,-98.98210350000001,35.4970195,Colby Robertson,408226000,2020-05-21 18:44:07,"Edmond, OK",city,"Clinton, OK",United States
222,102.200874,-2.0961220000000003,Noprizal Tanjung,408226336,2020-06-11 09:20:37,Indonesia,city,"Bangko, Indonesia",Indonesia
222,102.893299,-3.2604395000000004,Riski,408226399,2020-02-17 01:26:50,"Lubuk Linggau Timur, Indonesia",city,"Lubuk Linggau Timur, Indonesia",Indonesia
171,121.03700029,14.67754276,Reynald Alolor,408226689,2020-04-11 08:03:29,,city,"Quezon City, National Capital Region",Republic of the Philippines
44100,-89.6596895,39.774346,Scott Smith,4082268616,2020-02-29 11:14:55,"Illinois, USA",city,"Springfield, IL",United States
222,115.2261395,-8.705967999999999,Ary,40822694,2020-03-09 06:32:30,"North Kuta, Bali",city,Indonesia,Indonesia
19740,-104.96258,39.73979,Jesse Orion,40822698,2020-02-15 22:55:31,Orion Constellation,city,"Denver, CO",United States
10740,-106.6506,35.0873,Jesse Orion,40822698,2020-02-18 06:07:16,Orion Constellation,city,"Albuquerque, NM",United States
38,-75.619213,6.270883,alejho moncada,408226981,2020-03-25 11:28:08,,city,"Medelln, Colombia",Colombia
31080,-117.815428,34.000937,Lucy Marin,40822713,2020-03-24 20:46:08,,city,"Diamond Bar, CA",United States
23060,-85.1700515,41.086917,Dalton Butler,408227357,2020-03-19 22:04:33,"Fort Wayne, IN",city,"Fort Wayne, IN",United States
74,-91.53903299999999,14.854895999999998,Yolotzin Ixchel,408227394,2020-02-22 03:02:37,Quetzaltenango,poi,El Gran Alczar,Guatemala
82,76.932502,28.4452895,Hector Ravinder Dutt,4082274738,2020-03-01 11:54:51,"Gurgaon, India",city,"Garhi Harsaru, India",India
42660,-122.3306025,47.614816999999995,Haley,408227584,2020-06-08 05:28:50,"Seattle, WA",city,"Seattle, WA",United States
119,-101.601401,21.09806,Luis Gerardo Isordia,40822769,2020-02-28 01:22:07,"Leon , Guanajuato Mexico",city,"Len, Guanajuato",Mxico
13740,-108.4680798,45.84285427,Levi Heller,4082284220,2020-02-15 01:37:13,"Billings, MT",city,"Billings, MT",United States
12540,-119.12699282,35.3510219,Humberto Aranda,408228822,2020-02-22 23:14:52,,city,"Bakersfield, CA",United States
33100,-80.24977249999999,26.270261,i miss lost lands,4082289261,2020-02-16 14:47:19,,city,"Coral Springs, FL",United States
47900,-77.27715500000001,38.7936215,i miss lost lands,4082289261,2020-02-24 14:38:57,,city,"Burke, VA",United States
40060,-77.49317049999998,37.529883,G,4082289261,2020-05-20 14:50:53,north va but I say dc,city,"Richmond, VA",United States
8,-68.295562,-54.80592400000001,Rosana NO TROLL,4082293822,2020-02-18 14:57:09,Todo terreno,city,"Ushuaia, Argentina",Argentina
193,99.0054825,18.755779,sexaddict,408229495,2020-03-14 11:06:14,", ",city,", ",
82,77.095086,28.638489500000002,Vidya Bhushan Arora,40822978,2020-02-14 07:11:01,New Delhi,city,"New Delhi, India",India
175,46.685077,24.7219435,Amr Khojah ,408229787,2020-03-12 06:13:13,"Riyadh, Kingdom of Saudi Arabia",city,",   ",  
26900,-86.011649,40.050298,Steph Yoder,408229985,2020-03-23 12:12:43,"Noblesville, IN",city,"Noblesville, IN",United States
161,72.9887755,31.7208195,   ,4082303056,2020-05-14 01:45:18,"Lalian,Chiniot,Panjab,Pakistan",city,"Chiniot, Pakistan",Pakistan
119,-100.21658000000001,25.759085,Newton,408230479,2020-05-28 00:11:14,"San Luis Potos, Mxico",poi,Ex Hacienda San Francisco,Mxico
33340,-87.8949855,43.116803999999995,Christian Lavers,408230911,2020-02-27 21:48:29,Wisconsin,city,"Whitefish Bay, WI",United States
82,72.78910450000002,21.171369,Ankur Sharma,4082310221,2020-06-07 14:30:55,,city,"Surat, India",India
119,-96.10345500000001,19.102874,Gerardo Chvez,408231095,2020-03-02 04:47:16,,city,"Boca del Ro, Veracruz de Ignacio de la Llave",Mxico
31080,-118.4119065,34.0207895,Kinuko,40823128,2020-02-25 05:08:08,Los Angeles,city,"Los Angeles, CA",United States
15980,-81.986834,26.63648,Cedrick Carter,40823161,2020-04-17 17:34:27,"Cape Coral, FL.",city,"Cape Coral, FL",United States
21,-53.790283499999994,-24.6975595,Marques,4082317229,2020-02-14 11:13:29,"Toledo, Paran",city,"Toledo, Brasil",Brasil
88,134.6828845,35.34670350000001,yb1tk,408232062,2020-04-06 07:49:39,,city, ,
88,136.881006,35.170398,,408232303,2020-02-22 13:07:43,Tokyo | Japo,poi, ,
31080,-118.4119065,34.0207895,NICK,40823232,2020-04-21 04:50:59,"Los Angeles, CA",city,"Los Angeles, CA",United States
222,101.4412555,0.5090020000000001,Anita Sherly Oktavia,408232613,2020-02-16 14:55:55,Minangnese - Pekanbaru,city,"Senapelan, Indonesia",Indonesia
31080,-118.192291,33.768283000000004,kerishsuicide,408232937,2020-02-16 21:35:10,hollywood,poi,The Federal Bar,United States
24,-123.123581,49.257639000000005,Ayesha Ali,408232971,2020-03-11 20:15:37,"Richmond, British Columbia",city,"Vancouver, British Columbia",Canada
38300,-80.07829000000002,40.708267,jay c,408233152,2020-02-28 09:38:03,,city,"Cranberry, PA",United States
222,96.7800215,4.6392885,Orange,408233233,2020-03-09 16:58:34,,city,"Bebesen, Indonesia",Indonesia
24,-97.1397,49.8873,Samantha Hill,408233337,2020-02-29 13:56:14,,city,"Winnipeg, Manitoba",Canada
35620,-73.97586471,40.6830331,Samantha Hill,408233337,2020-03-07 01:10:54,,city,"Brooklyn, NY",United States
178,31.064557500000003,-29.7345555,LESTER CANAL,408233418,2020-02-14 04:36:23,"Newlands, South Africa",city,"Umhlanga, South Africa",South Africa
37340,-80.622676,28.329306000000006,Vipers Wrestling,4082334682,2020-02-24 18:26:34,"Port St John, FL",city,"Cocoa Beach, FL",United States
33100,-80.2333285,25.7823535,Tyrell Corbin,40823353,2020-03-05 18:55:56,Everywhere,city,"Miami, FL",United States
205,-3.2030084999999997,55.943195499999995,Milena Kollay,40823363,2020-02-19 14:23:58,Vancouver,city,"Edinburgh, Scotland",United Kingdom
81,-21.919315,64.145988,Milena Kollay,40823363,2020-02-22 20:41:06,Vancouver,poi,Aktu Taktu,
24,-122.91750800000001,49.2067515,Milena Kollay,40823363,2020-02-28 15:07:37,Vancouver,city,"New Westminster, British Columbia",Canada
205,-2.011525,55.7692845,Jamie Thomas McLuckie,408233672,2020-02-26 15:12:40,UK,city,"Berwick-upon-Tweed, England",United Kingdom
222,108.5372075,-6.719110499999999,Shara Maharani Suwito,408233861,2020-02-14 05:24:21,"T: -6.88238,107.59699",city,"Cirebon Barat, Indonesia",Indonesia
9,149.130068,-35.29683,NLA Bookshop,408233900,2020-04-09 02:06:40,Canberra,poi,National Library Bookshop,Australia
35620,-73.98173719,40.76818293,Justin Beere,4082341,2020-04-05 13:31:35,New York City,city,"Manhattan, NY",United States
35620,-73.994508,40.763186,Animesh,40823477,2020-04-15 18:44:01,"New York, NY",city,"Manhattan, NY",United States
88,139.72964,35.660301000000004,@,408235023,2020-03-08 08:33:47, ,poi,,
40140,-117.257221,33.615763,Daniel Noble,40823505,2020-02-20 06:10:48,,city,"Wildomar, CA",United States
31080,-118.06781000000001,33.812925,Daniel Noble,40823505,2020-03-08 08:48:24,,poi,Los Alamitos High School Football Field,United States
40140,-117.257221,33.615763,Daniel Noble,40823505,2020-03-14 17:10:32,,city,"Wildomar, CA",United States
82,76.974691,28.368525,sud,408235226,2020-02-25 11:39:02,Gurgaon. India,city,"Gurgaon, India",India
47900,-77.0143985,38.898603,Ryan Srock,408235758,2020-06-09 21:04:13,"Washington, DC",city,"Washington, DC",United States
82,77.498726,28.545556,Suchit Dekivadia,408235819,2020-02-28 17:54:15,Ahmedabad ,city,"Noida, India",India
-9999,-34.550309000000006,-4.8747985,green rosetta,40823585,2020-05-22 04:08:41,DDD 031/084,city,"Natal, Brasil",Brasil
58,15.0494195,50.766109,Radim Daniel Pnek,40823618,2020-03-15 23:17:36,"Libereck, esk republika",city,"Liberec, esk republika",esk republika
47900,-77.0143985,38.898603,Sabrina L.,408236225,2020-03-15 20:19:03,"Washington, DC",city,"Washington, DC",United States
18140,-82.9996,39.9624,Natty Boi,40823663,2020-02-14 08:00:16,"Southfield Columbus, Ohio",city,"Columbus, OH",United States
82,79.55285599999998,29.198377,subhash sharma,408236726,2020-04-26 05:56:01,,city,"Haldwani-Kathgodam, India",India
82,77.095086,28.638489500000002,Akshay Kumar,408236745,2020-04-21 04:06:08,,city,"New Delhi, India",India
31080,-118.1567105,33.809171500000005,Mark A Groff,40823683,2020-02-24 10:27:57,Big Island of Hawaii & The LBC,city,"Long Beach, CA",United States
48,-69.9833,18.5,Alquimista,408236835,2020-02-19 19:54:17,My home Studio R.D,city,"Santo Domingo Oeste, Dominican Republic",Dominican Republic
41620,-111.917026,40.765805,jake severe,408236946,2020-06-02 17:05:36,ig: @jacob_severe,city,"Salt Lake City, UT",United States
193,102.509114,13.692545,BeeBee,408237085,2020-05-13 11:19:48,,poi, . (Kanchanaphisek Ratchakan Thi 9 Garden),
193,100.5445395,13.78024, ,408237274,2020-02-14 10:04:47,TH/ENG/FR,city,"Phaya Thai, Thailand",Thailand
117,57.0547965,23.929308,Dreamer,408237511,2020-05-23 18:57:10,",  ",city,"Al Khaburah, Oman",Oman
38,-74.550954,4.5482320000000005,Eingie Gomez B,408237548,2020-05-19 11:34:00,anapoima cundinamarca,city,"Anapoima, Colombia",Colombia
175,42.849765000000005,16.972807999999997,,408237623,2020-02-14 23:55:27,  ,city," ,   ",  
14460,-71.055,42.36,Alexander morales,408237706,2020-02-14 18:48:05,"Boston, MA",city,"Boston, MA",United States
33100,-80.11560649,26.01730052,Alexander morales,408237706,2020-03-07 22:59:53,"Boston, MA",city,"Hollywood, FL",United States
14460,-71.06920462,42.39470978,Alexander morales,408237706,2020-03-12 23:57:01,"Boston, MA",city,"Everett, MA",United States
37220,-116.82916200000001,36.897324,C Williams,40823836,2020-02-14 21:35:31,"Camino a Lago, Peoria, AZ, USA",poi,Rhyolite Ghost Town,United States
16180,-119.766725,39.164809999999996,C Williams,40823836,2020-02-16 05:03:27,"Camino a Lago, Peoria, AZ, USA",poi,Carson City City Hall,United States
39900,-119.82718200000001,39.512436,C Williams,40823836,2020-02-16 07:35:56,"Camino a Lago, Peoria, AZ, USA",city,"Reno, NV",United States
38060,-112.1246765,33.5528625,C Williams,40823836,2020-02-27 01:06:59,"Camino a Lago, Peoria, AZ, USA",city,"Phoenix, AZ",United States
39140,-112.321276,34.617647000000005,C Williams,40823836,2020-03-27 22:38:39,"Camino a Lago, Peoria, AZ, USA",city,"Prescott Valley, AZ",United States
38060,-112.282379,33.683931,C Williams,40823836,2020-04-17 18:06:02,"Camino a Lago, Peoria, AZ, USA",poi,Casa Del Rey at Camino  Lago,United States
28140,-94.58733000000001,39.093936,Andy Pollard,40823854,2020-02-16 15:44:10,Kansas City,poi,Kauffman Center for the Performing Arts,United States
43580,-96.17243,42.7834565,Sue Schneider,4082386219,2020-04-13 23:56:42,,city,"Le Mars, IA",United States
119,-99.153366,19.432835999999998,rocio zo,408238908,2020-02-20 21:49:12,,city,"Cuauhtmoc, Distrito Federal",Mexico
88,135.77047971,35.00419032,2020,4082393352,2020-02-19 07:01:58,,city,  ,
242,120.62159553,24.10295305,,408239579,2020-04-15 02:44:21,", ",city,", ",
222,110.44559450000001,-7.711567,Aurel,408239816,2020-03-08 14:07:33,"Yogyakarta, Indonesia",city,"Ngemplak, Indonesia",Indonesia
119,-99.15417,19.421530999999998,Jess Trejo,408240315,2020-02-20 00:55:52,,poi,Multiforo Alicia,Mxico
8,-64.1980255,-31.4154565,Jose Cravero.,4082403466,2020-04-09 02:59:22,"Crdoba, Argentina",city,"Crdoba, Argentina",Argentina
117,57.836762,23.487661,Laith Al Mawali,4082403502,2020-04-18 18:21:25,,poi,Hubra , 
173,49.1667,55.7833,maratische (18+),40824044,2020-03-22 10:28:13,Russia,city,", ",
14460,-71.24207150000002,42.394453000000006,Josh Atwood,4082405151,2020-04-10 13:19:23,"Natick, MA",city,"Waltham, MA",United States
88,139.68824949999998,36.34783450000001,d,408240830,2020-03-07 05:54:51,,city, ,
88,138.29269349999998,34.8451625,meg,40824113,2020-02-27 09:48:43,,city, ,
222,106.8755,-6.129904,wahyu.lestari.s,408241222,2020-02-16 06:34:39,"Ciledug,Tangerang",city,"Tanjung Priok, Indonesia",Indonesia
35620,-73.94837222,40.80903333,MambaMentality,40824124,2020-02-26 18:56:14,"Central Harlem, Manhattan",city,"Manhattan, NY",United States
178,18.50662,-33.94066,heavy papa,4082412921,2020-03-20 08:49:29,Malawi // Cape Town // Joburg,city,"Cape Town, South Africa",South Africa
24,-123.08850376,49.21159548,General,4082412921,2020-05-06 12:49:25,Malawi // Cape Town // Joburg,city,"Vancouver, British Columbia",Canada
24,-114.087851,51.027664,Merle Terlesky,408241447,2020-02-14 23:28:18,Canada,city,"Calgary, Alberta",Canada
193,100.502445,13.723465,Stephen G,408242340,2020-03-01 07:21:27,"Miami, FL",city,"Khlong Ton Sai, Thailand",Thailand
88,135.3810785,34.26236,,408242375,2020-03-18 08:22:42,,city, ,
205,-1.146352,52.957634,craig wightman,408242471,2020-02-21 17:54:03,nottingham ,poi,New Forresters,United Kingdom
37980,-75.117998,40.0048655,,40824289,2020-03-22 00:02:08,"Philadelphia, PA",city,"Philadelphia, PA",United States
27260,-81.55991,30.2787,Jason Span,408243659,2020-02-25 03:23:14,"Jacksonville Beach, FL",neighborhood,"Southside, FL",United States
41940,-122.1702265,37.425035,Molly Runkle,408243856,2020-02-22 02:32:13,"Stanford, CA",city,"Stanford, CA",United States
119,-98.2467655,19.3184175,Omar Alfredo,408243935,2020-05-13 16:08:10,,city,"Tlaxcala, Mxico",Mxico
31080,-118.4119065,34.0207895,e,4082442492,2020-02-14 00:46:30,,city,"Los Angeles, CA",United States
222,110.84480649999999,-7.562927500000002,KaPut,408244503,2020-02-28 16:56:38,"Surakarta, Jawa Tengah",city,"Pasar Kliwon, Indonesia",Indonesia
26420,-95.4464865,29.838495,Denzel,40824471,2020-02-16 13:52:06,,city,"Houston, TX",United States
19100,-97.2859135,32.7799665,Denzel,40824471,2020-02-19 00:23:00,,city,"Fort Worth, TX",United States
26420,-95.4464865,29.838495,Denzel,40824471,2020-02-29 17:20:38,,city,"Houston, TX",United States
19100,-96.7617535,32.819858499999995,Denzel,40824471,2020-03-03 21:19:14,,city,"Dallas, TX",United States
26420,-95.4464865,29.838495,Denzel,40824471,2020-03-15 18:17:13,,city,"Houston, TX",United States
19100,-96.994833,32.768591,Denzel,40824471,2020-03-19 15:33:14,,city,"Grand Prairie, TX",United States
26420,-95.4464865,29.838495,Denzel,40824471,2020-03-28 06:21:55,,city,"Houston, TX",United States
19100,-96.7617535,32.819858499999995,Denzel,40824471,2020-03-31 04:08:57,,city,"Dallas, TX",United States
26420,-95.4464865,29.838495,Denzel,40824471,2020-05-08 22:45:27,,city,"Houston, TX",United States
19100,-96.7617535,32.819858499999995,Denzel,40824471,2020-05-12 00:17:21,,city,"Dallas, TX",United States
26420,-95.4464865,29.838495,Denzel,40824471,2020-05-16 00:06:06,,city,"Houston, TX",United States
19100,-96.7617535,32.819858499999995,Denzel,40824471,2020-05-21 10:51:44,,city,"Dallas, TX",United States
26420,-95.4464865,29.838495,Denzel,40824471,2020-05-22 20:59:17,,city,"Houston, TX",United States
34980,-86.791549,36.200008000000004,Alex Hamilton,40824514,2020-02-26 20:26:44,Calgary,city,"Nashville, TN",United States
24,-79.616073,43.555244,Alex Hamilton,40824514,2020-03-02 20:08:56,Calgary,city,"Mississauga, Ontario",Canada
38300,-79.9806895,40.431389,Anthony Windisch,4082452485,2020-05-25 14:16:28,,city,"Pittsburgh, PA",United States
205,-1.4407025,54.9779205,FAKII NASSIR ALI,408245286,2020-02-17 20:05:32,"Mombasa, Kenya",city,"South Shields, England",United Kingdom
35620,-73.8311875,40.6708795,fari_difuture,408245824,2020-04-24 16:02:04,newyork,city,"Queens, NY",United States
128,5.566669999999999,50.6333,fari_difuture,408245824,2020-05-16 23:29:14,newyork,city,"Liege, Belgium",Belgium
82,80.16597840000001,13.0434906,fari_difuture,408245824,2020-05-21 15:38:34,newyork,city,"Saidapet, India",India
35620,-73.8311875,40.6708795,fari_difuture,408245824,2020-05-24 17:02:08,newyork,city,"Queens, NY",United States
41860,-122.0772753,37.9828063,fari_difuture,408245824,2020-06-08 17:02:23,newyork,city,"Pacheco, CA",United States
28140,-94.3782315,38.916093,Trish Masoner,408245945,2020-02-22 01:45:28,,city,"Lee's Summit, MO",United States
65,1.6107605,50.829133,SK,408245959,2020-02-22 18:24:56,"Umlazi, Durban",city,"Audresselles, France",France
152,4.2525915,51.926586,SK,408245959,2020-02-23 04:36:55,"Umlazi, Durban",city,"Maassluis, Nederland",The Netherlands
128,4.3581900000000005,51.2605565,SK,408245959,2020-03-04 14:25:06,"Umlazi, Durban",city,"Antwerp, Belgium",Belgium
152,3.907344,51.6836935,SK,408245959,2020-03-06 11:58:18,"Umlazi, Durban",city,"Schouwen-Duiveland, Nederland",The Netherlands
113,-3.8435515,35.139329499999995,SK,408245959,2020-03-12 18:02:50,"Umlazi, Durban",city,"Imzouren, Royaume du Maroc",Morocco
2,-0.3200995,35.852393,SK,408245959,2020-03-14 18:31:47,"Umlazi, Durban",city,"Arzew                                                                                               , Algeria",Algeria
152,4.2716075,51.9244575,SK,408245959,2020-03-22 17:46:09,"Umlazi, Durban",city,"Rotterdam, The Netherlands",The Netherlands
65,-1.794684,49.67222,SK,408245959,2020-03-31 18:00:48,"Umlazi, Durban",city,"Grville-Hague, France",France
85,15.145017499999998,37.2632555,SK,408245959,2020-04-10 16:48:27,"Umlazi, Durban",city,"Augusta, Sicilia",Italy
200,34.660455,36.8196825,SK,408245959,2020-04-16 21:48:39,"Umlazi, Durban",city,"Mersin, Trkiye",Turkey
186,-5.3301895,35.89443,SK,408245959,2020-04-28 20:22:17,"Umlazi, Durban",city,"Ceuta, Spain",Spain
153,5.160933,59.2474805,phiphat,408246000,2020-03-20 08:00:37,thailand,city,"Karmy, Norge",Norway
82,74.812737,13.3271155,vijay kumar,408246073,2020-04-05 16:22:28,,city,"Udupi, India",India
205,0.00983174,51.45699466,Pam #MassTestingPH,40824613,2020-04-05 05:51:23,"Calabarzon, Republic of the Ph",city,"Lewisham, London",United Kingdom
171,123.01666944,11.33333056,Pam #MassTestingPH,40824613,2020-04-11 02:48:14,"Calabarzon, Republic of the Ph",city,"Sara, Western Visayas",Republic of the Philippines
178,18.84304269,-34.08264468,Pam #MassTestingPH,40824613,2020-05-11 03:11:02,"Calabarzon, Republic of the Ph",city,"Somerset West, South Africa",South Africa
171,123.9031405,10.2969421,Pam #MassTestingPH,40824613,2020-05-21 07:33:50,"Calabarzon, Republic of the Ph",city,"Cebu City, Central Visayas",Republic of the Philippines
40900,-121.318722,38.641304999999996,Griffin,408246209,2020-05-28 01:57:56,,city,"Carmichael, CA",United States
31080,-118.4119065,34.0207895,Vanessa Arciga,408246337,2020-03-08 19:28:52,"Los Angeles, CA",city,"Los Angeles, CA",United States
205,-1.149198,50.8088385,Chloe Aldridge,4082468068,2020-02-16 10:06:56,,city,"Gosport, England",United Kingdom
200,35.28488,37.002826500000005,hhayve,4082468909,2020-03-20 22:53:45,,city,"Adana, Trkiye",Trkiye
119,-100.270474,25.736715,Vctor Rodriguez,408246936,2020-02-15 20:19:16,"Nuevo Len, Mxico",city,"San Nicols de los Garza, Nuevo Len",Mexico
120,102.2297745,2.7071805,mak incik,408247262,2020-03-26 07:52:39,,city,"Pilah, Negeri Sembilan",Malaysia
9,145.0531355,-37.9725665,EveJ,408247402,2020-02-26 03:06:32,Melbourne ,city,"Melbourne, Victoria",Australia
171,121.01388100000001,14.561744000000001,Demy Cruz Jr. ,40824746,2020-02-26 16:34:18,Manila,poi,Zubuchon,Republic of the Philippines
119,-99.087817,19.4320755,BERRYNCHES ,408247590,2020-03-13 05:26:22,SIEMPRE EN TUS SUEOS ,city,"Venustiano Carranza, Distrito Federal",Mxico
65,2.51790571,48.97015123,Trend & Tendance,408248437,2020-02-14 08:41:49,Paris Moscou Ekaterinburg ,city,"Villepinte, France",France
128,4.92941913,50.35526767,Trend & Tendance,408248437,2020-03-16 05:49:52,Paris Moscou Ekaterinburg ,city,"Assesse, Belgique",Belgique
65,3.20972,50.11287,Trend & Tendance,408248437,2020-03-17 14:04:50,Paris Moscou Ekaterinburg ,city,"Masnires, France",France
96,47.97452,29.224902,,408248508,2020-02-18 00:30:02,KWT- AUS ,city," ,  ", 
9,153.074157,-26.606482500000002,,408248508,2020-03-02 15:56:13,KWT- AUS ,city,"Sunshine Coast, Queensland",Australia
96,47.944435999999996,29.308081,,408248508,2020-05-08 02:35:17,KWT- AUS ,city,",  ", 
21060,-85.8709395,37.6989725,rebecca Parks,408248545,2020-06-04 19:46:04,,city,"Elizabethtown, KY",United States
82,77.597645,12.971117,Dj Rohit Bangalore,408248855,2020-05-28 06:12:52,"Bangalore, India ",city,"Bengaluru, India",India
88,136.0,35.0,Dj Rohit Bangalore,408248855,2020-06-03 08:30:31,"Bangalore, India ",city,"Ritto-shi, Shiga",Japan
82,77.597645,12.971117,Dj Rohit Bangalore,408248855,2020-06-04 07:25:35,"Bangalore, India ",city,"Bengaluru, India",India
24,-82.989693,42.337357,aaron.,40824886,2020-05-26 02:54:17,"Somewhere in, MI",poi,Belle Isle Park,United States
19820,-83.15276800000001,42.666643,aaron.,40824886,2020-06-01 22:32:09,"Somewhere in, MI",city,"Rochester Hills, MI",United States
14460,-71.06215300000001,42.366329,Joe Fahrney,4082490612,2020-03-07 01:43:40,"Portsmouth, RI",poi,TD Garden,United States
204,32.647428999999995,0.346008,FRANK KAHEESI,408249096,2020-03-29 04:13:29,"Kireka,Wakiso district",poi,Kireka,Uganda
82,77.095086,28.638489500000002,avnishbhatnagar,40824934,2020-02-14 01:53:27,DELHI,city,"New Delhi, India",India
119,-99.1642825,19.543933000000006,Edgar Cedillo,408249566,2020-02-18 01:20:54,,city,"Tlalnepantla de Baz, Mxico",Mxico
46520,-158.006044,21.452523,Janeen,4082495898,2020-02-17 23:59:36,"Mililani Town, HI",poi,Consolidated Theatres Mililani 14,United States
119,-102.87047249999999,21.436994,Marisela Donlucas ,408249726,2020-03-22 21:46:13,"Downey, CA",city,"Nochistln de Meja, Zacatecas",Mexico
31080,-118.130426,33.937673499999995,Marisela Donlucas ,408249726,2020-03-30 05:46:39,"Downey, CA",city,"Downey, CA",United States
119,-102.87047249999999,21.436994,Marisela Donlucas ,408249726,2020-04-01 23:07:09,"Downey, CA",city,"Nochistln de Meja, Zacatecas",Mexico
31080,-118.130426,33.937673499999995,Marisela Donlucas ,408249726,2020-04-14 06:10:32,"Downey, CA",city,"Downey, CA",United States
119,-87.0316645,21.048719000000002,Dra. Tere Gutirrez,408249869,2020-02-15 01:05:31,,city,"Benito Jurez, Quintana Roo",Mxico
222,106.744,-6.3033,Djay,408250176,2020-05-23 12:40:16,Jakarta,city,"Ciputat, Indonesia",Indonesia
31080,-117.86481850000001,33.926652000000004,Chessman5,40825025,2020-02-14 22:34:53,"Orange County, CA.",city,"Brea, CA",United States
82,75.013032,24.895117000000003,ANKUR PANDEY,408251037,2020-06-01 14:18:35,"Rajasthan, India",city,"Chittaurgarh, India",India
119,-99.050461,19.3427885,luisillo,408251075,2020-02-15 05:46:22,trabajador ,city,"Iztapalapa, Distrito Federal",Mxico
33460,-92.538605,45.118112,syddd,408251161,2020-02-25 17:43:09,Wisconsin,city,"New Richmond, WI",United States
193,101.099757,12.887630999999999,Suthep Thuraphun,408251355,2020-02-15 14:35:02,Bangkok Thailand,poi,"Sriracha, Chonburi, Thailand.",Thailand
222,115.25613,-8.517017999999998,nori ,40825205,2020-05-06 10:17:17,Asgardia,city,"Ubud, Indonesia",Indonesia
88,139.780255,35.548465,nori,40825205,2020-05-10 05:12:09,Asgardia,poi, /  (Tokyo International Airport) (HND),
9,145.0531355,-37.9725665,Steven Mundell,40825235,2020-04-02 10:04:40,Melbourne,city,"Melbourne, Victoria",Australia
30,113.201029,23.177517,Chin,408252448,2020-02-18 09:08:05,", ",poi,Jinshazhou Guangbai Square,
41740,-117.10498899999999,32.810012,Danielle,4082529133,2020-02-17 00:00:31,"Eureka, CA",city,"San Diego, CA",United States
42220,-122.6333695,38.244454,Danielle,4082529133,2020-04-01 04:36:03,"Eureka, CA",city,"Petaluma, CA",United States
21700,-124.12619199999999,40.787198499999995,Danielle,4082529133,2020-04-02 23:36:17,"Eureka, CA",city,"Myrtletown, CA",United States
222,112.6107005,-7.943314999999999,@januarfonti,40825324,2020-03-07 04:06:06,Malang - ID,city,"Lowokwaru, Indonesia",Indonesia
205,0.4961345,50.8848215,John Feltwell,4082533342,2020-02-20 09:54:35,,city,"Crowhurst, England",United Kingdom
171,120.89080811,14.96051978,Althea Christine,408253370,2020-02-15 08:18:11,"Batangas City, Calabarzon",city,"Baliwag, Central Luzon",Republic of the Philippines
200,29.0052225,41.0213205,sharifa_alkindi,408253544,2020-02-29 16:40:39,oman,city,"stanbul, Trkiye",Turkey
65,-1.5607395,47.2381615,HssM5,4082537715,2020-02-16 01:41:04,France,city,"Nantes, France",France
41180,-90.247824,38.653771,Eric Rains,40825412,2020-04-12 01:24:33,Missouri ,city,"St Louis, MO",United States
85,12.631155,41.858183000000004,Erika_Niro79,408254388,2020-05-12 10:47:39,,poi,Policlinico Tor Vergata,Italia
40900,-121.38,38.6053,TanG ,408254468,2020-05-23 17:34:40,Northern California,city,"Arden-Arcade, CA",United States
205,-0.1937195,51.4516565,Terri McVeigh,4082544861,2020-03-17 09:49:50,"London, England",city,"Wandsworth, London",United Kingdom
119,-103.23313,25.244223,Eduardo R. Calzado,40825456,2020-03-10 04:24:25,"Torren, Coahuila, MEXICO",city,"Torren, Coahuila de Zaragoza",Mexico
82,77.095086,28.638489500000002,Narmadeshwar Singh,4082546603,2020-03-22 13:02:52,,city,"New Delhi, India",India
222,108.96700000000001,-6.95,mba upil ,408254731,2020-06-09 09:41:54,,city,"Larangan, Indonesia",Indonesia
171,120.995415,14.562538,Angel ,40825499,2020-02-22 14:11:37,MNL,poi,Tim Hortons,Republic of the Philippines
31080,-118.4119065,34.0207895,R M,408255265,2020-05-30 22:35:57,,city,"Los Angeles, CA",United States
193,100.51586615,13.73255079,chaya,408255414,2020-02-14 08:08:16,"Bangkok, Thailand",city,", ",
24,-123.100606,49.265756,Katie MacAlister,408255446,2020-02-15 22:37:13,"Vancouver, British Columbia",poi,Brassneck Brewery,Canada
88,136.90702915,35.16554232,soare ,408255786,2020-04-08 03:52:29,5-15-1,city,  ,
15980,-81.8231765,26.622149,6:45,408255906,2020-02-15 04:21:17,wherever worth staying,city,"Fort Myers, FL",United States
45300,-82.70777799999998,27.861014500000003,6:45,408255906,2020-04-25 18:22:49,WORLD,city,"Pinellas Park, FL",United States
15980,-81.986834,26.63648,6:45,408255906,2020-04-25 22:47:26,WORLD,city,"Cape Coral, FL",United States
71,9.173258500000001,49.1512185,T.C. Orhan ,408256181,2020-02-28 12:14:48,"Baden-Wrttemberg, Deutschland",city,"Heilbronn, Deutschland",Deutschland
158,174.8562435,-36.595729,Hannah Cos,40825620,2020-03-18 07:10:49,auckland,city,"Auckland, New Zealand",New Zealand
222,109.85503999999999,-7.5825,GUNTUR,408256711,2020-06-08 09:52:21,"Semarang, Indonesia",city,"Bruno, Indonesia",Indonesia
120,102.216087,3.096964, ,4082572873,2020-05-25 22:21:08,"Port Dickson, Negeri Sembilan",poi,"Desa Permai,Simpang Durian",Malaysia
82,80.26180550000002,13.024394500000001,Ramachandran S,408257314,2020-02-16 23:58:08,Chennai,city,"Mylapore Tiruvallike, India",India
33700,-120.957123,37.5910915,Tina Mendona,40825750,2020-02-20 04:25:11,"Ceres, CA",city,"Ceres, CA",United States
88,139.5769495,35.584871,jyagamo,408257862,2020-04-25 06:41:19,,city,  ,
21,-47.3783195,-22.5856735,TZ! 019 ,4082578948,2020-04-11 15:42:16,Lado Sul do Mapa 019 ,neighborhood,"Glria - Novo Horizonte, Limeira",Brasil
41860,-122.2286855,37.791994,John Asileaux,40825805,2020-02-16 18:24:19,"East Bay, CA",city,"Oakland, CA",United States
88,138.74583664,35.52294517,Vita Rossanti,408258254,2020-02-14 13:46:17,"Jakarta, Indonesia",city,"Fujikawaguchiko-machi, Yamanashi",Japan
31080,-118.4119065,34.0207895,Dimitri Mendez,40825877,2020-03-17 04:04:23,Los Angeles ,city,"Los Angeles, CA",United States
24060,-106.824,39.1923,PACIFIC PRIZM,408259262,2020-03-14 22:06:42,"Campbelltown, Sydney",city,"Aspen, CO",United States
9,150.78706,-34.20191,PACIFIC PRIZM,408259262,2020-03-15 21:58:37,"Campbelltown, Sydney",city,"Appin, New South Wales",Australia
82,72.87424399999999,19.174139999999998,ColorMeRos,408259455,2020-06-11 09:18:10,"Mumbai, Maharashtra",city,"Mumbai, India",India
21,-52.85975,-26.471365000000002,Preto ,4082597356,2020-02-17 16:06:18,"Santa Catarina, Brasil",city,"So Loureno do Oeste, Brasil",Brasil
222,116.80903219999999,-1.2762951,Novita Fatimey,40825991,2020-03-21 02:26:56,"T: -7.5764184,110.8206096",city,"Balikpapan Selatan, Indonesia",Indonesia
151,7.0312755000000005,4.82463,asigo agnes,408260063,2020-02-25 13:28:39,Nigeria,city,"Port Harcourt, Nigeria",Nigeria
178,27.9574575,-26.0197195,proudly_black(ish),408260072,2020-02-23 19:36:45,Zimbabwe,city,"Randburg, South Africa",South Africa
117,58.4641695,23.549159000000003,RHabsi,408260324,2020-02-15 06:48:30,Muscat- Oman.,city,"Muscat, Oman",Oman
205,0.18620150000000002,51.278715999999996,Tamara McKenna,408260479,2020-03-28 08:55:29,"Sevenoaks, South East",city,"Sevenoaks, South East",United Kingdom
205,-3.0493384999999997,53.01104399999999,Wrexham Diocese,4082606843,2020-04-06 19:54:05,"Wrexham, Wales",city,"Rhosllannerchrugog, Wales",United Kingdom
193,100.6579025,13.795360999999998,,408260767,2020-04-12 14:26:03,,city,"Bueng Kum, Thailand",Thailand
82,81.84394499999999,17.0805005,Dr Raj Arumilli,408260857,2020-03-19 15:14:13,"Andhra Pradesh, India",city,"Rajahmundry, India",India
186,2.1412275000000003,41.392657,diieegoo,4082608936,2020-04-24 14:51:04,"Barcelona, Espaa",city,"Barcelona, Espaa",Espaa
26420,-95.722085,29.6348055,Sindi,408260956,2020-02-25 16:15:52,"Houston, TX",city,"Pecan Grove, TX",United States
119,-107.3420565,24.662488500000002,Gamaliel Pio Garcia,408261264,2020-02-23 19:53:20,,city,"Culiacn, Sinaloa",Mxico
27920,-96.8459825,39.030423,Christine Lay,408261306,2020-03-02 13:58:31,"Junction City, KS",city,"Junction City, KS",United States
30780,-92.342322,34.721886,Christine Lay,408261306,2020-05-31 02:20:16,"Junction City, KS",city,"Little Rock, AR",United States
27920,-96.8459825,39.030423,Christine Lay,408261306,2020-06-09 12:33:11,"Junction City, KS",city,"Junction City, KS",United States
171,121.05405807,14.54595164,Karol,40826132,2020-02-19 12:11:31,Republic of the Philippines,city,"Makati City, National Capital Region",Republic of the Philippines
45060,-76.1288105,43.052607,Greg Unz,4082613203,2020-05-31 13:22:11,,city,"Syracuse, NY",United States
82,72.87424399999999,19.174139999999998,Ashish Shah ,40826165,2020-02-17 03:14:54,"Mumbai, India",city,"Mumbai, India",India
205,-0.306996,51.4405145,THE CAPTAINS TABLE- Giles Morgan,408261768,2020-02-16 19:23:13,"London, England",city,"Richmond, London",United Kingdom
178,18.4890615,-34.1216575,THE CAPTAINS TABLE- Giles Morgan,408261768,2020-02-20 18:38:13,"London, England",city,"Cape Town, South Africa",South Africa
205,-0.1937195,51.4516565,THE CAPTAINS TABLE- Giles Morgan,408261768,2020-02-24 18:47:05,"London, England",city,"Wandsworth, London",United Kingdom
19100,-97.079654,32.931834,THE CAPTAINS TABLE- Giles Morgan,408261768,2020-03-05 02:26:11,"London, England",city,"Grapevine, TX",United States
205,-0.1937195,51.4516565,THE CAPTAINS TABLE- Giles Morgan,408261768,2020-03-19 19:18:23,"London, England",city,"Wandsworth, London",United Kingdom
222,106.8233,-6.1803,Riri Djalil diBali,40826190,2020-02-21 03:27:44,FB Page: Riridibali,city,"Tanah Abang, Indonesia",Indonesia
26420,-95.36200000000001,29.756999999999998,Nathan Quinones,408261954,2020-03-05 23:00:32,"Pearland, TX",city,"Houston, TX",United States
17780,-96.33905113,30.62588774,Nathan Quinones,408261954,2020-06-02 11:44:15,"Pearland, TX",city,"College Station, TX",United States
119,-97.8686,22.2553,Dr Gomez Labougle C.,40826200,2020-02-19 20:12:06,Mexico,city,"Tampico, Tamaulipas",Mxico
82,86.593925,25.837125,Rajaram Mistry,4082621113,2020-04-20 14:12:08,Saharsa,city,"Saharsa, India",India
69,-1.2646484999999998,5.118951,   ,4082621542,2020-02-17 19:58:36,,city,"Cape Coast, Ghana",Ghana
222,107.47932005,-6.86301574,Elsa Ikdul Farid,408262469,2020-05-20 04:47:47,Bandung Barat,city,"Padalarang, Indonesia",Indonesia
186,2.6509,39.5687,Neil,408262540,2020-02-14 11:19:44,"Reutlingen, Baden-Wrttemberg",city,"Palma, Spain",Spain
71,9.476410000000001,47.65195,Neil,408262540,2020-02-24 11:36:27,"Reutlingen, Baden-Wrttemberg",city,"Friedrichshafen, Germany",Germany
186,2.6472444,39.56796845,Neil,408262540,2020-03-11 13:05:56,"Reutlingen, Baden-Wrttemberg",city,"Palma, Spain",Spain
38940,-80.40475699999999,27.324595000000002,,408262674,2020-03-04 23:53:40,"Garner, NC",poi,First Data Field,United States
10900,-75.385564,40.587249,Northampton Dems,4082627415,2020-02-26 19:25:12,"Pennsylvania, USA",poi,Taps Tavern,United States
31080,-117.7823605,33.689732,SAMURAI TL40x4,40826305,2020-02-15 07:46:15,eRRvine,city,"Irvine, CA",United States
171,121.033212,14.5464995,M. ,40826312,2020-02-20 15:06:40,MNL,city,"Makati City, National Capital Region",Republic of the Philippines
242,121.53430300000001,24.956215,,408263149,2020-02-28 06:02:30,,poi, Bitan Suspension Bridge,
71,8.494501,52.6428005,Evelin Hormann-Hske,408263914,2020-05-03 09:43:51,,city,"Dickel, Deutschland",Deutschland
9,152.9931965,-27.382143,Virginia Irwin,408264478,2020-03-23 10:47:12,Brisbane,city,"Brisbane, Queensland",Australia
200,28.985453000000003,41.037353,Sema,4082646208,2020-02-14 11:59:06,"Bursa, Trkiye",city,"Konya, Trkiye",Trkiye
41620,-111.997441,40.6787035,Your Sister in The Lord ,4082647474,2020-04-23 04:09:51,"West Valley City, UT",city,"West Valley City, UT",United States
175,39.2541285,21.5857105,GG,4082651133,2020-04-17 13:49:31,,city,"Jeddah, Kingdom of Saudi Arabia",Kingdom of Saudi Arabia
26420,-95.4464865,29.838495,Jayme Aills,408265291,2020-03-27 04:50:23,College Station,city,"Houston, TX",United States
16980,-88.1613215,41.748496,Hawkeye Football Fan,4082652919,2020-02-23 14:31:07,"Naperville, IL",city,"Naperville, IL",United States
88,139.618122,35.436507,kimijimayan,408265481,2020-04-04 05:45:17,YOKOHAMA,poi,,
186,2.1412275000000003,41.392657,Custo,408266880,2020-02-14 01:00:07,L'Hospitalet de Llobregat,city,"Barcelona, Espaa",Espaa
47900,-77.0143985,38.898603,King Victorious,40826704,2020-03-14 17:50:54,Da Heart of the US,city,"Washington, DC",United States
24,-79.86524200000001,43.264431,ArchitectHairDesign,4082670430,2020-03-10 16:57:38,"Hamilton, Ontario",city,"Hamilton, Ontario",Canada
222,107.011756,-6.254410999999998,David E. Issetiabudi,40826725,2020-02-25 10:42:40,"Bekasi Timur, Indonesia",city,"Bekasi Timur, Indonesia",Indonesia
16980,-87.632496,41.883221999999996,Kristen,40826738,2020-05-18 06:27:47,"Las Vegas, NV",city,"Chicago, IL",United States
205,-0.792135,53.071199,julie dawn clarke,408267691,2020-04-14 07:32:29,,city,"Newark-on-Trent, England",United Kingdom
222,106.83881799999999,-6.4719745,helda,408267905,2020-03-30 08:09:18,Nowhere And yet everywhere ,city,"Cibinong, Indonesia",Indonesia
45620,-83.95917869,30.83772444,Simone Jameson,40826799,2020-03-08 05:45:46,"Albany, GA",city,"Thomasville, GA",United States
45220,-84.26617399999999,30.4762155,Simone Jameson,40826799,2020-03-09 02:36:59,"Albany, GA",city,"Tallahassee, FL",United States
24,-106.664325,52.1500775,Shuiab Tahir,408268293,2020-05-14 20:52:29,Canada,city,"Saskatoon, Saskatchewan",Canada
21,-48.9664745,-26.261689500000003,Nego Reis,4082683762,2020-02-23 00:34:18,"Joinville, Brasil",city,"Joinville, Brasil",Brasil
193,100.53909399999999,13.699532999999999,suwanna,408268699,2020-03-28 05:16:06,"BANGKOK,THAILAND",city,", ",
16980,-87.732013,41.8335845,Jocie Padgen,408269068,2020-03-15 04:02:38,,city,"Chicago, IL",United States
164,-8.621914,41.162141999999996,Miguel Ramos,4082696813,2020-03-06 08:45:38,,city,"Porto, Portugal",Portugal
10460,-105.953829,32.8954825,Michael Datboijit French,40826969,2020-04-22 04:40:44,New Mexico but born in Miami,city,"Alamogordo, NM",United States
24,-123.123581,49.257639000000005,Kiran P.G.,408269739,2020-02-18 00:47:19,YVR,city,"Vancouver, British Columbia",Canada
205,-0.055731,51.718321,Lynn fagg,408269844,2020-02-18 09:33:40,,city,"Broxbourne, East",United Kingdom
91,36.863620000000004,-1.2748635,@Muthegethi,408270145,2020-02-18 06:42:28,NAIROBI ,city,"Nairobi, Kenya",Kenya
175,50.1213985,26.288762,  | May Abokhodair,40827040,2020-03-21 17:02:52,Saudi Arabia,city,"Dhahran, Kingdom of Saudi Arabia",Kingdom of Saudi Arabia
222,106.86958273,-6.34103861,Aa Utup,40827054,2020-02-21 08:46:18,Sebelah Rumah Pak RT,city,"Pasar Rebo, Indonesia",Indonesia
19740,-104.9220935,39.713563,Nathan Higgs,408270595,2020-03-07 05:33:42,"Denver, CO",city,"Denver, CO",United States
14500,-105.072231,39.9472495,Nathan Higgs,408270595,2020-06-11 01:35:47,"Denver, CO",city,"Broomfield, CO",United States
82,77.66287,28.912684999999996,Aniket siwach,4082706012,2020-05-24 10:29:58,,city,"Meerut, India",India
85,11.354151,46.4875725,The Happy Hippo,4082709496,2020-02-15 21:15:13,"Hell, Underworld",city,"Bozen, Trentino-Sdtirol",Italien
71,9.3893185,52.431227,The Unhappy Hippo,4082709496,2020-03-06 18:37:59,"Hell, Underworld",city,"Wunstorf, Deutschland",Deutschland
85,11.244817,43.7807085,The Unhappy Hippo,4082709496,2020-03-15 08:27:17,"Hell, Underworld",city,"Florenz, Toskana",Italien
71,9.3726795,53.6798865,The Unhappy Hippo,4082709496,2020-03-28 08:11:55,"Hell, Underworld",city,"Hamburg, Deutschland",Deutschland
85,11.354151,46.4875725,The Unhappy Hippo,4082709496,2020-05-12 20:21:30,"Hell, Underworld",city,"Bozen, Trentino-Sdtirol",Italien
71,9.7026625,52.46443000000001,The Unhappy Hippo,4082709496,2020-05-17 13:48:14,"Hell, Underworld",city,"Langenhagen, Deutschland",Deutschland
189,20.7074715,64.745622,Kinge,408271435,2020-02-14 17:38:19,"Skellefte, Sverige",city,"Skellefte, Sverige",Sverige
57,11.848215,47.3470755,Kinge,408271435,2020-03-05 05:57:05,"Skellefte, Sverige",city,"Fgen, sterreich",sterrike
189,20.7074715,64.745622,Kinge,408271435,2020-03-18 21:18:00,"Skellefte, Sverige",city,"Skellefte, Sverige",Sverige
178,28.060613,-26.058708,Kelvin Glen,40827228,2020-03-04 19:42:50,South Africa,city,"Sandton, South Africa",South Africa
24,-79.27256949999999,43.629311,DMG,408272342,2020-02-18 14:13:35,"32 Lisgar Street, Toronto",city,"Toronto, Ontario",Canada
31080,-118.338,34.1787,Nelson Hayne,408272509,2020-04-10 19:56:15,"Los Angeles, CA",city,"Burbank, CA",United States
154,85.330338,27.735355,Sangita Nirola,408272796,2020-03-21 03:49:50,"Kathmandu, Nepal",poi,TU Teaching Hospital,Nepal
21,-55.7585085,-29.0465485,Renata ,4082730395,2020-03-19 13:47:57,,city,"Maambar, Brasil",Brasil
21,-43.261815000000006,-22.888276,T.R,4082734041,2020-02-14 01:23:03,"Paris, France",poi,Morro do Jacar,Brasil
12020,-83.37463182,33.96380872,mark kovaly,40827371,2020-03-15 02:09:33,Nashville Tn,city,"Athens, GA",United States
12060,-84.5184,33.8719,mark kovaly,40827371,2020-03-21 19:25:04,Nashville Tn,city,"Smyrna, GA",United States
15980,-81.8571,26.6318,mark kovaly,40827371,2020-06-01 23:18:21,Nashville Tn,city,"Fort Myers, FL",United States
65,2.7572235000000003,50.27209600000001,Gerard Finet,4082739857,2020-03-31 18:55:46,,city,"Achicourt, France",France
222,106.81776112,-6.28891289,Ario Wibowo,40827409,2020-03-17 11:18:40,"Jakarta Capital Region, Indone",city,"Pasar Minggu, Indonesia",Indonesia
82,77.5584485,12.9231145,Naveen Mutnal,408274184,2020-03-17 12:56:55,Bangalore,city,"Bengaluru South, India",India
57,14.73970052,48.53333754,Greencross #TECHNO,40827436,2020-04-19 14:06:42,World,city,"Liebenau, sterreich",Austria
88,137.47988850000002,35.580445000000005,,408274511,2020-02-14 12:55:16,,city, ,
154,85.319996,27.708796999999997,Faheem Hussain,408274545,2020-02-20 03:55:06,"Arizona, USA",poi,Kathmandu,Nepal
38060,-111.928142,33.392883999999995,Faheem Hussain,408274545,2020-04-14 03:23:32,"Arizona, USA",city,"Tempe, AZ",United States
222,106.88071409999998,-6.2267771,Agis,408274728,2020-02-14 04:08:06,,city,"Jatinegara, Indonesia",Indonesia
82,76.974691,28.368525,MANISH SAINI,408274784,2020-03-26 11:43:08,"Gurgaon, India",city,"Gurgaon, India",India
164,-9.144710400000001,38.72153223,Iara Marchenko,4082748137,2020-05-04 12:57:15,"-, ",city,"Lisboa, Portugal",Portugal
173,30.28261806,59.937517500000006,Iara Marchenko,4082748137,2020-05-14 11:49:33,"-, ",city,"-, ",
164,-9.15323757,38.70772333,Iara Marchenko,4082748137,2020-05-20 09:27:06,"-, ",city,"Lisboa, Portugal",Portugal
60,24.9375,60.1708,Iara Marchenko,4082748137,2020-05-24 11:33:33,"-, ",city,"Helsinki, Suomi",Suomi
31860,-93.97382117,44.32168272,Ethan Bjelland,40827497,2020-02-20 16:54:48,"Minneapolis, MN",city,"St Peter, MN",United States
33460,-93.2645,44.9774,Ethan Bjelland,40827497,2020-03-09 23:56:05,"Minneapolis, MN",city,"Minneapolis, MN",United States
173,37.42764250000001,55.7547875,Oleg Swow,40827508,2020-03-12 07:18:49,,city,", ",
14460,-71.1671345,42.417040500000006,Anchistha,408275194,2020-05-10 02:43:40,Thailand,city,"Arlington, MA",United States
151,3.6119925999999998,6.4774357,Vickyluv,408275674,2020-03-21 20:14:38,Lagos,city,"Sangotedo, Nigeria",Nigeria
222,106.80129199999999,-6.412614,,408275828,2020-05-12 17:28:38,"Depok, Indonesia",poi,Best room of mine,Indonesia
12540,-119.025163,35.3469015,Sharon Martimez,4082760494,2020-02-17 19:45:48,"Bakersfield, CA",city,"Bakersfield, CA",United States
193,100.51224,13.785088,,408276313,2020-04-03 05:11:30,facebook,city,", ",
41620,-111.883,40.75,Chloe Creasy,40827636,2020-03-05 16:43:03,The Marvelous Land of OZ,city,"Salt Lake City, UT",United States
41940,-122.0238405,37.378397,Tim Pham,4082764574,2020-02-24 05:21:55,,city,"Sunnyvale, CA",United States
222,107.7189305,-6.8702495,kalausempat.,408276593,2020-02-24 01:10:49,,city,"Cilengkrang, Indonesia",Indonesia
222,119.4520075,-5.1132355,Rusnah Mursalim,408276757,2020-02-24 05:02:30,"Sulawesi Selatan, Indonesia",city,"Tallo, Indonesia",Indonesia
31080,-118.4119065,34.0207895,Kbizzle ,4082770341,2020-03-06 18:03:35,,city,"Los Angeles, CA",United States
40140,-117.5621525,34.12167,Kbizzle ,4082770341,2020-03-07 18:23:11,,city,"Rancho Cucamonga, CA",United States
31080,-118.4119065,34.0207895,Kbizzle ,4082770341,2020-03-08 08:23:44,,city,"Los Angeles, CA",United States
19660,-81.22000849999999,28.9045905,Kbizzle ,4082770341,2020-03-10 22:56:58,,city,"Deltona, FL",United States
200,27.006511,38.4079305,n,408277473,2020-05-21 05:15:28,"zmir, Trkiye",city,"zmir, Trkiye",Trkiye
20260,-91.927718,46.8807215,Tressica Fletcher,408277798,2020-05-13 04:10:46,A Girl from the US Nation,city,"Clifton, MN",United States
15380,-78.94744800000002,43.010470500000004,Louis D,408278119,2020-03-09 02:05:59,"Grand Island, NY",city,"Grand Island, NY",United States
205,-1.2537260000000001,52.3742645,Joseph Graham Smith,4082781699,2020-04-09 08:06:08,,city,"Rugby, England",United Kingdom
9,151.206527,-33.873857,Ross Cobb,408278230,2020-02-22 04:37:40,"Sydney, Oz",poi,St Andrew's Cathedral,Australia
151,8.527467000000001,12.005,S H A M S U,4082785522,2020-03-11 23:22:28,"FAGGE LOCAL GOVERNMENT, KANO ",city,"Kano, Nigeria",Nigeria
31080,-118.44767503,34.06219229999999,"TheFandom's GeekGirl, I am",408278776,2020-02-20 05:03:25,"San Diego, CA",city,"Los Angeles, CA",United States
41740,-117.0867775,32.66981,"TheFandom's GeekGirl, I am",408278776,2020-03-01 02:17:19,"San Diego, CA",city,"National City, CA",United States
21,-46.6471182,-23.63130993,Ricardo Silva,4082797101,2020-04-24 10:32:03,So Paulo - SP,city,"Sao Paulo, Brazil",Brazil
222,106.74838700000001,-6.132736,Herliana Puspa Nagara,408279759,2020-05-25 23:29:28,indonesia,poi,Rumah Makan Padang Raya,Indonesia
151,7.0312755000000005,4.82463,webgoD,408280528,2020-02-19 07:03:55,PH,city,"Port Harcourt, Nigeria",Nigeria
120,102.093056,2.6246515,Fy ,408280566,2020-05-17 04:14:24,Kuala Lumpur Federal Territory,city,"Chembong, Negeri Sembilan",Malaysia
19100,-96.7977,32.7774,Phillip Sterner,40828059,2020-02-21 18:41:58,"Burnsville, MN",city,"Dallas, TX",United States
24,-114.057,51.045,ShelaghKrause,408280892,2020-04-02 00:40:18,Calgary,city,"Calgary, Alberta",Canada
151,3.5018455000000004,6.441530500000002,Follow Abbey Back,40828107,2020-04-09 06:56:05,"Lagos, Nigeria",city,"Victoria Island, Nigeria",Nigeria
35620,-73.9685415,40.780709,Devin F. Reckless ,40828114,2020-02-29 10:51:31,(Instagram) @RecklessAndRich,city,"Manhattan, NY",United States
171,120.59129850000001,14.984761,Chellesea Sanchez,40828115,2020-04-04 03:10:49,Philippines,city,"Guagua, Central Luzon",Republic of the Philippines
40060,-77.49317049999998,37.529883,johnymac,4082812601,2020-02-19 10:57:59,,city,"Richmond, VA",United States
119,-109.69426026,23.04603494,Zackkrone_CaCoast,408281386,2020-02-21 16:30:35,"Laguna Beach, CA",city,"Los Cabos, Baja California Sur",Mexico
31080,-117.66166667,33.49944444,Zackkrone_CaCoast,408281386,2020-05-15 21:02:27,"Laguna Beach, CA",city,"San Juan Capistrano, CA",United States
21,-51.1593095,-30.099836,tay,4082816067,2020-04-04 17:26:57,"Rio Grande do Sul, Brasil",city,"Porto Alegre, Brasil",Brasil
82,82.74474699999998,26.8034675,Asad Jamshed,408281729,2020-02-14 10:58:22,Basti Utter Pardesh India,city,"Basti, India",India
41940,-121.8737305,37.331159,Kristen Kelez,40828197,2020-04-10 05:35:24,"San Jose, CA",city,"San Jose, CA",United States
120,101.52467,3.071036,Abang Dodol,408282048,2020-02-24 05:46:00,In your heart ,poi,Vista Alam,Malaysia
82,70.89601250000003,22.2624275,Jasmin Patel,408282147,2020-03-21 10:38:15,"rajkot , gujarat",city,"Rajkot, India",India
39900,-119.774895,39.505663,Nate Drum,4082821513,2020-03-06 01:42:06,"Reno, NV",poi,Reno-Tahoe International Airport,United States
40140,-116.3348765,34.127415500000005,WR,4082825715,2020-04-16 20:45:38,"California, USA",city,"Joshua Tree, CA",United States
82,72.8394,19.046019,EFAshok Mistry,4082828052,2020-02-16 07:35:05,"Mumbai, India",poi,Mahim Causeway,India
120,101.962078,2.592643,Haziq Azli,408283490,2020-05-04 16:39:50,Malaysia,poi,"Rantau, Negeri Sembilan",Malaysia
119,-98.2613415,19.119304500000002,Werish calderon,40828439,2020-02-21 15:45:18,,city,"Cuautlancingo, Puebla",Mxico
17140,-84.56133700000002,38.6282335,joshua p mcgraw,40828450,2020-03-14 18:36:50,Lexington KY #BBN,city,"Williamstown, KY",United States
42940,-83.5452185,35.879209,joshua p mcgraw,40828450,2020-05-17 03:41:59,Lexington KY #BBN,city,"Sevierville, TN",United States
49620,-77.030013,40.094621999999994,Carol Richwine,4082846475,2020-04-06 19:00:33,"Pennsylvania, USA",poi,Northern Middle School,United States
120,101.6846865,3.124524,Mohd Rezal,408284679,2020-02-16 07:10:15,Shah alam - Johor,city,"Kuala Lumpur, Wilayah Persekutuan Kuala Lumpur",Malaysia
82,72.57023199999999,23.013959,smit,408284681,2020-03-25 12:38:47,,city,"Ahmadabad City, India",India
162,16.9062755,52.3994955,barbapapa.,4082851781,2020-02-19 16:55:42,,city,"Pozna, Polska",Polska
19780,-93.6063695,41.5764375,Keenan Crow,408286343,2020-03-13 18:32:16,,city,"Des Moines, IA",United States
21,-44.3025505,-2.6292855,Hondinha,4082867057,2020-02-14 00:00:29,So Lus / Rio de Janeiro,city,"So Lus, Brasil",Brasil
51,-6.247621499999999,53.3549025,Anya Deer,40828673,2020-02-24 02:30:12,"Seattle, WA",city,"Dublin City, Ireland",Ireland
42660,-122.3306025,47.614816999999995,Anya Deer,40828673,2020-03-23 00:30:30,"Seattle, WA",city,"Seattle, WA",United States
82,77.75129727,12.78454283,Chethan mk,4082867714,2020-03-01 08:48:10,,city,"Attibele, India",India
175,39.162985,21.551687, SDC,4082869528,2020-02-23 07:06:17,Saudi Arabia,poi,Milino Cafe,Kingdom of Saudi Arabia
39660,-103.5241745,44.405977,Chad Uselman ,40828697,2020-03-02 15:51:58,Black Hills of South Dakota,city,"Sturgis, SD",United States
12060,-84.714162,33.736306,Preston James IV,4082870829,2020-02-14 13:50:52,"Georgia, USA",city,"Douglasville, GA",United States
29300,-85.05872099999999,33.039371,Preston James IV,4082870829,2020-02-18 20:43:48,"Georgia, USA",city,"LaGrange, GA",United States
12060,-84.32731749999998,33.785068499999994,Preston James IV,4082870829,2020-02-21 12:37:43,"Georgia, USA",city,"Druid Hills, GA",United States
193,100.676077,13.776136,    ,408287246,2020-02-19 05:23:10,"Bangkok, Thailand",poi,Midnight Madness,Thailand
8,-58.9846755,-27.452821500000002,Aldana Fiant,4082873355,2020-04-09 14:40:01,"Resistencia, Argentina",city,"Resistencia, Argentina",Argentina
16980,-87.6991955,42.045437,,4082881332,2020-02-14 07:41:28,"Evanston, IL",city,"Evanston, IL",United States
82,77.49901772,12.79723817,Megha,408288320,2020-02-16 11:16:40,Bangalore,city,"Bengaluru South, India",India
71,10.737589999999999,47.57666,Megha,408288320,2020-04-09 10:45:01,Bangalore,city,"Schwangau, Germany",Germany
82,77.597645,12.971117,Megha,408288320,2020-04-10 10:24:03,Bangalore,city,"Bengaluru, India",India
193,98.99553602,18.78675443,Megha,408288320,2020-05-05 12:06:19,Bangalore,city,"Chang Moi, Thailand",Thailand
82,77.597645,12.971117,Megha,408288320,2020-05-18 11:34:12,Bangalore,city,"Bengaluru, India",India
88,139.48190689,35.30213237,,408288548,2020-02-23 04:10:12,Ninja400,city, ,
71,8.242950500000001,49.965472999999996,David,4082887648,2020-02-25 09:04:05,"Mainz, Deutschland",city,"Mainz, Deutschland",Deutschland
119,-99.1614805,19.380613,Chepo,408289047,2020-02-29 22:43:23,,city,"Benito Jurez, Distrito Federal",Mxico
137,7.4225685000000015,43.7471065,Mikadololo,4082892285,2020-02-24 23:35:32,Monaco,city,"Beausoleil, France",France
88,127.6876045,26.2112665,KING BOY,408289600,2020-04-28 22:42:38,,city, ,
175,49.867798500000006,26.651061499999997, ,408289640,2020-04-03 04:56:48,Kingdom of Saudi Arabia,city,"Safwa, Kingdom of Saudi Arabia",Kingdom of Saudi Arabia
46700,-121.9719265,38.362844,Josh Estep,40828970,2020-03-28 17:13:00,"Vacaville/Sacramento, CA",city,"Vacaville, CA",United States
32100,-87.71523400000002,46.4851235,kent,408289712,2020-03-19 07:23:17,,city,"West Ishpeming, MI",United States
205,-3.94945621,56.11804604,scott borrowman,408289930,2020-06-08 12:10:00,"Stirling, Scotland",city,"Stirling, Scotland",United Kingdom
28140,-94.5809,39.1022,Sleepless ,4082900053,2020-03-10 01:46:45,"Las Vegas, NV",city,"Kansas City, MO",United States
29820,-115.025,36.0292,Sleepless ,4082900053,2020-04-01 04:04:08,"Las Vegas, NV",city,"Henderson, NV",United States
178,31.02973315,-29.82499114,Rishal Gayadeen,40829004,2020-03-07 14:20:14,"Durban, South Africa",city,"Durban, South Africa",South Africa
58,17.893490999999994,49.9210585,zbynek krajhanzl,408290548,2020-03-28 20:06:29,"Opava, esk republika",city,"Opava, esk republika",esk republika
65,1.7651305000000002,43.5899315,StEPhEBrARd,408290784,2020-03-05 19:14:05,,city,"Vendine, France",France
39300,-71.6017605,41.689837,Richard Pesapane,4082909775,2020-04-04 22:31:23,,city,"Coventry, RI",United States
35620,-74.16882100000002,39.6617135,Brenda Snow RN,4082913749,2020-03-13 14:44:05,"New Jersey, USA",city,"Surf City, NJ",United States
151,8.535017,11.977998,Halal Queen ,4082913831,2020-02-22 22:49:01,Allahs Mercy,poi,Ado Bayero Mall,Nigeria
222,106.83129950000001,-6.332802,LPN,408291978,2020-05-21 13:31:16,indonesia,city,"Jagakarsa, Indonesia",Indonesia
24,-79.7595915,43.724971000000004,Tusha Makavita,4082922973,2020-02-14 17:53:28,"Brampton, Ontario",city,"Brampton, Ontario",Canada
88,139.662506,35.2601965,,408292454,2020-05-09 10:52:25,,city, ,
49340,-71.812438,42.27576000000001,Mike Fox,4082930001,2020-02-24 13:24:21,,city,"Worcester, MA",United States
45300,-82.18936450000002,28.232046500000003,Mike Fox,4082930001,2020-03-05 17:40:47,,city,"Zephyrhills, FL",United States
49340,-71.812438,42.27576000000001,Mike Fox,4082930001,2020-03-17 21:18:06,,city,"Worcester, MA",United States
222,106.93486789,-6.10037164,Tumbuhan Liar,408293379,2020-05-13 03:43:09,Jakarta,city,"Cilincing, Indonesia",Indonesia
36740,-81.265027,28.80896,Sara Trichell,408293633,2020-02-22 01:03:34,,poi,Sanford Brewing Company,United States
19820,-82.958912,42.408347,Natalya,4082938095,2020-04-25 05:49:30,"Detroit, MI",poi,East Side Detroit,United States
16980,-87.732013,41.8335845,Lucy O,4082939713,2020-04-18 19:28:33,"Chicago, IL",city,"Chicago, IL",United States
88,131.466479,33.312293,,408294048,2020-03-12 04:05:04,,poi,,
222,112.27362250000002,-7.5755387,Djoen Setiawan,408294199,2020-04-22 09:00:39,Jombang,city,"Jogoroto, Indonesia",Indonesia
171,125.5841875,8.8999565, ,408294243,2020-02-28 08:52:40,"Davao City, Davao Region",city,"Butuan City, Caraga",Republic of the Philippines
205,-1.150016,52.0345425,Toby Rees,408294258,2020-03-13 07:44:53,,city,"Brackley, England",United Kingdom
65,2.347003,48.8588335,Max Pat,4082944215,2020-02-14 18:56:07,Paris ,city,"Paris, France",France
88,139.6262955,35.69816249999999,UKey,408294505,2020-02-14 00:23:28,,city, ,
96,47.9714947,29.23941009, ,4082947992,2020-02-25 13:20:54,Kuwait,city,"Airport Area, Kuwait",Kuwait
8,-58.48333333,-34.5,gabriela diaz,40829491,2020-04-25 13:31:47,argentina,city,"Vicente Lpez, Argentina",Argentina
46060,-110.974753,32.417646500000004,David Mueller,40829525,2020-02-15 03:17:22,"Tucson, AZ",city,"Oro Valley, AZ",United States
38060,-111.96552450000001,33.5456875,David Mueller,40829525,2020-03-17 03:36:14,"Tucson, AZ",city,"Paradise Valley, AZ",United States
46060,-110.974753,32.417646500000004,David Mueller,40829525,2020-03-23 02:43:44,"Tucson, AZ",city,"Oro Valley, AZ",United States
205,0.10673699999999998,51.768264,Mark Watters,408295251,2020-03-26 08:25:59,Newhall Essex,city,"Harlow, East",United Kingdom
186,-15.459848999999998,28.103013,Hugo Bez ,408295781,2020-02-14 09:31:47,"Firgas, Gran Canaria",city,"Las Palmas de Gran Canaria, Espaa",Espaa
119,-102.327207,21.849459000000003,monica,4082961618,2020-02-16 13:18:30,Aguascalientes,city,"Aguascalientes, Mxico",Mxico
205,-1.8900305,53.729572999999995,mark mcloughlin,408296170,2020-03-25 08:31:15,,city,"Halifax, England",United Kingdom
31080,-117.8874385,33.739992,Glenda Vaquerano,408296435,2020-02-29 08:14:57,"Santa Ana, CA",city,"Santa Ana, CA",United States
41740,-117.10498899999999,32.810012,Glenda Vaquerano,408296435,2020-03-01 20:03:17,"Santa Ana, CA",city,"San Diego, CA",United States
31080,-117.7823605,33.689732,Glenda Vaquerano,408296435,2020-03-06 17:28:28,"Santa Ana, CA",city,"Irvine, CA",United States
24,-73.723025,45.5578305,Simon Gervais-Quiblat,4082966927,2020-03-01 08:08:27,"Montral, Qubec",city,"Montral, Qubec",Canada
21,-47.796623,-15.776254000000002,,4082969417,2020-02-14 21:22:39,"Braslia, Brasil",city,"Braslia, Brasil",Brasil
19100,-97.2859135,32.7799665,Daniel Peterson,4082969892,2020-03-20 20:33:50,"Aledo, Texas",city,"Fort Worth, TX",United States
222,107.048775,-6.3459889999999985,Afdila,408297202,2020-05-01 21:28:52,,city,"Setu, Indonesia",Indonesia
222,110.366033,-7.793058,Rangga,408297361,2020-02-19 06:57:35,Yogyakarta !!,poi,Mal Malioboro,Indonesia
60,24.9696245,60.3191615,Hanna Keskinen,4082973923,2020-02-14 19:59:57,,city,"Vantaa, Suomi",Suomi
36420,-97.4451735,35.222301,Evan Bentley,40829743,2020-02-27 17:31:49,"Norman, OK",city,"Norman, OK",United States
38,-74.44159549999999,10.4133205,Sandra Visbal,4082975835,2020-04-13 18:58:01,,city,"Pivijay, Colombia",Colombia
119,-99.15278599999999,19.42967,Gonzalo Lira Galvn,40829768,2020-02-14 07:09:24,"Mexico City, Mx",poi,General Prim 30,Mexico
31080,-118.369645,34.0870095,Gonzalo Lira Galvn,40829768,2020-03-05 01:58:08,"Mexico City, Mx",city,"West Hollywood, CA",United States
119,-99.17894,19.374533,Gonzalo Lira Galvn,40829768,2020-03-06 16:26:04,"Mexico City, Mx",poi,Heraldo Tv,Mexico
21,-43.5786705,-22.7313695,F,4082979743,2020-04-04 17:48:04,"Queimados, Rio de Janeiro",city,"Queimados, Brasil",Brasil
205,-1.541816,53.3936705,Paul Hughes,408298000,2020-02-17 21:54:55,"Sheffield, England",city,"Stannington, England",United Kingdom
120,101.66400433,3.10985584,PMI Malaysia Chapter,408298333,2020-02-22 03:11:52,Kuala Lumpur,city,"Kuala Lumpur, Wilayah Persekutuan Kuala Lumpur",Malaysia
178,18.42175373,-33.92436976,Glenda McMinn,408298566,2020-04-26 13:18:39,Home,city,"Cape Town, South Africa",South Africa
29820,-115.15244918,36.15743004,La Gordita,408298577,2020-03-07 23:31:11,,city,"Las Vegas, NV",United States
222,106.94990800000001,-6.295911,BAPAK KAO SADBOI,408298982,2020-05-07 15:36:41,Bekasi,city,"Jatiasih, Indonesia",Indonesia
88,130.439438,33.5816955, ,408298987,2020-02-19 06:21:50,,city,  ,
82,84.87069,25.57124,Ankit kumar,4082995694,2020-04-26 05:58:23,,city,"Bhita, India",India
200,30.680889,36.89007,ali imek,408300051,2020-03-20 18:22:11,antalya,city,"Antalya, Trkiye",Trkiye
85,15.240954,38.2202515,Messina Santi,408300174,2020-05-09 05:33:44,"Milazzo, Sicilia",city,"Milazzo, Sicilia",Italia
35620,-73.989761,41.203511000000006,Kristina,4083018221,2020-05-21 00:35:22,,city,"West Haverstraw, NY",United States
205,-2.04461,52.48386,Oneblacksheep events,408302336,2020-06-03 09:48:12,Birmingham uk,city,"West Bromwich, England",United Kingdom
65,0.032844,49.244398499999996,Hugues,40830256,2020-02-29 14:35:08,"Liege, Walloon Region, Belgium",city,"Danestal, France",France
128,5.59800781,50.65591431,Hugues,40830256,2020-03-15 12:33:55,"Liege, Walloon Region, Belgium",city,"Liege, Belgium",Belgium
120,101.7109,3.1581,'thor'peq,408302602,2020-02-20 10:37:21,"Svalbard, Norge",city,"Kuala Lumpur City, Kuala Lumpur Federal Territory",Malaysia
31080,-118.11385600000001,33.954846999999994,Jakob Ramirez,4083027133,2020-02-24 00:29:34,"Anaheim, CA",poi,Chris' & Pitt's Restaurant,United States
120,117.6445355,4.4774199999999995,Nur Hafiza Bakri,408302803,2020-02-14 12:43:50,"Sabah, Malaysia",city,"Tawau, Sabah",Malaysia
35,14.207735000000001,12.3728115,Hassan Kabir,4083028037,2020-02-15 07:28:40,"Borno, Nigeria",city,"Gamboru, Nigeria",Nigeria
31180,-101.897173,33.5705265,kobie,4083028888,2020-03-04 00:12:38,,city,"Lubbock, TX",United States
171,121.30105,13.32081,Ly Anne M. Gaba-Mingi,408303177,2020-04-17 11:22:41,"Or. Mindoro, Philippines",city,"Naujan, Mimaropa",Republic of the Philippines
158,174.8562435,-36.595729,O,40830364,2020-03-01 21:07:45,Auckland,city,"Auckland, New Zealand",New Zealand
88,139.58210681,35.70358711,,408303731,2020-03-08 08:16:51,,city, ,
186,-1.70501,37.69573200000001,Cineclub Paradiso,408304528,2020-02-20 12:21:50,Lorca (Murcia) Espaa,city,"Lorca, Espaa",Espaa
120,101.705305,3.1485305,Khalil Munawar ,408304748,2020-02-20 15:59:12,Kuala Lumpur,city,"Kuala Lumpur City, Kuala Lumpur Federal Territory",Malaysia
82,78.162155,11.671894,  ,4083047488,2020-02-16 13:45:20,,poi,Johnsonpet,India
120,116.06553574,5.95942694,apizbaygon,408304753,2020-02-20 05:08:07,North London,city,"Kota Kinabalu, Sabah",Malaysia
173,131.9,43.1333,Spring November,408304761,2020-04-20 14:04:56,"London, England",city,"Vladivostok, Russia",Russia
41860,-122.419,37.7793,Spring November,408304761,2020-05-14 12:11:07,"London, England",city,"San Francisco, CA",United States
95,127.016,37.515,Spring November,408304761,2020-06-08 07:36:27,"London, England",city,"Gangnam-gu, Republic of Korea",Republic of Korea
151,7.49570897,9.03253513,PRINCE HARUNA ABALI,408304849,2020-02-29 15:46:49,Plot 1228 Oka Akoko Garki Abj.,city,"Abuja, Nigeria",Nigeria
186,2.24055,41.4593105,Javi Ramos,408304896,2020-02-23 00:09:56,"Montilla, Espaa",city,"Badalona, Espaa",Espaa
186,-0.706501,38.269299,david,408304997,2020-02-17 20:27:59,espaa,city,"Elche, Espaa",Espaa
171,121.08234499999999,14.5833065,Dxtr Dhl,4083051913,2020-04-27 12:34:17,"Gapan City, Central Luzon",city,"Pasig City, National Capital Region",Republic of the Philippines
24860,-82.2778465,34.719153999999996,Alex,40830547,2020-02-16 13:58:57,"Miami, FL",city,"Simpsonville, SC",United States
17900,-81.11191600000002,34.057336,Alex,40830547,2020-02-19 01:04:56,"Miami, FL",city,"St Andrews, SC",United States
24860,-82.2778465,34.719153999999996,Alex,40830547,2020-02-22 01:06:05,"Miami, FL",city,"Simpsonville, SC",United States
205,-3.044546,53.14586800000001,Julie Underhill,40830567,2020-04-03 15:45:26,Chester UK,city,"Penymynydd, Wales",United Kingdom
71,10.5202775,49.407853499999995,marshmelo Anthony aka Kobe beef,40830597,2020-02-14 07:09:21,buffalo ,city,"Flachslanden, Deutschland",Germany
200,29.1205295,40.202796000000006,Ezgi,4083060323,2020-04-12 15:40:23,Bursa,city,"Bursa, Trkiye",Trkiye
21,-61.398825,-11.3034345,GehSouza_21,4083060753,2020-03-07 05:24:43,"Cacoal, Brasil",city,"Cacoal, Brasil",Brasil
41740,-117.1605,33.1412,bill tomesch,40830612,2020-02-16 16:09:54,"San Diego, CA",city,"San Marcos, CA",United States
31080,-117.92016583,33.80945636,bill tomesch,40830612,2020-02-19 22:02:04,"San Diego, CA",city,"Anaheim, CA",United States
41620,-111.883,40.75,bill tomesch,40830612,2020-03-11 21:59:31,"San Diego, CA",city,"Salt Lake City, UT",United States
41740,-117.1605,33.1412,bill tomesch,40830612,2020-03-14 13:08:09,"San Diego, CA",city,"San Marcos, CA",United States
47260,-76.2958955,36.7632155,bill tomesch,40830612,2020-06-06 01:01:26,"San Diego, CA",city,"Chesapeake, VA",United States
200,29.0052225,41.0213205,Davut stbi,408306201,2020-02-14 17:28:02,"stanbul, Trkiye",city,"stanbul, Trkiye",Trkiye
33100,-80.12235550000001,26.301198,keyla,4083064407,2020-02-21 03:02:09,"Boca Raton, FL",city,"Deerfield Beach, FL",Estados Unidos
222,111.7641475,-8.173646999999999,Agung Febriyanto,408306448,2020-02-27 23:38:08,"Jombang, Indonesia",city,"Bandung, Indonesia",Indonesia
12700,-70.340373,41.636859,Maddy Kendall,4083066587,2020-03-04 18:55:08,"Westford, MA",poi,Craigville Beach,United States
205,-0.128048,51.507987,Paul Williams,4083072315,2020-03-10 14:21:58,"London, England",poi,Trafalgar Square,United Kingdom
205,-0.57184,51.4587465,Rob LocT2,408307369,2020-03-23 17:40:46,"London, England",city,"Old Windsor, South East",United Kingdom
13820,-86.79391700000001,33.5422375,Charles Waters,40830754,2020-02-27 04:51:59,NYC,city,"Birmingham, AL",United States
19300,-87.843186,30.629935999999997,Charles Waters,40830754,2020-02-29 02:34:00,NYC,city,"Daphne, AL",United States
35620,-73.9685415,40.780709,Charles Waters,40830754,2020-03-06 05:35:36,NYC,city,"Manhattan, NY",United States
65,6.188943,45.9806745,Marc REGNIER,40830757,2020-03-17 19:28:12,Annecy,city,"Les Ollires, France",France
65,5.2299115,47.28118550000001,PAOLASTREETILPARAIT,4083078027,2020-04-19 16:23:58,,city,"Cessey-sur-Tille, France",France
222,107.012009,-6.1846525,tss,40830781,2020-04-22 12:10:16,"Jakarta Capital Region, Indonesia",city,"Bekasi Utara, Indonesia",Indonesia
205,-1.517988,51.4128185,Lis Allen,40830793,2020-02-21 22:21:06,Based in UK,city,"Hungerford, England",United Kingdom
175,49.6276765,25.458642, | ibrahim #_,408308391,2020-05-01 09:33:04,",   ",city,",   ",  
171,121.038362,14.602503,Kim Edward Ilagan,408309049,2020-05-15 10:29:58,Republic of the Philippines,city,"San Juan City, National Capital Region",Republic of the Philippines
151,12.4836935,9.202513,Al-Amin,408309059,2020-03-20 13:50:56,"Yola, Nigeria",city,"Hausa, Nigeria",Nigeria
119,-99.15505999999999,19.37632,Pedro Luis,408309447,2020-03-30 05:54:42,Guatemala,city,"Benito Jurez, Distrito Federal",Mxico
