currentGEOID,lon,lat,name,author_Id,created_at,location,place_type,place_full_name,place_country
21,-42.1347125,-22.9346425,Waldigol,700226957,2020-04-25 21:30:18,"Arraial do Cabo, Brasil",city,"Arraial do Cabo, Brasil",Brazil
35620,-73.95731640000001,40.74730407,Catriona,700227079,2020-05-16 14:19:05,"New York, USA",city,"Queens, NY",United States
205,-0.15542686,50.8247202,TheRobinHoodBN1,700227442,2020-02-16 16:25:34,Brighton,city,"Brighton, England",United Kingdom
159,-57.581501,-25.386221,Ricardo Agero#,700227973,2020-04-14 20:55:47,Villa elisa,poi,Villa Elisa,Paraguay
159,-57.60601750000001,-25.300264000000002,Mushi,700228182,2020-02-27 23:07:47,Luque,city,"Asuncion, Paraguay",Paraguay
42660,-122.3306025,47.614816999999995,Bearded Mug,70022926,2020-02-14 23:41:57,Tennessee,city,"Seattle, WA",United States
119,-99.15234,19.328383,g a b r i e l l a,70022959,2020-02-21 02:15:28,Mxico,city,"Coyoacn, Distrito Federal",Mxico
25180,-77.98526700000001,39.460648,David Statman,70022964,2020-02-15 05:10:45,"Martinsburg, WV",city,"Martinsburg, WV",United States
19100,-97.2859135,32.7799665,Uzair Khan,70022995,2020-02-18 06:36:38,"Dallas, TX",city,"Fort Worth, TX",United States
193,99.02698823,18.79134191,Opor,700230163,2020-03-22 07:53:54,,city,"Nong Pa Khrang, Thailand",Thailand
96,47.678193,29.337164,  ,700230195,2020-02-21 11:13:15," ,  ",poi, , 
16980,-87.732013,41.8335845,rodri,700230200,2020-02-14 01:51:38,chicago    ,city,"Chicago, IL",United States
152,4.904053500000001,52.354728,rodri,700230200,2020-04-21 05:41:07,chicago    ,city,"Amsterdam, The Netherlands",The Netherlands
16980,-87.732013,41.8335845,rodri,700230200,2020-04-22 21:35:48,chicago    ,city,"Chicago, IL",United States
21,-46.422691,-23.7107695,tila Tetsuo Cumagai,70023056,2020-04-25 01:48:37,Santo Andr,city,"Santo Andr, Brasil",Brazil
193,100.502187,13.7128775,kkkookkai,70023059,2020-02-15 07:23:05,Thailand,city,"Bang Lamphu Lang, Thailand",Thailand
21,-46.6333,-23.55,Leon Medina ,70023140,2020-06-01 15:17:17,"So Paulo, Brasil",city,"So Paulo, Brasil",Brasil
31180,-101.897173,33.5705265,alejandro,700231740,2020-02-14 19:25:51,,city,"Lubbock, TX",United States
26420,-95.4464865,29.838495,alejandro,700231740,2020-02-17 03:53:53,,city,"Houston, TX",United States
31080,-118.1940255,33.938045,Carol Berkeley,700232540,2020-05-16 00:26:11,So. Cal,city,"South Gate, CA",United States
35620,-73.9685415,40.780709,Kendall Gough,70023296,2020-02-14 15:52:42,enn why see,city,"Manhattan, NY",United States
45060,-76.1288105,43.052607,Kendall Gough,70023296,2020-04-19 23:32:55,enn why see,city,"Syracuse, NY",United States
35620,-73.9487755,40.655138,Kendall Gough,70023296,2020-05-01 06:40:23,enn why see,city,"Brooklyn, NY",United States
36740,-81.40234699999998,28.2993705,Kendall Gough,70023296,2020-05-06 20:22:54,enn why see,city,"Kissimmee, FL",United States
48100,-81.812782,27.5431695,Kendall Gough,70023296,2020-05-18 15:04:07,enn why see,city,"Wauchula, FL",United States
36740,-81.2981265,28.5421055,Kendall Gough,70023296,2020-05-19 20:08:31,enn why see,city,"Azalea Park, FL",United States
48100,-81.812782,27.5431695,Kendall Gough,70023296,2020-05-31 01:40:27,enn why see,city,"Wauchula, FL",United States
186,-3.7035075,40.4777945,Csar,700233122,2020-03-03 20:38:32,"Puerta del ngel, Madrid",city,"Madrid, Espaa",Espaa
88,127.7644095,26.319714500000003,rina.,700234240,2020-02-28 13:24:33,NY - VA - JPN,city,"Chatan-cho, Okinawa",Japan
21,-51.1593095,-30.099836,Rita Brasil Produtora,70023440,2020-04-27 08:08:52,"Porto Alegre, Brasil",city,"Porto Alegre, Brasil",Brasil
119,-100.270474,25.736715,Tommy Moreno,700234546,2020-02-19 18:55:39,,city,"San Nicols de los Garza, Nuevo Len",Mxico
41700,-98.5406515,29.417501,Moreno Amaya,700234546,2020-03-16 01:38:15,,city,"San Antonio, TX",Estados Unidos
119,-100.270474,25.736715,Moreno Amaya,700234546,2020-03-19 05:35:53,,city,"San Nicols de los Garza, Nuevo Len",Mxico
171,122.54865600000001,10.730955,/MeandGyu,700234916605222912,2020-02-21 12:51:57,Kim Mingyus Heart,poi,CPU Big Field,Republic of the Philippines
88,130.7487335,33.8342865,5,70023499,2020-03-06 11:30:26,,city,  ,
222,110.38682050000001,-7.813616000000001,ygswrdh,70023558,2020-03-23 11:28:29,"Yogyakarta, Indonesia",city,"Umbulharjo, Indonesia",Indonesia
47900,-77.0908695,38.81738,Jose Ramos,700235641,2020-03-14 16:28:03,"Arlington, VA",city,"Alexandria, VA",United States
175,46.63086891,24.75597043,Noura,700235675,2020-02-18 11:54:02,Riyadh,city,",   ",  
65,2.293489,48.918011,Mountain Isabelle,700235851939315712,2020-02-25 11:57:17,Honfleur ,city,"Asnires-sur-Seine, France",France
151,3.3676459999999997,6.436071,Akobo Buhari Jubril_Al Sudan,700235877,2020-03-24 12:14:30,Port Harcourt,city,"Lagos, Nigeria",Nigeria
38,-76.5225,3.4372199999999995,VICTOR MARTINEZ,70023597,2020-06-07 02:58:37,La sucursal del cielo (?),city,"Candelaria, Colombia",Colombia
82,85.385683,23.3604345,Gopal Mawandia,700236403,2020-04-25 17:13:21,,city,"Ranchi, India",India
151,9.825524,10.315941,Ahmad Abdulhameed,700238003,2020-03-26 08:55:26,Nigeria,city,"Bauchi, Nigeria",Nigeria
45780,-83.645809,41.3870895,Rigo Ramos,700238216,2020-06-10 19:20:24,"Archbold, Ohio",city,"Bowling Green, OH",United States
17980,-84.917307,32.4823035,Juan Rodriguez,70023870,2020-03-06 16:17:41,"Columbus, GA",city,"Columbus, GA",United States
39300,-71.5,41.7,danielle,700238982,2020-02-18 00:17:07,,city,"Warwick, RI",United States
211,-66.62109375,10.46620556,danielle,700238982,2020-02-22 18:04:19,,city,"Guarenas, Venezuela",Venezuela
21500,-80.13161868,41.87726423,danielle,700238982,2020-03-08 18:47:17,,city,"Edinboro, PA",United States
119,-99.208364,19.199485,Manuel Guzmn Tronco  ,70023919,2020-05-22 15:47:28,Ciudad de Mxico,city,"Tlalpan, Distrito Federal",Mxico
88,139.02965669999998,37.90238619,T.Hamazaki,700239314,2020-02-14 01:29:09, ,city,  ,
21,-46.6333,-23.55,Guilherme Fahl,70023936,2020-02-15 19:19:49,Brasil,city,"So Paulo, Brasil",Brasil
222,106.996539,-6.120126,saptadi nurfarid,70024021,2020-04-14 00:17:10,"T: -6.202229,106.849761",city,"Tarumajaya, Indonesia",Indonesia
15180,-97.477426,25.972105499999998,Ayln ,700240622,2020-03-19 00:39:36,,city,"Brownsville, TX",United States
222,107.33609299999999,-6.353004,Rio G Rofiansyah,70024203,2020-04-28 12:38:21,"DKI Jakarta, Indonesia",poi,Gerbang Tol Karawang Timur,Indonesia
205,-0.4593665,52.1374735,Matt Fuller,700242484,2020-02-29 20:46:50,"Woburn & Stamford, England",city,"Bedford, England",United Kingdom
69,-1.2646484999999998,5.118951,De' General,700242675933515776,2020-03-22 10:55:48,"Cape Coast, Ghana",city,"Cape Coast, Ghana",Ghana
205,-0.55482,50.85503,Bright Spark Energy,700242928745234433,2020-02-14 18:14:59,UK,city,"Arundel, England",United Kingdom
35620,-74.00076130000001,40.7207559,Bright Spark Energy,700242928745234433,2020-02-18 12:31:33,UK,city,"Manhattan, NY",United States
205,-4.71201,51.676790000000004,Bright Spark Energy,700242928745234433,2020-03-10 10:46:23,UK,city,"Tenby, Wales",United Kingdom
119,-99.202136,19.337335,Xuxo,70024303,2020-06-11 15:04:17,Cdmx,poi,Iglesia De Tizapan,Mxico
119,-103.335882,20.676652,I,70024314,2020-02-17 02:58:02,,city,"Guadalajara, Jalisco",Mxico
12060,-84.38595,33.789546,Devin,700243693,2020-02-15 19:41:59,"Rumson, NJ",poi,High Museum of Art,United States
30780,-92.342322,34.721886,John ,70024391,2020-02-14 02:51:36,"Little Rock, AR",city,"Little Rock, AR",United States
88,135.75197643,35.02958376,MaiKo,700244288,2020-02-17 04:42:15,14,city,  ,
88,139.7091805,35.701657,@,700244661726613505,2020-02-15 13:44:31,,city,"Shinjuku-ku, Tokyo",Japan
33460,-93.2323,44.9342,Mark resists ,7002452,2020-02-17 21:36:07,Somewhere over the rainbow,city,"Minneapolis, MN",United States
21,-48.505829999999996,-25.5194,Danni Bond  ,70024697,2020-02-17 00:35:40,Pgu,city,"Paranagu, Brasil",Brasil
151,3.39528,6.574859,Jacuzzi,700247398,2020-04-02 17:50:27,"Ikorodu, Lagos.",poi,Ogudu GRA,Nigeria
19820,-83.0507,42.3368,lezzie mcguire,700248301,2020-05-30 16:19:04,tYpsilanti,city,"Detroit, MI",United States
225,55.458127000000005,25.335217,,700248458,2020-02-23 03:49:53,",   ",poi,Sharjah,  
28140,-94.7745775,38.954341,Sam Johnson,7002492,2020-04-02 16:11:51,,city,"Lenexa, KS",United States
151,3.3386055,6.4931125000000005,swt,700249718,2020-02-15 17:41:12,Lagos,city,"Lagos, Nigeria",Nigeria
222,112.743,-7.2653,Vickie JAP,70024997,2020-06-02 04:45:23,indonesia,city,"Genteng, Indonesia",Indonesia
12060,-84.53213249999999,33.9481235,Jay,700250048,2020-06-01 02:21:42,"New York, USA",city,"Marietta, GA",United States
38,-73.38497000000002,5.4904705,DorhotRideFx,700250168,2020-02-15 20:45:10,"Tunja, Colombia",city,"Tunja, Colombia",Colombia
82,72.983779,21.589006,Raman kumar,700251236,2020-04-05 15:33:15,Ankleshwar.,city,"Ankleshwar, India",India
18140,-82.985772,39.9946835,katie grace ,700251701,2020-02-27 14:09:51,"OHIO, USA",city,"Columbus, OH",United States
21,-46.321709999999996,-23.39631,T h a y,700251870,2020-02-26 18:17:40,"So Paulo, Brasil",city,"Aruj, Brasil",Brasil
19740,-105.045158,39.7877915,Kris Puckett,70025211,2020-02-14 00:00:34,"Denver, CO",neighborhood,"Regis, Denver",United States
21,-43.018208,-22.821465,Jess(ica Jones),70025212,2020-05-20 02:49:31,Rio de Janeiro - Brasil,city,"So Gonalo, Brasil",Brasil
88,139.75636450000002,35.68688450000001, MasaruOnodera,70025279,2020-02-18 13:36:34,,city, ,
9,139.276,-35.11873,PurpleHairDay4ChiariGlobal,70025358,2020-02-14 01:38:32,"Murray Bridge, South Australia",city,"Murray Bridge, South Australia",Australia
31080,-118.611,34.1689,Pavelly,700254079,2020-02-27 07:36:55,"Los Angeles, CA",city,"Los Angeles, CA",United States
186,-5.5825375,42.593647,,700254383,2020-05-19 05:52:01,,city,"Len, Espaa",Espaa
21,-47.44642138,-23.47078919,SaninUchihaSalomoch,70025442,2020-03-07 14:12:08,,city,"Sorocaba, Brasil",Brasil
26420,-95.4464865,29.838495,Abby,700254596,2020-02-14 06:30:52,TX,city,"Houston, TX",United States
45300,-82.44269399999997,27.9965945,Wes,700255130,2020-04-06 18:09:02,"Tacoma, WA",city,"Tampa, FL",United States
37980,-75.117998,40.0048655,Kaitlyn Marie,700255835,2020-02-23 14:41:25,,city,"Philadelphia, PA",United States
14460,-71.15276999999999,42.34986,Betty,700256335,2020-02-18 17:21:54,"Brighton, MA",city,"Boston, MA",United States
85,9.932688,45.088741,,700257149,2020-03-08 15:00:25,  ,city,"Monticelli d'Ongina, Emilia Romagna",Italia
222,116.215029,-3.252341,Khatulistiwa_kesorean ,700257698726547456,2020-03-13 01:27:23,"Kalimantan Selatan, Indonesia",poi,RSUD Kotabaru,Indonesia
33100,-80.1677155,26.062405,KinGKrisG,70025775,2020-02-14 03:00:46,"Tallahassee, FL",city,"Dania Beach, FL",United States
19100,-96.690937,32.9644845,Hawana Townsley,700258614,2020-05-13 06:31:53,,city,"Richardson, TX",United States
8,-58.6913635,-34.640148,Santi Medaglia,700259299,2020-05-19 18:13:16,Castelar,city,"Ituzaing Centro, Argentina",Argentina
26420,-95.824553,29.783996,Vivian Guerra,700259611,2020-04-28 07:16:36,,city,"Katy, TX",United States
88,140.38905525,35.77396074,,70025962,2020-03-05 13:00:14,"Japan, Europe",city, ,
200,28.74238014,41.26019465,,70025962,2020-03-06 06:04:50,"Japan, Europe",neighborhood,"mrahor, Arnavutky",Trkiye
235,20.291791,44.819686,,70025962,2020-03-10 21:26:53,"Japan, Europe",poi,Nikola Tesla Airport,Srbija
88,141.37527350000002,38.439192999999996,,700259801465393152,2020-02-24 12:44:03,,city,"Ishinomaki-shi, Miyagi",Japan
95,126.966944,37.0285375,dolo,700260438,2020-03-11 18:32:06,Blessed,city,"Pyeongtaek-si, Republic of Korea",Republic of Korea
37980,-75.117998,40.0048655,South Philly Sean,70026066,2020-05-27 04:48:53,"Philadelphia, PA",city,"Philadelphia, PA",United States
186,-2.0262425,40.173983500000006,ariadna tejada de r,700261292,2020-03-05 23:20:59,"San Rafael, Cuauhtmoc CDMX",city,"Cuenca, Espaa",Espaa
71,6.0964765,50.759687,ariadna tejada de r,700261292,2020-03-27 20:50:07,"San Rafael, Cuauhtmoc CDMX",city,"Aquisgrn, Alemania",Alemania
38940,-80.2302895,27.3213805,David Gavinski,700261999,2020-03-21 19:58:07,"Florida, USA",city,"Hutchinson Island South, FL",United States
178,28.386694,-25.710812,Myers,700262785,2020-04-03 20:04:42,Tzannen,city,"Mamelodi, South Africa",South Africa
8,-58.5641745,-34.544659,F  ,700263068,2020-03-07 10:10:32,feliz,city,"Ciudad del Libertador General San Martn, Argentina",Argentina
200,32.897239,40.036113,Merve Tapnar,700263369014693888,2020-04-17 13:56:51,,city,"Pursaklar, Trkiye",Trkiye
35620,-73.9487755,40.655138,Botsclothingco,700263697,2020-02-15 13:07:20,"New York, NY",city,"Brooklyn, NY",United States
151,3.3386055,6.4931125000000005,omo_Gee,700264096,2020-03-21 15:51:36,Nigeria,city,"Lagos, Nigeria",Nigeria
175,39.16114,21.618762,Abdul Samad Jatt,700264644,2020-04-15 23:25:18,,poi,   ,Kingdom of Saudi Arabia
9,115.9283185,-32.1501005,Paul Attwell,700264807,2020-03-22 01:53:11,Armadale  Western Australia,city,"Perth, Western Australia",Australia
222,112.74452600000001,-7.263373,Noah,70026629,2020-06-04 02:48:33,they/them.,poi,SMA Negeri 6 Surabaya,Indonesia
24,-79.27256949999999,43.629311,evo,70026718,2020-04-16 19:50:39,"Toronto, Ontario",city,"Toronto, Ontario",Canada
128,4.095382,51.0286775,Jan De Maeyer,700267335341449216,2020-03-15 19:08:40,,city,"Dendermonde, Belgi",Belgi
222,104.1061725,1.0902715,devito,700267438647091201,2020-05-31 06:29:23,Indonesia,city,"Nongsa, Indonesia",Indonesia
88,132.44895200000002,34.3857005,,700269621098651648,2020-03-28 17:59:40,,city,  ,
24,-79.27256949999999,43.629311,Marcos,70027071,2020-02-14 04:33:42,Brazil,city,"Toronto, Ontario",Canada
119,-107.3420565,24.662488500000002,Ricardo Duran,700270848,2020-03-19 19:18:56,"Culiacan, Mexico",city,"Culiacn, Sinaloa",Mxico
161,73.06521592,33.69386247,Adriene ,700271100,2020-05-10 01:31:13,,city," , ",
120,101.81795977,2.77238266,farhandowski,700271287,2020-02-15 12:22:25,,city,"Labu, Negeri Sembilan",Malaysia
35620,-74.0064,40.7142,Dan Traglia,700271743,2020-05-14 22:14:02,,city,"Manhattan, NY",United States
65,2.3885919999999996,48.912822999999996,LEESALOOO*!,700271861951819781,2020-02-19 19:13:26,Suisse,city,"Aubervilliers, France",France
191,6.826450500000001,47.11358850000001,LEESALOOO*!,700271861951819781,2020-03-06 12:16:46,Suisse,city,"La Chaux-de-Fonds, Suisse",Suisse
13820,-86.73975,33.481181,Eleanor Walker,700272128,2020-03-03 13:01:52,Birmingham,city,"Mountain Brook, AL",United States
21,-40.37516700000001,-20.427329500000003,Tia Samara,700272157,2020-04-21 17:06:11,Vila Velha - Espirito Santo,city,"Vila Velha, Brasil",Brasil
12020,-83.39977950000001,33.9563835,XVIII,700272769,2020-03-06 13:25:02,,city,"Athens, GA",United States
37980,-75.117998,40.0048655,XVIII,700272769,2020-04-18 20:10:53,,city,"Philadelphia, PA",United States
12020,-83.39977950000001,33.9563835,XVIII,700272769,2020-05-05 02:30:12,,city,"Athens, GA",United States
37980,-75.117998,40.0048655,XVIII,700272769,2020-05-26 15:59:53,,city,"Philadelphia, PA",United States
33100,-80.08421200000002,26.617028499999996,Andy,700273232,2020-02-14 00:15:53,,city,"Lake Worth, FL",United States
222,112.132365,-8.08732,Desem,700273256,2020-03-08 03:50:58,Indonesia,city,"Sanan Kulon, Indonesia",Indonesia
17460,-82.01759399999999,41.4968475,Jess,700273537,2020-02-14 02:43:15,"Cleveland, OH",city,"Avon Lake, OH",United States
12060,-84.39310596,33.76002097,Camelia Mayfield,700273700,2020-03-01 13:15:08,"Bend, OR",city,"Atlanta, GA",United States
13460,-121.26899999999999,44.0672,Camelia Mayfield,700273700,2020-04-17 04:33:17,"Bend, OR",city,"Bend, OR",United States
34180,-119.84765335,47.23141903,Camelia Mayfield,700273700,2020-06-07 22:58:15,"Bend, OR",city,"Quincy, WA",United States
48620,-97.32148000000001,37.688178,Jonasty ,700274000,2020-03-03 04:55:53,"Wichita, KS",city,"Wichita, KS",United States
21,-48.672716,-27.582547,Fl,70027427,2020-02-14 02:23:51,"Florianpolis, Brasil",city,"So Jos, Brasil",Brazil
82,72.87424399999999,19.174139999999998,Alok Sanwal,700274557,2020-02-28 06:08:06,kanpur,city,"Mumbai, India",India
193,100.5398798,13.7500516,,70027575,2020-03-07 16:04:25,"Lumlooka, Pathumthani",city,", ",
200,27.363322999999998,38.16227000000001,Uzl. zgr HELVACI,700276039,2020-06-10 15:08:27,"Torbal, zmir",city,"Torbal, Trkiye",Trkiye
21,-41.96045634,-18.87711201,CamilaSouzaFerreira,700277001,2020-02-14 22:18:21,"Governador Valadares, Brasil",city,"Governador Valadares, Brasil",Brasil
29620,-84.412759,42.711251,tara gandhi,700277556,2020-03-12 19:41:56,"Mason, MI",city,"Okemos, MI",United States
35620,-73.37293149999998,40.68726,Tyler Pizz,700277634,2020-02-14 12:54:29,,city,"Lindenhurst, NY",United States
88,139.745379,35.652789,RYOW_092,700277635,2020-03-13 10:06:50,,city, ,
160,-77.100071,-12.049992,Comunidad de Digielegidos,700277914860986368,2020-02-17 13:14:27,"Lima, Peru",city,"Bellavista, Peru",Peru
171,121.7674675,17.599867500000006,lauren,700277971848802304,2020-02-16 17:27:39,green fields near buenos aires,city,"Tuguegarao City, Cagayan Valley",Republic of the Philippines
82,76.585677,28.260807,Rao Puneet Afaria,700278126,2020-03-09 13:45:52,"Rewari, India",city,"Rewari, India",India
222,112.743,-7.2647,Daniel y wiranata,70027900,2020-03-06 23:56:55,"T: -7.2782727,112.7917305",city,"Genteng, Indonesia",Indonesia
222,109.14946,0.33395199999999997,widyastuti fitriani,70027956,2020-05-05 13:22:40,yogyakarta,poi,Batalyon Infantri 643 / Wanara Sakti TNI AD,Indonesia
40060,-77.49317049999998,37.529883,Whoregarden804,700279597628317696,2020-04-09 04:40:50,"Richmond, VA / 804/ RVA ",city,"Richmond, VA",United States
211,-66.930644,10.483539,Hwarang Do TaeKwon-Do ITF VZLA,700279868,2020-03-18 13:26:00,caracas venezuela,city,"Caracas, Venezuela",Venezuela
88,135.7910784,34.50782181,shigeki shigeta,700280468,2020-02-15 01:01:22,2,city, ,
95,127.12755484,37.51857871,,700280748796878849,2020-05-01 11:24:38,  ,city, ,
21,-51.18,-29.92,Diego Patito,70028152,2020-05-09 22:08:57,Canoas/RS,city,"Canoas, Brasil",Brasil
35620,-73.9685415,40.780709,Ayre Ketsiri ,700281620,2020-03-28 22:24:54,"New York, NY",city,"Manhattan, NY",United States
8,-58.447417599999994,-34.627483700000006,Danilo Carrasquel,70028242,2020-03-29 00:12:38,"Buenos Aires, Argentina",city,"Ciudad Autnoma de Buenos Aires, Argentina",Argentina
33100,-80.16212850000001,25.9851745,JayGoBrazy,700282443,2020-05-06 06:06:28,,city,"Hallandale Beach, FL",United States
17980,-84.917307,32.4823035,S M O K E Y,70028293,2020-03-09 00:51:36,Da woods ,city,"Columbus, GA",United States
29340,-93.18018099,30.19639692,S M O K E Y,70028293,2020-03-14 18:09:33,Da woods ,city,"Lake Charles, LA",United States
82,72.87424399999999,19.174139999999998,Amol,70028347,2020-02-15 11:55:05,Mumbai,city,"Mumbai, India",India
65,2.546279,46.370679,   ,700283620448149504,2020-03-06 02:11:31,,city,"Domrat, France",France
21780,-87.2708365,38.044544,A. Dewayne Clark,70028370,2020-03-09 04:01:37,S.W. Indiana,city,"Boonville, IN",United States
41740,-117.29700000000001,33.122,Rick J Nash HCV Advocate ,700284386,2020-06-02 14:51:08,San Diego,city,"Carlsbad, CA",United States
18140,-82.985772,39.9946835,nad'a,700284476,2020-02-14 03:10:18,"columbus, ohio",city,"Columbus, OH",United States
33,-70.335592,-18.34923,Manolo,70028504,2020-02-19 01:28:25,Arica ,poi,Aeropuerto Chacalluta (ARI),Chile
41940,-121.85049199999999,37.402159000000005,Robert Contreras Jr.,70028540,2020-03-16 03:59:06,"San Jose, Ca. /S.F. Bay Area",poi,Piedmont Hills High School,United States
21,-38.617594,-5.882518,VIVIANNE ,70028556,2020-04-14 04:14:59,"Cear, Brasil",poi,Hospital Municipal de Jaguaribe,Brasil
171,121.38692749999998,13.761854499999998,Irish Rotao,700285752832184321,2020-06-11 12:04:10,,city,"San Juan, Calabarzon",Republic of the Philippines
24,-75.625038,45.4827445,Sophie Frchette,70028580,2020-03-25 03:48:54,Au Qubec,city,"Gatineau, Qubec",Canada
38060,-111.7385665,33.295215,Ryan Naylor,700285802,2020-02-20 03:52:22,"Phoenix, AZ",city,"Gilbert, AZ",United States
33100,-80.12235550000001,26.301198,Ryan Naylor,700285802,2020-03-03 02:59:38,"Phoenix, AZ",city,"Deerfield Beach, FL",United States
38060,-111.7385665,33.295215,Ryan Naylor,700285802,2020-04-04 16:24:58,"Phoenix, AZ",city,"Gilbert, AZ",United States
41100,-113.4906105,37.123715999999995,Ryan Naylor,700285802,2020-05-02 00:09:17,"Phoenix, AZ",city,"Washington, UT",United States
38060,-111.7385665,33.295215,Ryan Naylor,700285802,2020-05-13 04:11:05,"Phoenix, AZ",city,"Gilbert, AZ",United States
31080,-118.125196,34.583628999999995,Amanda M.,700286471387779072,2020-02-22 00:28:07,"Littlerock, CA",city,"Palmdale, CA",United States
21,-46.710648299999995,-23.49427034,Lgia Brbara,70028653,2020-02-28 19:41:06,castanhal-pa,city,"So Paulo, Brasil",Brasil
21,-43.19778,-22.98442,CONSTNCIA`S SALO ,700286780,2020-04-20 22:25:42,Visconde de Piraj n 86 lj5,city,"Rio de Janeiro, Brasil",Brasil
88,136.864394,35.2802205,454545@h,700287889,2020-03-03 17:44:19,,city, ,
88,139.71509400000002,35.7291085,,700288105,2020-02-25 01:33:04,,city, ,
14260,-116.238001,43.598033,Mir&duh,700288218,2020-02-17 01:42:23,"Boise, Idaho",city,"Boise, ID",United States
13820,-87.26302199999999,33.8583035,Beth Starnes Borders,700288524,2020-05-10 21:28:21,"Jasper, AL",city,"Jasper, AL",United States
41860,-122.43597849999999,37.7706565,Brianna Rader,700288731,2020-03-06 07:55:10,"San Francisco, CA",city,"San Francisco, CA",United States
175,49.98708461,26.56893241,Fatimah Alkhater,700289075195019264,2020-02-14 12:41:06,Qatif,city,",   ",  
65,2.347003,48.8588335,Naresh Debnath,700289529,2020-02-15 09:23:43,"Paris, France",city,"Paris, France",France
88,136.10218700000001,35.13157812,(),70028966,2020-04-04 01:25:05,,city, ,
12060,-84.3889,33.7566,Hypnotic Beauty,70029005,2020-02-18 05:01:21,"Decatur, AL",city,"Atlanta, GA",United States
161,73.06521592,33.69386247,Hypnotic Beauty,70029005,2020-04-06 05:19:06,"Decatur, AL",city,"Islamabad, Pakistan",Pakistan
19460,-86.9834,34.580999999999996,Hypnotic Beauty,70029005,2020-04-29 02:27:08,"Decatur, AL",city,"Decatur, AL",United States
22020,-96.74985600000001,46.867968499999996,Amber Westereng,700290134,2020-03-05 02:25:06,,city,"Moorhead, MN",United States
33500,-101.26794,48.23281,Amber Westereng,700290134,2020-05-15 16:40:02,,city,"Minot, ND",United States
88,130.57243899999997,33.3958195,,70029043,2020-03-31 00:18:37,",  JP",city, ,
36260,-111.98902,41.2854645,call me Daddy(issues),700291225,2020-02-16 05:04:50,"Ogden, UT",city,"Harrisville, UT",United States
30860,-111.82938,41.7383585,call me Daddy(issues),700291225,2020-02-29 19:42:08,"Ogden, UT",city,"Logan, UT",United States
36260,-111.98902,41.2854645,call me Daddy(issues),700291225,2020-03-03 10:21:17,"Ogden, UT",city,"Harrisville, UT",United States
30860,-111.82938,41.7383585,call me Daddy(issues),700291225,2020-03-10 17:05:55,"Ogden, UT",city,"Logan, UT",United States
35380,-90.07,29.9339,han,700291650,2020-02-20 17:32:15,"New Orleans, LA",city,"New Orleans, LA",United States
119,-97.39257217,18.46253932,Carlos Snchz,700292372,2020-02-17 15:25:00,"Puebla, Mexico",city,"Tehuacn, Puebla",Mxico
88,140.03578399999998,35.68038850000001,,700292731,2020-02-18 06:23:41,  ,city, ,
205,-0.4323375,51.8944435,Scott Brand,700294147,2020-02-21 20:39:11,UK  Oz  Europe  ,city,"Luton, England",United Kingdom
82,77.550599,28.499759,DK TIWARI,700294271119675392,2020-05-12 15:26:11,,city,"Greater Noida, India",India
8,-58.6552255,-34.597337,Ayelen Vallejo,70029498,2020-02-16 00:08:03,"Buenos Aires, Argentina",city,"Hurlingham, Argentina",Argentina
119,-89.62361100000003,20.941035,Lobo que nunca duerme.,700295161,2020-02-14 01:14:08,"Mrida, Yucatn",city,"Mrida, Yucatn",Mxico
175,50.20176100000001,26.307814,jacky donor,700295172756627456,2020-03-02 00:27:47,"Dammam, Kingdom of Saudi Arabia",city,"Al Khobar, Kingdom of Saudi Arabia",Kingdom of Saudi Arabia
119,-99.65569258,19.29010009,GJ,70029539,2020-02-27 04:21:31,,city,"Toluca, Mxico",Mxico
31080,-118.30326521,34.18663973,GJ,70029539,2020-05-10 04:08:56,,city,"Burbank, CA",Estados Unidos
65,2.339632,48.858171999999996,GJ,70029539,2020-05-13 03:13:13,,city,"Pars, Francia",Francia
128,4.3448,50.8271,GJ,70029539,2020-05-15 04:35:30,,city,"Sint-Gillis, Belgi",Blgica
152,4.89604287,52.37550462,GJ,70029539,2020-05-15 20:59:22,,city,"Amsterdam, Holanda",Holanda
222,106.81833700000001,-6.2087589,GJ,70029539,2020-05-18 21:47:41,,city,"Tanah Abang, Indonesia",Indonesia
58,14.34484039,50.06761933,GJ,70029539,2020-05-25 02:26:35,,city,"Praga, Repblica Checa",Repblica Checa
71,13.401251,52.518391,GJ,70029539,2020-05-28 21:34:18,,city,"Berln, Alemania",Alemania
58,14.42432698,50.08448153,GJ,70029539,2020-06-04 18:20:01,,city,"Praga, Repblica Checa",Repblica Checa
38,-75.22265788,4.44008189,Mile Rodriguez,70029544,2020-04-29 19:19:45,"Ibagu, Colombia",city,"Ibagu, Colombia",Colombia
120,101.680805,2.904732,_vnn3hvdi,70029551,2020-02-17 05:38:50,"Putrajaya, Putrajaya Federal Territory",city,"Dengkil, Selangor",Malaysia
151,3.3180660000000004,6.590611,Obiaraije-wuna,70029566,2020-04-25 04:13:34,"Lagos, Nigeria",city,"Ikeja, Nigeria",Nigeria
21,-43.441578,-22.911421500000003,Sheila V Ribeiro,70029692,2020-02-18 18:08:16,,city,"Rio de Janeiro, Brazil",Brazil
82,77.095086,28.638489500000002,Shanker Pandey,700297098474815488,2020-02-14 02:24:07,"New Delhi, India",city,"New Delhi, India",India
31740,-96.5745935,39.2099285,abby,700297111,2020-03-02 19:36:41,"Kansas, USA",city,"Manhattan, KS",United States
24,-83.02583584,42.25661045,Heather Cole,700297506,2020-03-30 16:16:48,"Los Angeles, CA",city,"Windsor, Ontario",Canada
82,77.0591,8.6737725,Basith Basi,700298160,2020-03-22 17:40:45,"Trivandrum, India",city,"Nedumangad, India",India
205,-5.928413,54.59586899999999,Vivien Tien,700298191,2020-03-01 01:17:19,Beijing / Belfast ,city,"Belfast, Northern Ireland",United Kingdom
16980,-87.732013,41.8335845,Alexandria Jade ,700298336,2020-03-02 21:51:44,"Chicago, IL",city,"Chicago, IL",United States
193,100.402986,13.694317000000002,MrTote,70029835,2020-03-08 03:33:06,Bangkok or Chiangrai,city,"Bang Khae, Thailand",Thailand
88,136.908247,35.16368,,700298712,2020-02-24 08:29:40,BDbox,city,  ,
17460,-81.79527694,41.42123259,Joe Stich,700298774,2020-03-16 00:25:54,"Cleveland, OH",city,"Cleveland, OH",United States
71,9.3726795,53.6798865,Roya,700298975639953408,2020-06-04 21:21:46,"Hamburg, Germany",city,"Hamburg, Germany",Germany
22420,-83.532268,43.026291,J.Kish,70029905,2020-02-18 06:06:16,The Mitten,city,"Davison, MI",United States
28020,-85.56568850000001,42.29052400000001,J.Kish,70029905,2020-02-29 22:24:12,The Mitten,city,"Kalamazoo, MI",United States
19820,-83.52915999999998,42.528303,J.Kish,70029905,2020-03-05 00:26:20,The Mitten,city,"Wixom, MI",United States
22420,-83.532268,43.026291,J.Kish,70029905,2020-03-21 16:42:02,The Mitten,city,"Davison, MI",United States
158,174.8562435,-36.595729,Josh Emmitt,70029935,2020-02-14 00:46:50,"Auckland, New Zealand",city,"Auckland, New Zealand",New Zealand
88,135.92063724,35.03158714, ,70029944,2020-05-07 03:59:29,,city,"Kusatsu-shi, Shiga",Japan
36740,-81.37914435,28.54187821,Brock Nacho ,70029963,2020-02-28 21:57:47,"Orlando, FL",city,"Orlando, FL",United States
12060,-84.43310600000001,33.7671945,Brock Nacho ,70029963,2020-05-08 20:08:16,"Orlando, FL",city,"Atlanta, GA",United States
36740,-81.3677725,28.5016785,Brock Nacho ,70029963,2020-05-11 15:30:56,"Orlando, FL",city,"Orlando, FL",United States
19660,-81.22000849999999,28.9045905,Brock Nacho ,70029963,2020-05-26 20:14:26,"Orlando, FL",city,"Deltona, FL",United States
36740,-81.3417295,28.6001855,Brock Nacho ,70029963,2020-05-26 23:53:26,"Orlando, FL",city,"Winter Park, FL",United States
12060,-84.53213249999999,33.9481235,Brock Nacho ,70029963,2020-05-31 04:48:17,"Orlando, FL",city,"Marietta, GA",United States
13020,-83.908928,43.617282,Brock Nacho ,70029963,2020-06-01 15:31:03,"Orlando, FL",city,"Bay City, MI",United States
33220,-84.237267,43.6358535,Brock Nacho ,70029963,2020-06-05 21:05:22,"Orlando, FL",city,"Midland, MI",United States
13020,-83.908928,43.617282,Brock Nacho ,70029963,2020-06-06 16:56:16,"Orlando, FL",city,"Bay City, MI",United States
36740,-81.3677725,28.5016785,Brock Nacho ,70029963,2020-06-10 16:34:59,"Orlando, FL",city,"Orlando, FL",United States
82,70.05515150000001,22.4958075,ashwin9852,700299955,2020-05-22 15:09:43,,neighborhood,"Gandhi Nagar, Jamnagar",India
211,-66.79402688,10.50003801,Gerardo,70030057,2020-02-24 22:44:42,Caracas,city,"Petare, Venezuela",Venezuela
41740,-117.10498899999999,32.810012,DavidfknBom,700301186,2020-02-18 05:01:59, /East San Diego  / AZ ,city,"San Diego, CA",United States
88,140.615038,36.385245,,700301647,2020-02-29 06:24:28,MEGANEKO,poi,,
88,135.319209,34.3925225,,700301891410890752,2020-04-08 11:08:27,,city, ,
8,-58.61175550000001,-34.646236,marco,700301974,2020-04-08 15:07:14,"Morn, Argentina",city,"Morn, Argentina",Argentina
171,123.94286100000001,10.3553425,yel,700302198,2020-03-18 04:44:26,"Cebu City, Central Visayas",city,"Mandaue City, Central Visayas",Republic of the Philippines
40900,-120.123499,38.811578000000004,Asha Uzumaki ,70030343,2020-06-01 00:25:36,,poi,Horsetail Falls,United States
41180,-90.346244,38.790594,tati. ,700303591,2020-04-07 15:50:10,STL ,poi,Kaslik,United States
45860,-73.4089,41.5825,#FREEKESHA,70030388,2020-05-22 22:35:48,CT,city,"New Milford, CT",United States
158,174.75433850000005,-41.2529975,The Happy Plaster,700304186,2020-02-18 18:25:08,New Zealand,city,"Wellington City, New Zealand",New Zealand
222,124.9249635,1.1330425,Mona Rombot,700304432,2020-02-22 14:18:02,"Tomohon, Sulawesi Utara",city,"Kakas, Indonesia",Indonesia
205,-2.960426,53.463655,Mona Rombot,700304432,2020-05-12 04:25:43,"Tomohon, Sulawesi Utara",city,"Liverpool, England",United Kingdom
222,124.89260794,1.17291996,Mona Rombot,700304432,2020-05-21 03:15:57,"Tomohon, Sulawesi Utara",city,"Kakas, Indonesia",Indonesia
38,-75.606961,6.3605795,Juliana,70030469,2020-05-26 16:45:10,,city,"Bello, Colombia",Colombia
21,-43.441578,-22.911421500000003,Pupuca ,70030495,2020-02-14 01:39:33,Rio de Janeiro,city,"Rio de Janeiro, Brasil",Brasil
19100,-97.1356375,32.70185,P,700305300,2020-03-03 16:18:05,W/ Xier,city,"Arlington, TX",United States
31080,-117.7823605,33.689732,Hiroki Iino,70030535,2020-03-13 17:59:30,"Irvine, CA",city,"Irvine, CA",United States
151,3.3386055,6.4931125000000005,XpinoMoney,700305364785430528,2020-06-07 04:55:24,Worldwide,city,"Lagos, Nigeria",Nigeria
222,106.86992350000001,-6.204330000000001,TRSIDIK,70030540,2020-02-16 02:31:26,"T: -6.199114,106.767029",city,"Matraman, Indonesia",Indonesia
41980,-66.414638,18.450551500000003,Christina Fernndez,700306228,2020-05-15 00:04:05,Puerto Rico,city,"Algarrobo, USA",United States
222,106.8293805,-6.2529575,Donni Prasetio,70030659,2020-04-06 09:05:02,,city,"Mampang Prapatan, Indonesia",Indonesia
8,-64.1980255,-31.4154565,colorada,700306702,2020-05-01 01:10:48,Cordoba- Argentina,city,"Crdoba, Argentina",Argentina
9,145.268955,-38.130228,Richard Dimon,700307346300375040,2020-03-03 07:52:08,"Cranbourne, Melbourne",poi,Royal Botanical Gardens,Australia
222,106.926802,-6.3300980000000004,puguhtrim,700307438,2020-02-25 10:30:44,"Bekasi, Jawa Barat",poi,"Jl. Raya Hankam, Ujung Aspal",Indonesia
158,174.71935,-36.613096,scott hornell,700307718,2020-04-02 00:35:50,"Stanmore Bay, Auckland",poi,Whangaparaoa Peninsula,New Zealand
29820,-115.13516499999999,36.060964500000004,Dave Snedden,700308841884299264,2020-03-09 12:11:34,,city,"Paradise, NV",United States
21,-34.939349,-8.043603,Chipop,700308988848640000,2020-02-14 04:40:58,,city,"Recife, Brazil",Brazil
88,139.77586200000002,35.670638000000004,sumica,70030937,2020-02-22 02:07:23,"Tsukishima, Kurashiki, Mikuni,",city, ,
24,-113.49261750000001,53.5558195,Timothy Anderson,700309981,2020-02-14 00:51:41,Edmonton (Treaty 6 land),city,"Edmonton, Alberta",Canada
47900,-77.3154,39.012062,Graercy Lawrence,70031038,2020-04-13 03:45:29,"McLean, VA",city,"Great Falls, VA",United States
12060,-84.1339925,34.008337999999995,GLT,70031038,2020-05-18 01:32:30,"New Jersey, USA",city,"Duluth, GA",United States
37980,-75.3817475,40.094784499999996,GLT,70031038,2020-06-04 22:07:57,"New Jersey, USA",city,"King of Prussia, PA",United States
45060,-76.14244450000002,43.276389,BigBootyJay,700310515,2020-02-21 21:28:41,,city,"Central Square, NY",United States
47900,-77.004869,38.890599,Baltimore Abortion Fund ,700310598,2020-03-04 13:04:28,"Baltimore, MD",poi,Supreme Court of the United States,United States
12580,-76.61640799999999,39.28593,Baltimore Abortion Fund ,700310598,2020-03-05 12:59:25,"Baltimore, MD",poi,Baltimore Convention Center,United States
16980,-88.04924650000002,42.1151285,Chicago Outlaws,700310982,2020-02-18 00:44:25,,city,"Palatine, IL",United States
35620,-73.95140950000003,40.8836835,Steve Malone,70031115,2020-03-11 17:05:42,New York City,city,"Englewood Cliffs, NJ",United States
21,-48.2584635,-18.605002,Marcos Vincius Ferreira,70031187,2020-02-17 06:24:26,Araguari | MG,city,"Araguari, Brasil",Brasil
175,49.684975,26.928042,A.,700312221,2020-05-02 04:53:21,"Jubail, Kingdom of Saudi Arabia",city,",   ",  
33100,-80.716317,26.666228000000004,j0RDAN,700312249,2020-03-04 18:46:26,,poi,Pilot Travel Center,United States
17500,-80.939008,26.753110999999997,j0RDAN,700312249,2020-04-10 23:18:16,,city,"Clewiston, FL",United States
160,-76.36760773,-6.48426107,fred,700312268,2020-05-07 18:59:01,,city,"Tarapoto, Peru",Peru
31080,-118.4119065,34.0207895,Aseel,700312898,2020-04-15 07:17:41,"California, USA",city,"Los Angeles, CA",United States
96,47.971495000000004,29.239409999999996,Aseel,700312898,2020-05-05 19:24:15,"California, USA",poi,Kuwait International Airport (KWI),Kuwait
88,136.86747150000002,35.1655625,,700313018878439424,2020-02-15 14:00:14, ,city,  ,
88,127.69218337,26.21788322,,70031316,2020-04-05 14:12:23,,city, ,
33,-70.7033745,-33.4626605,Flako Slovak,700313690,2020-02-16 13:06:51,"Rock entre Araucarias,Wallmapu",city,"Estacin Central, Chile",Chile
49,-80.75198266,-1.82912703,Nia Cardoso,70031429,2020-05-09 04:03:00,Ecuador,city,"Santa Elena, Ecuador",Ecuador
88,135.7294,35.039387,/Mrs.Ji,70031436,2020-02-15 01:22:48,Phang-Nga-Bangkok/Thailand,poi, () (Kinkaku-Ji Temple),Japan
193,100.4839005,13.7054625,/Mrs.Ji,70031436,2020-02-20 01:23:08,Phang-Nga-Bangkok/Thailand,city,"Dao Khanong, Thailand",Thailand
21,-43.1847869,-22.503291600000004,Daniele Freire,70031562,2020-02-26 21:20:45,"Rio de Janeiro, Brasil",city,"Petrpolis, Brasil",Brasil
85,11.71735059,44.34455468,Daniele Freire,70031562,2020-06-04 21:48:20,"Rio de Janeiro, Brasil",city,"Imola, Emilia Romagna",Itlia
21,-43.1975,-22.908,Daniele Freire,70031562,2020-06-05 23:41:13,"Rio de Janeiro, Brasil",city,"Rio de Janeiro, Brasil",Brasil
42660,-122.3306025,47.614816999999995,Aisha Sanchez,70031591,2020-02-14 05:18:36,"Seattle, WA",city,"Seattle, WA",United States
35620,-73.8311875,40.6708795,Aisha Sanchez,70031591,2020-02-25 12:02:24,"Seattle, WA",city,"Queens, NY",United States
222,98.69701450000001,3.5881035000000003,haii rihad,700316105542279168,2020-02-14 06:31:27,,city,"Medan Kota, Indonesia",Indonesia
8,-58.442643,-34.604315,Hormigas Negras,700316133057044481,2020-02-22 00:17:52,Ciudad Autnoma de Buenos Aire,city,"Ciudad Autnoma de Buenos Aires, Argentina",Argentina
193,100.56189,13.813457000000001,AMHAE,700316316,2020-02-23 08:53:29,,poi,Dookki Union Mall,
34820,-78.878866,33.703390500000005,Lexi Pyykkonen,700316647,2020-03-30 02:09:04,,city,"Myrtle Beach, SC",United States
12940,-91.0907995,30.4591,  ,70031665,2020-04-09 08:50:04,   ,city,"Baton Rouge, LA",United States
33740,-92.0767015,32.521243,BGDdd LEE,70031665,2020-05-10 04:12:53,   ,city,"Monroe, LA",United States
12940,-91.0907995,30.4591,BGDdd LEE,70031665,2020-05-10 17:38:04,   ,city,"Baton Rouge, LA",United States
48,-70.75202349999999,19.4558675,Luis  Soriano,700316760,2020-03-12 12:28:58,"Santiago, Dominican Republic",city,"Santiago, Dominican Republic",Dominican Republic
24,-104.64089399999999,50.455135999999996,Dale & Debbie,700318158,2020-03-04 17:41:23,,city,"Regina, Saskatchewan",Canada
21,-42.0198201,-22.96880222,Beatriz Lima,70031862,2020-04-16 19:47:52,Brasil,city,"Arraial do Cabo, Brasil",Brasil
222,112.73909203,-7.34705497,Inspirator Bisnis,7003192,2020-02-27 08:56:40,"Surabaya, East Java, Indonesia",city,"Wonocolo, Indonesia",Indonesia
193,103.79584100000001,14.9453625,,70031979,2020-02-14 14:43:44,Thailand,city,"Sikhoraphum, Thailand",Thailand
222,106.81446883,-6.21774529,Karina Ananda K.,70031987,2020-04-15 09:47:04,"Jakarta Capital Region, Indonesia",city,"Tanah Abang, Indonesia",Indonesia
24,-114.01191433,51.13225781,Jody Castle,700319930,2020-03-04 21:48:29,"Chestermere, AB",city,"Calgary, Alberta",Canada
171,124.596162,11.07194,Clyde Patrick Y. Makabenta,700320653111488512,2020-02-17 23:22:58,"Ormoc City, Eastern Visayas",city,"Ormoc City, Eastern Visayas",Republic of the Philippines
119,-99.17929840000001,19.41983414,Miss Stardust,70032188,2020-03-15 21:33:46,Mxico,city,"Miguel Hidalgo, Distrito Federal",Mxico
21,-54.55884552,-25.56941651,Fio ,700322424,2020-02-15 03:37:36,"Buenos Aires, Argentina",city,"Foz de Iguaz, Brasil",Brasil
8,-58.38938892,-34.60900307,Fio ,700322424,2020-03-10 01:21:33,"Buenos Aires, Argentina",city,"Ciudad Autnoma de Buenos Aires, Argentina",Argentina
12420,-97.738366,30.266796000000003,TEXAS TIP-OFF TAVEIN,700322448,2020-02-24 19:57:57,"Texas, USA",poi,6th Street,United States
26420,-95.4464865,29.838495,Ghost,700322448,2020-05-13 23:45:15,"Texas, USA",city,"Houston, TX",United States
12420,-97.754724,30.3233455,Ghost,700322448,2020-05-14 00:12:27,"Texas, USA",city,"Austin, TX",United States
21,-46.64538054,-23.55147557,vitor lins,70032276,2020-03-19 20:49:11,"So Paulo, SP",city,"So Paulo, Brasil",Brasil
160,-77.08517950000001,-11.988273,MiRe,700323084,2020-02-14 03:13:39,"Lima,Peru",city,"San Martin de Porres, Peru",Peru
8,-60.532698499999995,-31.564625500000002,**Chento**,70032544,2020-02-17 01:17:03,"Santa Fe, Argentina",city,"Arroyo Leyes, Argentina",Argentina
88,136.526453,34.942719,Shin,700326060026531840,2020-05-04 05:43:31,,poi,,Japan
119,-92.95196750000001,16.606787500000006,Elizabeth Guzmn,70032668,2020-02-17 04:04:46,Mxico,city,"Chiapa de Corzo, Chiapas",Mexico
35620,-73.997458,40.730816,Foreputt,700327091104047104,2020-03-25 22:17:45,,poi,Washington Square Park,United States
29820,-115.13337299999999,36.24912449999999,mscyfi,700327130,2020-05-03 23:25:13,Las Vegas,city,"North Las Vegas, NV",United States
21,-43.376828,-22.728707999999997,Karen Priscilla,700327421,2020-05-03 18:42:28,"Madureira, Rio de Janeiro",city,"Belford Roxo, Brasil",Brasil
44300,-77.8581095,40.7835375,Paul Moser,70032758,2020-03-30 14:13:59,"State College, PA",city,"State College, PA",United States
38060,-112.1246765,33.5528625,Todd Andrews,70032846,2020-03-23 03:10:58,"Buffalo, NY",city,"Phoenix, AZ",United States
200,43.3593375,38.5146485,Ihsan Tuncer,700328612285833216,2020-04-21 22:17:33,"Van, Trkiye",city,"Van, Trkiye",Trkiye
205,0.13187000000000001,51.443846,Cabrera Steakhouse SE12,700328737695494144,2020-03-11 22:55:57,133 Burnt Ash Road,city,"Bexley, London",United Kingdom
38,-75.4540995,5.9814995,Taty Villa,70032919,2020-02-14 02:05:21,,city,"La Ceja, Colombia",Colombia
38,-74.24367099999999,4.2622835,Carlos Montoya Cely,70032934,2020-04-05 18:44:01,Bogot - Colombia,city,"Bogot, D.C., Colombia",Colombia
31080,-118.4119065,34.0207895,Rachel Overton,700329552,2020-02-14 04:17:35,,city,"Los Angeles, CA",United States
158,175.71653799999999,-36.8598815,Rachel Overton,700329552,2020-02-19 20:57:43,,city,"Thames-Coromandel, New Zealand",New Zealand
31140,-85.68810649999999,38.1207745,Rachel Overton,700329552,2020-03-11 23:18:52,,city,"Okolona, KY",United States
15380,-79.008801,43.101794,CD,700329636853579776,2020-03-03 04:13:13,Maine,city,"Niagara Falls, NY",United States
24,-79.42719186,43.63049187,Phong Lam,700330344,2020-05-18 03:24:17,"Toronto, Canada",city,"Toronto, Ontario",Canada
175,46.7567352,24.69349394,,700330711,2020-02-21 21:34:10,"MNL | JEDDAH,KSA",city,"Riyadh, Kingdom of Saudi Arabia",Kingdom of Saudi Arabia
37340,-80.66766150000002,28.2756395,JJ (Beardown) Bartrom,700330759,2020-02-14 16:00:34,Space Coast,city,"Merritt Island, FL",United States
38900,-122.62208249999999,45.443065,"R.W.Smith, Hero Daddy, Card Flopper, Lover of life",700331156,2020-02-22 02:12:27,Portland Oregon,city,"Milwaukie, OR",United States
193,98.93179851,18.70152674,LETS L.O..E,70033142,2020-02-14 11:08:45,SR16P000127,city,"Ban Waen, Thailand",Thailand
12060,-84.53213249999999,33.9481235,Brooke Straz Noone,700332003426766848,2020-03-06 02:16:32,,city,"Marietta, GA",United States
88,137.26191550000001,34.951125000000005,  2(1782),70033208,2020-02-16 01:35:51,2-170120-234-232,city, ,
24300,-108.5746165,39.0917505,TJ,700332260,2020-02-25 19:35:36,,city,"Grand Junction, CO",United States
19100,-96.7349005,33.06124250000001,Tom Graca,70033236,2020-02-19 17:22:15,"Cambridge, MA",city,"Plano, TX",United States
21,-43.00396172,-22.82571676,Alexsander Ferraz Advogado,70033243,2020-03-09 00:22:48,Brazil,city,"So Gonalo, Brasil",Brasil
186,2.1412275000000003,41.392657,sonia esteras gan,700334053787049984,2020-02-14 20:45:14,,city,"Barcelona, Espaa",Espaa
28140,-94.6750935,38.931549,Kenton Nuss,70033455,2020-02-14 15:02:25,OPKS,city,"Overland Park, KS",United States
31740,-96.5745935,39.2099285,Kenton Nuss,70033455,2020-03-12 23:20:12,OPKS,city,"Manhattan, KS",United States
28140,-94.6750935,38.931549,Kenton Nuss,70033455,2020-03-31 01:08:58,OPKS,city,"Overland Park, KS",United States
242,120.287622,22.656679999999998,PangYu Wu,700334708,2020-03-29 18:02:40,Kaohsiung | Taiwan,poi,,
35620,-74.2908,40.6747,LADY DI DANCERS,700334866886340609,2020-02-16 17:20:33,"Kenilworth, NJ",city,"Kenilworth, NJ",United States
38300,-79.955465,40.443393,renee ,700334898,2020-02-22 20:49:50,"Pittsburgh, PA",poi,University of Pittsburgh,United States
119,-96.2293965,19.183953,Luis y Sandy,70033543,2020-05-24 01:58:17,"Veracruz, ver",city,"Veracruz, Veracruz de Ignacio de la Llave",Mxico
24580,-87.4394695,44.6044495,Matt Konz,70033564,2020-04-19 02:22:21,"Milwaukee, WI",city,"Algoma, WI",United States
33340,-88.009557,42.8943045,Matt Konz,70033564,2020-05-16 19:57:01,"Milwaukee, WI",city,"Franklin, WI",United States
88,136.62971687,35.36639779,,70033653,2020-02-16 00:49:15,,city, ,
39140,-111.713353,34.670103999999995,,700336626,2020-04-26 20:25:54,,poi,Beaver Creek Campground,United States
38060,-112.1246765,33.5528625,,700336626,2020-04-27 05:38:55,,city,"Phoenix, AZ",United States
41700,-98.5406515,29.417501,Logan Smith,700337311,2020-02-16 03:02:16,"San Antonio, TX",city,"San Antonio, TX",United States
33100,-80.2333285,25.7823535,KONSHENS,70033864,2020-02-27 17:09:37,,city,"Miami, FL",United States
89,-76.792497,18.019709,KONSHENS,70033864,2020-04-10 21:04:06,,poi,"kingston, Jamacia",Jamaica
40900,-121.49340900000001,38.582074,Kristina Koroyan,700339137111597057,2020-03-10 20:10:15,,poi,Sacramento City Hall,United States
204,32.612846000000005,0.316454,Eng.Uncle Tee ,700339290044125185,2020-03-13 15:29:33,Bupadhengo ,poi,Fast Sports Fusion,Uganda
162,21.06179,52.2328355,Jarosaw Kowalczyk,700339842195050496,2020-05-21 14:04:56,Warszawa,city,"Warszawa, Polska",Polska
171,121.0627355,14.683012,ice,700340537526595585,2020-03-30 12:07:30,"Muscat, Oman",city,"Quezon City, National Capital Region",Republic of the Philippines
175,39.610759,24.468612,Manar .,700340726,2020-02-21 20:39:56,,poi,Al-Masjid Al-Nabawi |  ,Kingdom of Saudi Arabia
175,46.685077,24.7219435,  ,700341264747753474,2020-02-14 21:44:25,"Riyadh, Kingdom of Saudi Arabi",city,",   ",  
88,139.053483,35.242934999999996, @(engineer),70034198,2020-02-21 09:22:24,,poi,The Hakone Open-Air Museum Caf,
200,39.091489,38.5953,Merve Avc ,700342027477716992,2020-05-17 19:11:23,,poi,horpenk ky,Trkiye
16980,-87.70178100000001,41.7208135,Lauryn,700342338,2020-02-14 08:12:17,,city,"Evergreen Park, IL",United States
160,-77.089605,-12.079635499999998,Kat,700342890220748800,2020-04-03 18:05:51,,city,"San Miguel, Peru",Peru
21,-40.292823,-20.2804105,TIA SAGITA ,700343117363466241,2020-02-14 19:48:57,"Vitria, Brasil",city,"Vitria, Brasil",Brasil
222,106.911724,-6.1202885,dimassaputra,700343521799081984,2020-05-27 05:54:09,"Jakarta Utara, DKI Jakarta",city,"Koja, Indonesia",Indonesia
16020,-89.87077550000002,37.7237255,Austin B,700343868,2020-05-29 20:00:23,"Missouri, USA",city,"Perryville, MO",United States
21,-43.897259999999996,-19.91416,Tom Avelar,70034397,2020-03-08 17:45:15,"Minas Brasil, Belo Horizonte",city,"Belo Horizonte, Brasil",Brasil
41940,-121.95522849999999,37.28083700000001,TIM FLORES,700344025,2020-02-19 10:30:46,"San Jose, CA",city,"Campbell, CA",United States
21,-51.585844,-29.245123,Foppa,700344450,2020-03-19 21:17:05,,city,"Garibaldi, Brasil",Brasil
175,46.685077,24.7219435,medo mashakel,700344494672244736,2020-02-18 01:06:44,,city,"Riyadh, Kingdom of Saudi Arabia",Kingdom of Saudi Arabia
222,112.743355,-7.327303999999999,Mia Chikmia,70034524,2020-03-02 13:20:05,SUB,city,"Wonocolo, Indonesia",Indonesia
119,-99.2115105,19.4299345,EMMANUEL CORDOVA.,700345268,2020-03-17 01:57:05,,city,"Miguel Hidalgo, Distrito Federal",Mxico
41420,-122.779581,45.006727000000005,Kirsten Barnes,70034541,2020-02-21 14:21:36,"Silverton, Oregon",city,"Silverton, OR",United States
96,48.1160265,29.1716115, ,700345442450677760,2020-06-03 14:31:21,,city,"Al Fintas, Kuwait",Kuwait
222,106.92142179,-6.29612929,Dhany Prabowo,70034562,2020-02-17 14:43:26,"Jakarta,Bandung, Semarang",city,"Pondokgede, Indonesia",Indonesia
82,74.73470999999999,19.09446,Sarvesh Biyani,700346251569602560,2020-05-10 08:21:17,"Ahmadnagar, India",poi,Ahmednagar,
12060,-84.40979100000001,33.555124500000005,Sarvesh Biyani,700346251569602560,2020-05-15 18:45:39,"Ahmadnagar, India",city,"Riverdale, GA",United States
82,80.25668,13.05733,Naga Sravanthi,700346400,2020-03-05 20:22:57,"New York, USA",poi,Ibis Chennai City Centre,India
119,-94.171383,18.0902165,ariel cervantes,70034647,2020-03-14 18:17:30,df,city,"Agua Dulce, Veracruz de Ignacio de la Llave",Mxico
38,-76.49608,3.364182,Hames Arley Muoz,700346822,2020-03-26 22:42:30,Valle del Cauca,city,"Candelaria, Colombia",Colombia
222,112.7301925,-7.249600999999999,juls,70034693,2020-02-15 12:45:39,SUB +62,city,"Bubutan, Indonesia",Indonesia
151,13.1491605,11.8495435,Abdulmalik Ibrahim,700347024,2020-04-01 09:18:23,,city,"Maiduguri, Nigeria",Nigeria
37100,-118.876498,34.283083000000005,KibakiKyarako,700347048,2020-02-15 00:58:19,"Moorpark, California",city,"Moorpark, CA",United States
31080,-118.822046,34.1430685,KibakiKyarako,700347048,2020-02-15 05:12:10,"Moorpark, California",city,"Westlake Village, CA",United States
37100,-118.876498,34.283083000000005,KibakiKyarako,700347048,2020-02-19 01:50:24,"Moorpark, California",city,"Moorpark, CA",United States
173,30.378652000000002,60.007266,"u,    ",700347164912914432,2020-02-25 21:55:03,,poi,-     (),
42340,-81.1096165,32.017284499999995,Cheyenne,700347445558059012,2020-02-16 12:50:04,"Keller, GA",city,"Savannah, GA",United States
200,36.9276755,37.5606085,Halit Bada,700347562,2020-03-07 15:54:56,Kahmanmara,city,"Kahramanmara, Trkiye",Trkiye
33180,-83.18547246,37.24174389,Mark Combs,70034784,2020-02-17 01:29:28,Kentucky,city,"Hazard, KY",United States
152,4.904053500000001,52.354728,sibel wegener,700348191,2020-04-01 08:23:56,Istanbul Suadiye,city,"Amsterdam, Nederland",Nederland
200,28.900127,40.3651165,sibel wegener,700348191,2020-06-08 04:37:35,Istanbul Suadiye,city,"Mudanya, Trkiye",Trkiye
39,-84.08085299999998,9.9303,Milton Manuel Rojas Barquero,700349014537949184,2020-03-14 20:59:06,Costa Rica,city,"San Jose, Costa Rica",Costa Rica
222,124.461156,1.028092,Arthur P. T. Dumais,70034902,2020-04-06 07:34:51,,city,"Motoling, Indonesia",Indonesia
186,2.1412275000000003,41.392657,H,700349664,2020-02-14 19:04:19,"Barcelona, Espaa",city,"Barcelona, Espaa",Espanha
21,-35.214542,-5.9182125,H,700349664,2020-03-27 23:51:33,"Barcelona, Espaa",city,"Parnamirim, Brasil",Brasil
186,2.1412275000000003,41.392657,H,700349664,2020-03-30 08:33:02,"Barcelona, Espaa",city,"Barcelona, Espaa",Espanha
21,-43.790572999999995,-19.846323,Amanda,70035047,2020-02-15 01:00:49,"Belo Horizonte, Brasil",city,"Sabar, Brasil",Brasil
36420,-97.4451735,35.222301,Drake Diacon,70035056,2020-02-14 17:30:16,"Norman, Oklahoma",city,"Norman, OK",United States
119,-94.432482,18.135455,Jorge Millan,700350613,2020-05-20 00:32:48,"Coatzacoalcos, Veracruz de Ign",city,"Coatzacoalcos, Veracruz de Ignacio de la Llave",Mexico
24,-113.49261750000001,53.5558195,shaun harks,700350883,2020-02-14 20:05:30,"St. Albert, Alberta",city,"Edmonton, Alberta",Canada
31080,-118.400264,33.9166485,shaun harks,700350883,2020-02-23 23:33:44,"St. Albert, Alberta",city,"El Segundo, CA",United States
42660,-122.2964885,47.442583,shaun harks,700350883,2020-02-28 04:52:30,"St. Albert, Alberta",city,"SeaTac, WA",United States
24,-113.49261750000001,53.5558195,shaun harks,700350883,2020-02-28 19:41:57,"St. Albert, Alberta",city,"Edmonton, Alberta",Canada
82,91.55975749999999,26.259671,Urmee_D,700350907,2020-06-10 07:00:34,"Assam, India",city,"Guwahati, India",India
21,-46.997785,-22.437857,maria angela silva,700351108322086912,2020-02-19 10:56:10,So Paulo ,city,"Mogi Mirim, Brasil",Brasil
41180,-90.247824,38.653771,Aaron Bunse,700351276475772928,2020-04-25 02:31:11,,city,"St Louis, MO",United States
21,-43.441578,-22.911421500000003,orquestra filarmnica do cy,70035196,2020-02-20 03:25:21,Brasil,city,"Rio de Janeiro, Brasil",Brasil
120,101.66086,2.9237099,Eiqa Afieyqa,700352749,2020-06-07 09:35:17,from Anson Bay,city,"Dengkil, Selangor",Malaysia
178,30.875084499999996,-29.737923499999997,Amanda Ngema,700352755,2020-04-13 09:10:11,"Hillcrest, South Africa",city,"Molweni, South Africa",South Africa
88,133.50985500000002,33.5703455,. ,700352981535862784,2020-02-14 18:51:19,"92""",city, ,
164,-9.335484800000001,38.69039211,Bruno D. Rodrigues,700353,2020-04-26 17:10:14,Portugal,city,"Cascais, Portugal",Portugal
33,-70.0164115,-20.75179,Abre Tus Ojos Iqq,700353165837918208,2020-02-14 17:17:12,,city,"Iquique, Chile",Chile
19100,-96.7349005,33.06124250000001,SK Elliott,700353233009532929,2020-03-04 17:56:10,,city,"Plano, TX",United States
120,101.64912353,3.11973591,Mr.MK,700353247,2020-02-14 03:51:38,,city,"Kuala Lumpur, Wilayah Persekutuan Kuala Lumpur",Malaysia
39340,-111.69445800000001,40.298528999999995,Voting and Crying,700353757,2020-02-18 22:23:26,"Provo, Utah. ",poi,Orem Public Library,United States
38300,-79.850739,40.3417785,izz El Gran,700353960,2020-02-18 22:54:03,,city,"McKeesport, PA",United States
13820,-86.80608649999998,33.451899999999995,Emily Harrell,700355094,2020-03-07 04:49:02,CHS/ATL/BHM ,city,"Homewood, AL",United States
35380,-90.01100799999999,29.982601000000003,Emily Harrell,700355094,2020-03-08 21:30:39,CHS/ATL/BHM ,city,"New Orleans, LA",United States
119,-86.878029,20.4321525,Emily Harrell,700355094,2020-03-12 16:17:21,CHS/ATL/BHM ,city,"Cozumel, Quintana Roo",Mexico
12060,-84.31644299999998,34.1346125,Emily Harrell,700355094,2020-03-19 23:34:52,CHS/ATL/BHM ,city,"Milton, GA",United States
13820,-86.73975,33.481181,Emily Harrell,700355094,2020-03-29 18:36:04,CHS/ATL/BHM ,city,"Mountain Brook, AL",United States
12060,-84.134582,34.250351,Emily Harrell,700355094,2020-04-11 21:37:18,"Birmingham, AL",poi,Indian Seats,United States
13820,-86.79391700000001,33.5422375,Emily Harrell,700355094,2020-04-21 15:20:26,"Birmingham, AL",city,"Birmingham, AL",United States
12060,-84.2801945,34.07334400000001,Emily Harrell,700355094,2020-05-03 18:51:30,"Birmingham, AL",city,"Alpharetta, GA",United States
34940,-81.7123585,25.9413035,Emily Harrell,700355094,2020-05-14 17:47:41,"Birmingham, AL",city,"Marco Island, FL",United States
13820,-86.741158,33.4513005,Emily Harrell,700355094,2020-05-18 19:20:24,"Birmingham, AL",city,"Vestavia Hills, AL",United States
12060,-84.137322,34.106303999999994,Emily Harrell,700355094,2020-05-22 20:09:13,"Birmingham, AL",poi,Ms. Cruise's Math Class,United States
13820,-86.80608649999998,33.451899999999995,Emily Harrell,700355094,2020-06-07 21:46:02,"Birmingham, AL",city,"Homewood, AL",United States
19100,-97.132948,33.214744,Deanna Polner,70035513,2020-05-31 13:31:32,"Trophy Club, Texas",poi,Denton Downtown Square,United States
119,-99.153366,19.432835999999998,Jos Antonio,700355166,2020-02-15 04:03:41,CDMX,city,"Cuauhtmoc, Distrito Federal",Mxico
19740,-104.9775855,39.809643,alan sanchez,700355484,2020-03-14 15:23:07,"Burleson, TX",city,"North Washington, CO",Estados Unidos
19100,-97.3028295,32.5209975,alan sanchez,700355484,2020-03-19 05:19:12,"Burleson, TX",city,"Burleson, TX",Estados Unidos
18580,-97.432425,27.737151,alan sanchez,700355484,2020-03-24 21:03:06,"Burleson, TX",city,"Corpus Christi, TX",Estados Unidos
19100,-97.3028295,32.5209975,alan sanchez,700355484,2020-04-22 22:12:50,"Burleson, TX",city,"Burleson, TX",Estados Unidos
48900,-77.907815,33.9935075,lex garcia,700355605,2020-05-27 13:07:23,,city,"Kure Beach, NC",United States
119,-110.93479199999999,29.028503999999998,Cereza Mora ,70035570,2020-02-15 22:15:37,"Hermosillo, Sonora. Mexico.",city,"Hermosillo, Sonora",Mxico
24,-80.240128,43.534199,cass,700355706,2020-03-13 19:02:41,,city,"Guelph, Ontario",Canada
36740,-81.3417295,28.6001855,Freddy Beck,700357030473768960,2020-02-29 22:19:10,"clermont , florida",city,"Winter Park, FL",United States
24,-121.9512525,49.1373095,Tim Kilbrai ,70035756,2020-04-07 18:20:42,Chilliwack BC,city,"Chilliwack, British Columbia",Canada
35620,-73.8494415,40.8503475,Paul Neira,700357598143455232,2020-03-18 02:46:22,,city,"Bronx, NY",United States
36740,-81.3677725,28.5016785,Jorge,700357646,2020-05-24 14:05:56,"Miami, FL",city,"Orlando, FL",United States
31080,-118.3512175,33.8337145,Bran Vicks,700357789,2020-02-14 03:51:10,SoCal,city,"Torrance, CA",United States
205,-0.215,51.651,Cheryl Clark,700357984,2020-03-12 12:45:31,,city,"Barnet, London",United Kingdom
8,-60.67124079,-32.92926578,l ,700358136,2020-03-08 02:52:57,"Rosario, Argentina",city,"Rosario, Argentina",Argentina
19100,-96.961483,32.863917,Ana Lilia Reyes,70035875,2020-02-14 23:15:13,"Guadalajara, Jalisco, Mxico",city,"Irving, TX",United States
119,-103.335882,20.676652,Ana Lilia Reyes,70035875,2020-02-20 05:46:05,"Guadalajara, Jalisco, Mxico",city,"Guadalajara, Jalisco",Mexico
11100,-101.816092,35.211115500000005,Ana Lilia Reyes,70035875,2020-03-04 00:58:50,"Guadalajara, Jalisco, Mxico",city,"Amarillo, TX",United States
19100,-96.961483,32.863917,Ana Lilia Reyes,70035875,2020-03-06 23:14:10,"Guadalajara, Jalisco, Mxico",city,"Irving, TX",United States
119,-103.335882,20.676652,Ana Lilia Reyes,70035875,2020-03-17 19:55:00,"Guadalajara, Jalisco, Mxico",city,"Guadalajara, Jalisco",Mexico
19100,-96.961483,32.863917,Ana Lilia Reyes,70035875,2020-06-01 01:17:14,"Guadalajara, Jalisco, Mxico",city,"Irving, TX",United States
88,136.2160935,36.046813, DQ(ID 179405),700359384,2020-05-14 17:19:45,,city, ,
21,-47.016329,-22.6803565,Lover ,70035986,2020-02-14 02:33:05,"Jaguarina, Brasil",city,"Jaguarina, Brasil",Brazil
88,135.75515900000002,35.0060525,,700360915,2020-04-12 07:18:43,,city,  ,
38300,-79.761753,40.4235755,alex leisenring,700361022,2020-02-14 01:08:35,Municipality of Monroeville PA,city,"Municipality of Monroeville, PA",United States
43780,-86.1205405,41.7348625,alex leisenring,700361022,2020-02-28 20:44:15,Municipality of Monroeville PA,city,"Granger, IN",United States
38300,-79.761753,40.4235755,alex leisenring,700361022,2020-03-05 02:51:42,Municipality of Monroeville PA,city,"Municipality of Monroeville, PA",United States
119,-99.2480095,19.318042000000002,  ,70036166,2020-02-27 20:59:32,Mxico,city,"lvaro Obregn, Distrito Federal",Mxico
12420,-97.9351915,29.8956065,Brenda Noemi,700362044,2020-05-23 03:03:00,San Marcos Texas,city,"San Marcos, TX",United States
119,-107.3420565,24.662488500000002,La gritona de las marchas,700362050,2020-02-14 03:17:40,La calle de las Sirenas ,city,"Culiacn, Sinaloa",Mxico
41860,-121.72877199999999,38.009298,Doopy!!  TFF,700362085822128129,2020-02-20 01:50:01,N O R C A L,poi,Big Break Regional Shoreline,United States
49420,-120.42782,46.4451815,axele,700362097,2020-02-17 14:24:10,"Washington, USA",city,"Wapato, WA",United States
16980,-87.732013,41.8335845,lex,700362150,2020-05-09 01:53:05,derrick rose's gf,city,"Chicago, IL",United States
175,39.826221999999994,21.422542,,700362790,2020-02-16 01:52:55,    ,poi,The Holy Mosque |  ,  
41980,-66.48744599999999,18.43207,Eric F. Concepcin,70036281,2020-04-13 14:37:59,"Arecibo, Puerto Rico ",city,"Manat, Puerto Rico",Estados Unidos
65,6.127333999999999,45.125004,Derek Reid,700362955494440961,2020-02-14 22:53:37,,poi,Pic Blanc 3330,France
205,-4.18646,55.7594635,Derek Reid,700362955494440961,2020-02-27 14:55:33,,city,"East Kilbride, Scotland",United Kingdom
36900,-92.422292,41.025146,Caio Brandao,700363623059845120,2020-03-16 00:21:15,"Ottumwa, IA",city,"Ottumwa, IA",United States
21,-43.422867499999995,-21.708015,Caio Brandao,700363623059845120,2020-03-21 04:24:26,"Ottumwa, IA",city,"Juiz de Fora, Brasil",Brazil
19740,-104.97068999999999,39.779202000000005,TK,700363890,2020-02-14 17:42:46,Boco,poi,Denver Coliseum,United States
186,2.151295,41.395596000000005,TK,700363890,2020-02-20 18:05:32,Boco,poi,The Sutton Club,Spain
14500,-105.2426865,40.02398150000001,TK,700363890,2020-06-08 17:17:58,Boco,city,"Boulder, CO",United States
222,106.8233,-6.1803,Dri,70036438,2020-02-18 07:26:25,,city,"Tanah Abang, Indonesia",Indonesia
35620,-73.9685415,40.780709,Dre La Soul,700364792,2020-02-15 07:09:26,,city,"Manhattan, NY",United States
14860,-73.20783800000002,41.259947,Dre La Soul,700364792,2020-03-28 20:47:42,,city,"Trumbull, CT",United States
22220,-94.29585300000001,36.376309,Jennifer McDonald,700365026,2020-03-25 04:24:27,,poi,Bentonville West High School,United States
222,106.026982,-5.9458495000000005,TryRamadhan,700365272,2020-02-15 13:00:02,Cilegon-Yogyakarta,city,"Pulo Merak, Indonesia",Indonesia
88,138.896254,35.019554,YASU,70036533,2020-03-22 00:36:53,,poi,,
21,-43.018208,-22.821465,"rayanne saturnino, dona da Amrica",700366002,2020-03-22 12:04:50,"Niteri, Brasil",city,"So Gonalo, Brasil",Brasil
27740,-82.3882145,36.3447405,haley,700366058,2020-02-25 01:11:01,jp is a fake,city,"Johnson City, TN",United States
19100,-97.2859135,32.7799665,Joel,700366314,2020-02-22 02:58:54,Tx,city,"Fort Worth, TX",United States
43180,-86.43558200000003,35.482744,Dr. Rosemary Williams,700366434,2020-02-21 18:35:45,,city,"Shelbyville, TN",United States
34980,-87.04735199999998,35.6368135,Dr. Rosemary Williams,700366434,2020-04-16 13:20:34,,city,"Columbia, TN",United States
65,2.452432,48.784634000000004,mjfox,700366655998844929,2020-02-14 08:29:40,"Crteil, France",city,"Crteil, France",France
186,1.7214695,41.28414,mjfox,700366655998844929,2020-02-29 10:53:03,"Crteil, France",city,"Canyelles, Espaa",Espagne
65,2.452432,48.784634000000004,mjfox,700366655998844929,2020-03-07 08:12:38,"Crteil, France",city,"Crteil, France",France
35620,-74.1581305,40.859832,gary walsh,70036728,2020-04-09 19:39:26,,city,"Clifton, NJ",United States
175,39.2541285,21.5857105,,700367406,2020-02-14 21:02:56,Jeddah,city,"Jeddah, Kingdom of Saudi Arabia",Kingdom of Saudi Arabia
82,77.095086,28.638489500000002,Bhavjot Singh,700367678,2020-03-31 19:40:37,new delhi,city,"New Delhi, India",India
186,1.9699475,41.2797535,JuanmaVillanueva,70036777,2020-03-10 20:56:28,Barcelona,city,"Castelldefels, Espaa",Espaa
120,101.705305,3.1485305,MH.MS,700368114,2020-02-14 09:36:10,,city,"Kuala Lumpur City, Kuala Lumpur Federal Territory",Malaysia
205,-2.4868200000000003,52.7038395,Stephen Tranter,700368495,2020-03-19 20:57:55,,city,"Hadley, England",United Kingdom
33460,-93.2620465,44.9706105,A B O U | A M A R A,70036903,2020-02-15 01:33:38,"Minneapolis, MN",city,"Minneapolis, MN",United States
21,-53.64679399999999,-27.8081245,negcio mirim,700369247592124416,2020-04-19 23:01:26,rsrsrsrs,city,"Coronel Bicaco, Brasil",Brasil
88,139.689695,35.632374,Yui,70036991,2020-04-29 05:57:08,"Tokyo, Japan",city, ,
19740,-104.9220935,39.713563,Diego V.,70036997,2020-02-14 18:43:13,"Denver, CO",city,"Denver, CO",United States
22660,-105.06394250000001,40.5641905,Diego V.,70036997,2020-05-16 02:22:27,"Denver, CO",city,"Fort Collins, CO",United States
19740,-104.9220935,39.713563,Diego V.,70036997,2020-05-16 05:03:19,"Denver, CO",city,"Denver, CO",United States
34980,-86.7597,36.1725,Breanna Drafz,70037014,2020-03-07 17:23:44,no man's land,city,"Nashville, TN",United States
48580,-88.43444444,42.5925,Breanna Drafz,70037014,2020-04-03 12:57:39,no man's land,city,"Lake Geneva, WI",United States
222,107.552623,-6.8845795,Felix,70037046,2020-04-19 05:30:38,Bandung,city,"Cimahi Tengah, Indonesia",Indonesia
21,-43.441578,-22.911421500000003,Bruno Alves,70037079,2020-02-24 22:59:00,Rio de Janeiro,city,"Rio de Janeiro, Brasil",Brasil
19300,-87.78672381,30.90474936,MrsEbbert,700371166532407297,2020-02-15 01:40:54,"Satsuma, AL",city,"Bay Minette, AL",United States
82,85.83420699999998,20.8836355,Pritam Prakash,700371644,2020-05-19 11:40:02,"Cuttack, India",city,"Bhuban, India",India
95,128.984284,35.428575,Moon@Phoenixpark,70037195,2020-02-18 11:08:28, ,poi, ,
88,135.78942800000002,35.009735,Moon,70037195,2020-03-27 03:42:08, ,poi,,
95,126.96878899999999,37.578813000000004,Moon,70037195,2020-04-12 09:29:47, ,poi,NUHA NO MORI,
41860,-122.31542150000001,37.552481,,700372206,2020-05-03 02:04:25,,city,"San Mateo, CA",United States
24,-122.958344,49.239653499999996,Shahin,700372957554585602,2020-02-19 13:06:26,"Burnaby, British Columbia",city,"Burnaby, British Columbia",Canada
42660,-122.27405449999999,47.90597200000001,Monika Weiss,70037319,2020-02-14 16:02:40,Seattle,city,"Mukilteo, WA",United States
41180,-90.702644,38.7796565,Art Lippo,70037342,2020-03-15 19:23:01,Mom's Basement ,city,"O'Fallon, MO",United States
60,27.364075,61.7043445,Hannu Siitonen,700373692,2020-03-21 08:38:07,050 5541227,city,"Mikkeli, Suomi",Suomi
160,-79.8237105,-6.789503999999999,PATHY,700374006592114689,2020-04-08 05:14:53,Peru,city,"Chiclayo, Peru",Peru
120,101.6536755,3.0329245,EkynAhmad,700374998,2020-02-21 15:31:57,,city,"Petaling, Selangor",Malaysia
26420,-95.087029,29.497157,Kiana ,700375326,2020-02-14 04:21:54,,city,"League City, TX",United States
18580,-97.432425,27.737151, ,70037554,2020-06-01 04:20:30,"Corpus Christi, TX",city,"Corpus Christi, TX",United States
65,4.594951,44.7213675,NAZIR Richard,70037625,2020-03-07 07:30:48,Guadeloupe France FWI,city,"Privas, France",France
10420,-81.34244000000002,41.1003825,Kody Komara,700376455,2020-02-15 03:30:13,,city,"Brimfield, OH",United States
16980,-87.6991955,42.045437,josh fine,700376930,2020-02-22 22:33:39,evanstion il,city,"Evanston, IL",United States
38,-75.5751,6.2359,Daniel Quintero A,70037730,2020-02-21 03:20:51,Medellin,city,"Medelln, Colombia",Colombia
173,131.9681885,43.1512695,N A I M A,700377378,2020-06-03 06:41:28,Vladivostok,city,", ",
8,-60.276114,-38.376922,Ale,700377601,2020-05-16 21:26:50,,city,"Tres Arroyos, Argentina",Argentina
30460,-84.56196997,37.86271728,Dave Snyder,700377690,2020-02-15 22:02:09,"Nicholasville, KY",city,"Nicholasville, KY",United States
16620,-81.7110335,38.3399245,H*A*N,700377823,2020-02-14 18:56:48,,city,"South Charleston, WV",United States
16700,-79.837322,32.847946500000006,Terry Peterson,700378768154603521,2020-02-25 13:53:54,"Charleston, SC",city,"Mount Pleasant, SC",United States
193,100.395219,13.734677,K'c,70037899,2020-05-11 11:40:54,", ",poi,Seenbangkok,
82,75.10707450000002,27.472238,Satendra Shekhawat,700379204,2020-03-29 06:17:58,"Jodhpur, India",city,"Sikar, India",India
82,77.095086,28.638489500000002,Jitender Rajput,700379942,2020-02-16 06:41:46,"New Delhi, India",city,"New Delhi, India",India
82,78.3852855,17.3950375,Saigoud477,700380541,2020-05-02 05:19:17,jagathgirigutta,city,"Rajendra Nagar, India",India
171,124.62850049999999,8.376078499999998,Lyka,700380726366056450,2020-03-08 13:29:12,,city,"Cagayan De Oro City, Northern Mindanao",Republic of the Philippines
24,-79.4256854,43.6389501,Percy Bysshe Shelley,700380771350147073,2020-03-06 16:46:51,"Toronto, Ontario",city,"Toronto, Ontario",Canada
42700,-81.45633149999999,27.491996500000003,,7003812,2020-02-14 00:28:10,Fort Lauderdale,city,"Sebring, FL",United States
222,106.594932,-6.187284,Ine,700381296,2020-04-12 03:42:58,,city,"Jati Uwung, Indonesia",Indonesia
24300,-108.5635,39.071,Doug Schveninger,70038211,2020-03-09 00:04:09,St  Louis Missouri,city,"Grand Junction, CO",United States
17820,-104.79531290000001,38.870956899999996,Doug Schveninger,70038211,2020-03-12 03:13:15,St  Louis Missouri,city,"Colorado Springs, CO",United States
41180,-90.6296215,38.596036,Doug Schveninger,70038211,2020-03-29 03:30:22,St  Louis Missouri,city,"Wildwood, MO",United States
153,11.188485,60.1538205,RK F1 ,700382277,2020-02-15 12:35:37,"Ullensaker, Norge",city,"Ullensaker, Norge",Norway
119,-103.2131755,20.6215735,Alonso Cmara,700382474891726848,2020-05-08 16:02:34,,city,"Tonal, Jalisco",Mxico
10900,-75.36719649999999,40.6252755, Yaguyzerleek ,700382495674605569,2020-02-15 23:35:26,Bronx New York ,city,"Bethlehem, PA",United States
37980,-75.354748,40.464673, Yaguyzerleek ,700382495674605569,2020-03-06 16:27:25,Bronx New York ,poi,787 california road,United States
10900,-75.36719649999999,40.6252755, Yaguyzerleek ,700382495674605569,2020-03-10 03:25:43,Bronx New York ,city,"Bethlehem, PA",United States
27620,-92.565285,38.6310005, Yaguyzerleek ,700382495674605569,2020-03-18 23:36:05,Bronx New York ,city,"California, MO",United States
10900,-75.36719649999999,40.6252755, Yaguyzerleek ,700382495674605569,2020-03-26 09:35:24,Bronx New York ,city,"Bethlehem, PA",United States
36740,-81.3677725,28.5016785, Yaguyzerleek ,700382495674605569,2020-04-14 01:22:48,Bronx New York ,city,"Orlando, FL",United States
10900,-75.36719649999999,40.6252755, Yaguyzerleek ,700382495674605569,2020-04-14 08:25:50,Bronx New York ,city,"Bethlehem, PA",United States
88,138.59661311,36.62281722,,700382525571477505,2020-03-13 04:56:25,,city, ,
45,12.6499885,55.622398,Stephen Fisher,700382615120060416,2020-02-18 14:29:24,Wirral,city,"Trnby, Danmark",Danmark
205,-3.0394275,53.36269300000001,Stephen Fisher,700382615120060416,2020-02-19 21:10:01,Wirral,city,"Birkenhead, England",United Kingdom
16300,-91.6828545,41.976528,Cole Lehn,700382627769896960,2020-03-30 14:20:05,"Parnell, Iowa ",city,"Cedar Rapids, IA",United States
46140,-96.0192655,36.365301, ,700382931529961473,2020-06-06 13:17:59,Hell ,city,"Skiatook, OK",United States
211,-63.556423,8.112960999999999,DireccinDSP,700383066079019012,2020-02-21 16:26:02,"Estado Bolivar, Venezuela",city,"Ciudad Bolivar, Venezuela",Venezuela
88,135.502204,34.7003735,makimaki,70038312,2020-04-16 11:58:59,,city,  ,
175,39.2541285,21.5857105,,700383340185174016,2020-02-14 12:01:08,",   ",city,"Jeddah, Kingdom of Saudi Arabia",Kingdom of Saudi Arabia
31080,-118.1938,33.7692,.the bakery.,700383446963630080,2020-05-22 18:14:56,"Long Beach, CA",city,"Long Beach, CA",United States
20740,-91.50971899999999,44.819522,Autumn,70038395,2020-02-18 12:11:28,Eau Claire,city,"Eau Claire, WI",United States
32860,-91.903835,44.8817265,Autumn,70038395,2020-02-18 18:50:46,Eau Claire,city,"Menomonie, WI",United States
21,-46.75652150000001,-23.210131,,700384158376448004,2020-02-14 09:34:26,"So Paulo, Brasil",city,"Campo Limpo Paulista, Brasil",Brasil
205,-2.2294175,51.8530915,s mace,700384283198939136,2020-02-14 20:21:18,"Gloucester, England",city,"Gloucester, England",United Kingdom
28140,-94.3782315,38.916093,cece,700384286,2020-02-14 22:07:36,"Kansas City, MO",city,"Lee's Summit, MO",United States
24,-79.391074,43.652803000000006,Mags Gallagher,700384395182661633,2020-03-03 17:31:40,,poi,Ontario College of Art and Design University (OCADU),Canada
34820,-78.68111111,33.82222222,Stephanie Clark,700384406,2020-04-13 15:21:55,South Carolina,city,"North Myrtle Beach, SC",United States
82,75.8167,26.9167,Aamir qureshi,700384469618790401,2020-04-24 09:25:51,India,city,"Jaipur, India",India
160,-77.76670218,-10.75000501,Naty Vj,70038470,2020-02-23 02:38:34,"Lima, Peru",city,"Barranca, Peru",Peru
38060,-112.3152115,33.4392955,Mikayla,700384830198972416,2020-05-06 04:38:38,"Glendale,AZ",city,"Avondale, AZ",United States
173,37.42764250000001,55.7547875,Evgeny Alekseev,700384910423552002,2020-02-14 07:12:45,"Moscow, Russia",city,"Moscow, Russia",Russia
200,40.162475,37.913275,Lord Abramovisiz,700385157346390016,2020-03-07 08:19:25,"Yeniehir, Diyarbakr",poi,Newroz Park,Turkey
205,-3.1798,51.4970015,Steffan Edwards,700385302297374720,2020-02-14 20:46:47,United Kingdom,city,"Cardiff, Wales",United Kingdom
14460,-71.31472222,42.63944444,UML Kennedy College of Sciences,700385418496372736,2020-03-06 17:07:28,"Lowell, MA",city,"Lowell, MA",United States
119,-99.153366,19.432835999999998,Alejandro Prado C,700385684981350401,2020-02-18 00:40:00,"Cuauhtmoc, Distrito Federal",city,"Cuauhtmoc, Distrito Federal",Mxico
20500,-79.064495,35.910482,Prvtty coco,700385759711391744,2020-02-19 17:34:16,"Carrboro, NC",poi,Rumors Thrift Boutique,United States
205,-0.15445111,51.16378286,The Hive Rooms,700385920369999872,2020-03-10 12:20:57,"Horley, South East",city,"Horley, South East",United Kingdom
21,-42.6007415,-19.4454605,Rafa Mrquez,700385948358541313,2020-06-07 16:53:55,"Betnia, Ipatinga",city,"Ipatinga, Brasil",Brasil
8,-58.442643,-34.604315,Fonte,700386019,2020-02-24 00:57:56,Ushuaia,city,"Ciudad Autnoma de Buenos Aires, Argentina",Argentina
40900,-121.31328300000001,38.840286,Jaskern Dhaliwal,700386127,2020-03-14 08:53:16,,poi,Thunder Valley Casino Resort,United States
175,40.184606,29.93313,,700386214411640832,2020-02-24 07:20:45,.,poi,College Of Dentistry,Kingdom of Saudi Arabia
222,110.3451535,-7.736615,FCUKBOY,700386512,2020-04-13 05:57:21,"Yogyakarta, Indonesia",city,"Mlati, Indonesia",Indonesia
35620,-74.184848,40.734494,Th3Golden3mpress ,70038652,2020-02-17 22:13:09,"New York, USA",city,"Newark, NJ",United States
8,-68.5261,-31.5342,Fede Martinez,700386600300244992,2020-05-01 22:16:01,"San Juan, Argentina",city,"San Juan, Argentina",Argentina
205,-1.0853245,53.96620649999999,Leeds Uni Peregrines,700386624421687297,2020-05-28 14:28:52,"Leeds, England",city,"York, England",United Kingdom
21,-43.0298515,-22.8578275,Julya Pereira,700386711570927618,2020-03-07 21:24:41,"Tribob, So Gonalo",neighborhood,"Tribob, So Gonalo",Brasil
36420,-97.4636445,35.327468,cierra,700386804,2020-02-17 18:23:43,,city,"Moore, OK",United States
16620,-81.6326234,38.3498195,TMJ-WVC Mgmt. Jobs,70038696,2020-02-14 17:21:04,"Charleston, WV",city,"Charleston, WV",United States
13220,-81.18815570000001,37.778170200000005,TMJ-WVC Mgmt. Jobs,70038696,2020-02-14 20:41:12,"Charleston, WV",city,"Beckley, WV",United States
38580,-81.71068509999999,38.818695700000006,TMJ-WVC Mgmt. Jobs,70038696,2020-02-15 14:01:36,"Charleston, WV",city,"Ripley, WV",United States
16620,-81.6326234,38.3498195,TMJ-WVC Mgmt. Jobs,70038696,2020-02-15 17:21:46,"Charleston, WV",city,"Charleston, WV",United States
38580,-82.2023691,38.809803,TMJ-WVC Mgmt. Jobs,70038696,2020-02-15 23:33:28,"Charleston, WV",city,"Gallipolis, OH",United States
16620,-81.8191658,38.3793695,TMJ-WVC Mgmt. Jobs,70038696,2020-02-16 16:25:05,"Charleston, WV",city,"St Albans, WV",United States
13220,-81.18815570000001,37.778170200000005,TMJ-WVC Mgmt. Jobs,70038696,2020-02-16 22:25:16,"Charleston, WV",city,"Beckley, WV",United States
16620,-81.8191658,38.3793695,TMJ-WVC Mgmt. Jobs,70038696,2020-02-17 19:05:26,"Charleston, WV",city,"St Albans, WV",United States
13220,-81.18815570000001,37.778170200000005,TMJ-WVC Mgmt. Jobs,70038696,2020-02-17 22:25:36,"Charleston, WV",city,"Beckley, WV",United States
16620,-81.6998865,38.3685523,TMJ-WVC Mgmt. Jobs,70038696,2020-02-18 22:25:49,"Charleston, WV",city,"South Charleston, WV",United States
26580,-82.0201368,38.4325896,TMJ-WVC Mgmt. Jobs,70038696,2020-02-19 15:26:07,"Charleston, WV",city,"Hurricane, WV",United States
30880,-82.0173502,37.9737114,TMJ-WVC Mgmt. Jobs,70038696,2020-02-19 18:26:12,"Charleston, WV",city,"Chapmanville, WV",United States
16620,-81.6326234,38.3498195,TMJ-WVC Mgmt. Jobs,70038696,2020-02-20 15:27:21,"Charleston, WV",city,"Charleston, WV",United States
13220,-80.8525981,38.2812203,TMJ-WVC Mgmt. Jobs,70038696,2020-02-21 21:12:45,"Charleston, WV",city,"Summersville, WV",United States
26580,-82.1323637,38.4345321,TMJ-WVC Mgmt. Jobs,70038696,2020-02-22 14:57:55,"Charleston, WV",city,"Milton, WV",United States
16620,-81.6326234,38.3498195,TMJ-WVC Mgmt. Jobs,70038696,2020-02-22 18:42:57,"Charleston, WV",city,"Charleston, WV",United States
13220,-81.18815570000001,37.778170200000005,TMJ-WVC Mgmt. Jobs,70038696,2020-02-25 17:11:04,"Charleston, WV",city,"Beckley, WV",United States
16620,-81.582066,38.321487700000006,TMJ-WVC Mgmt. Jobs,70038696,2020-02-26 14:03:01,"Charleston, WV",city,"Charleston, WV",United States
26580,-82.5281975,38.4110915,TMJ-WVC Mgmt. Jobs,70038696,2020-02-26 20:55:02,"Charleston, WV",city,"Burlington, OH",United States
16620,-81.8191658,38.3793695,TMJ-WVC Mgmt. Jobs,70038696,2020-02-27 14:26:56,"Charleston, WV",city,"St Albans, WV",United States
30880,-82.0173502,37.9737114,TMJ-WVC Mgmt. Jobs,70038696,2020-02-27 21:07:03,"Charleston, WV",city,"Chapmanville, WV",United States
13220,-81.18815570000001,37.778170200000005,TMJ-WVC Mgmt. Jobs,70038696,2020-02-28 14:27:12,"Charleston, WV",city,"Beckley, WV",United States
38580,-81.71068509999999,38.818695700000006,TMJ-WVC Mgmt. Jobs,70038696,2020-02-29 23:35:08,"Charleston, WV",city,"Ripley, WV",United States
16620,-81.6326234,38.3498195,TMJ-WVC Mgmt. Jobs,70038696,2020-03-02 18:35:52,"Charleston, WV",city,"Charleston, WV",United States
26580,-82.0201368,38.4325896,TMJ-WVC Mgmt. Jobs,70038696,2020-03-02 21:36:01,"Charleston, WV",city,"Hurricane, WV",United States
16620,-81.6326234,38.3498195,TMJ-WVC Mgmt. Jobs,70038696,2020-03-03 14:36:04,"Charleston, WV",city,"Charleston, WV",United States
13220,-81.18815570000001,37.778170200000005,TMJ-WVC Mgmt. Jobs,70038696,2020-03-03 20:36:22,"Charleston, WV",city,"Beckley, WV",United States
16620,-81.6326234,38.3498195,TMJ-WVC Mgmt. Jobs,70038696,2020-03-03 23:27:50,"Charleston, WV",city,"Charleston, WV",United States
30880,-82.0173502,37.9737114,TMJ-WVC Mgmt. Jobs,70038696,2020-03-04 20:15:50,"Charleston, WV",city,"Chapmanville, WV",United States
38580,-82.15213670000001,38.8357548,TMJ-WVC Mgmt. Jobs,70038696,2020-03-04 21:50:39,"Charleston, WV",city,"Gallipolis, OH",United States
16620,-81.7962487,38.414618700000005,TMJ-WVC Mgmt. Jobs,70038696,2020-03-04 23:25:31,"Charleston, WV",city,"Cross Lanes, WV",United States
13220,-80.8525981,38.2812203,TMJ-WVC Mgmt. Jobs,70038696,2020-03-05 16:30:27,"Charleston, WV",city,"Summersville, WV",United States
26580,-82.4580752,38.397195200000006,TMJ-WVC Mgmt. Jobs,70038696,2020-03-05 18:02:48,"Charleston, WV",city,"Huntington, WV",United States
13220,-81.18815570000001,37.778170200000005,TMJ-WVC Mgmt. Jobs,70038696,2020-03-05 19:32:56,"Charleston, WV",city,"Beckley, WV",United States
16620,-81.6326234,38.3498195,TMJ-WVC Mgmt. Jobs,70038696,2020-03-05 22:33:17,"Charleston, WV",city,"Charleston, WV",United States
30880,-82.0173502,37.9737114,TMJ-WVC Mgmt. Jobs,70038696,2020-03-06 15:33:54,"Charleston, WV",city,"Chapmanville, WV",United States
13220,-81.184303,37.8101335,TMJ-WVC Mgmt. Jobs,70038696,2020-03-06 21:34:33,"Charleston, WV",city,"Beckley, WV",United States
16620,-81.7174318,38.3584914,TMJ-WVC Mgmt. Jobs,70038696,2020-03-06 23:04:43,"Charleston, WV",city,"South Charleston, WV",United States
13220,-81.184303,37.8101335,TMJ-WVC Mgmt. Jobs,70038696,2020-03-07 17:41:52,"Charleston, WV",city,"Beckley, WV",United States
38580,-81.71068509999999,38.818695700000006,TMJ-WVC Mgmt. Jobs,70038696,2020-03-07 19:21:43,"Charleston, WV",city,"Ripley, WV",United States
16620,-81.8191658,38.3793695,TMJ-WVC Mgmt. Jobs,70038696,2020-03-07 20:59:05,"Charleston, WV",city,"St Albans, WV",United States
38580,-81.72945949999999,38.8210362,TMJ-WVC Mgmt. Jobs,70038696,2020-03-08 18:06:10,"Charleston, WV",city,"Ripley, WV",United States
16620,-81.8191658,38.3793695,TMJ-WVC Mgmt. Jobs,70038696,2020-03-08 19:43:36,"Charleston, WV",city,"St Albans, WV",United States
13220,-81.1221358,38.0341211,TMJ-WVC Mgmt. Jobs,70038696,2020-03-08 21:25:57,"Charleston, WV",city,"Fayetteville, WV",United States
16620,-81.6326234,38.3498195,TMJ-WVC Mgmt. Jobs,70038696,2020-03-09 14:57:57,"Charleston, WV",city,"Charleston, WV",United States
13220,-81.2187333,37.7954724,TMJ-WVC Mgmt. Jobs,70038696,2020-03-09 16:44:00,"Charleston, WV",city,"Beckley, WV",United States
26580,-82.4580752,38.397195200000006,TMJ-WVC Mgmt. Jobs,70038696,2020-03-10 17:13:57,"Charleston, WV",city,"Huntington, WV",United States
16620,-81.6326234,38.3498195,TMJ-WVC Mgmt. Jobs,70038696,2020-03-10 18:56:50,"Charleston, WV",city,"Charleston, WV",United States
26580,-82.0201368,38.4325896,TMJ-WVC Mgmt. Jobs,70038696,2020-03-10 22:22:45,"Charleston, WV",city,"Hurricane, WV",United States
16620,-81.7962487,38.414618700000005,TMJ-WVC Mgmt. Jobs,70038696,2020-03-11 17:28:52,"Charleston, WV",city,"Cross Lanes, WV",United States
26580,-82.4153057,38.3946945,TMJ-WVC Mgmt. Jobs,70038696,2020-03-11 19:11:53,"Charleston, WV",city,"Huntington, WV",United States
13220,-81.1221358,38.0341211,TMJ-WVC Mgmt. Jobs,70038696,2020-03-11 20:54:47,"Charleston, WV",city,"Fayetteville, WV",United States
16620,-81.6326234,38.3498195,TMJ-WVC Mgmt. Jobs,70038696,2020-03-12 16:03:42,"Charleston, WV",city,"Charleston, WV",United States
26580,-82.2613764,38.421175399999996,TMJ-WVC Mgmt. Jobs,70038696,2020-03-12 17:43:55,"Charleston, WV",city,"Barboursville, WV",United States
13220,-80.8525981,38.2812203,TMJ-WVC Mgmt. Jobs,70038696,2020-03-12 21:04:09,"Charleston, WV",city,"Summersville, WV",United States
26580,-82.4153057,38.3946945,TMJ-WVC Mgmt. Jobs,70038696,2020-03-12 22:44:19,"Charleston, WV",city,"Huntington, WV",United States
38580,-82.15213670000001,38.8357548,TMJ-WVC Mgmt. Jobs,70038696,2020-03-13 20:43:50,"Charleston, WV",city,"Gallipolis, OH",United States
26580,-82.44882259999999,38.4214408,TMJ-WVC Mgmt. Jobs,70038696,2020-03-14 20:00:54,"Charleston, WV",city,"Huntington, WV",United States
38580,-81.71068509999999,38.818695700000006,TMJ-WVC Mgmt. Jobs,70038696,2020-03-14 21:33:14,"Charleston, WV",city,"Ripley, WV",United States
16620,-81.8191658,38.3793695,TMJ-WVC Mgmt. Jobs,70038696,2020-03-15 16:10:42,"Charleston, WV",city,"St Albans, WV",United States
30880,-82.0173502,37.9737114,TMJ-WVC Mgmt. Jobs,70038696,2020-03-15 17:43:13,"Charleston, WV",city,"Chapmanville, WV",United States
26580,-82.4153057,38.3946945,TMJ-WVC Mgmt. Jobs,70038696,2020-03-15 19:15:34,"Charleston, WV",city,"Huntington, WV",United States
13220,-81.184303,37.8101335,TMJ-WVC Mgmt. Jobs,70038696,2020-03-15 22:22:45,"Charleston, WV",city,"Beckley, WV",United States
38580,-82.15213670000001,38.8357548,TMJ-WVC Mgmt. Jobs,70038696,2020-03-16 15:32:25,"Charleston, WV",city,"Gallipolis, OH",United States
26580,-82.2613764,38.421175399999996,TMJ-WVC Mgmt. Jobs,70038696,2020-03-16 17:07:15,"Charleston, WV",city,"Barboursville, WV",United States
16620,-80.8339785,38.2993011,TMJ-WVC Mgmt. Jobs,70038696,2020-03-16 20:16:58,"Charleston, WV",city,"Summersville, WV",United States
38580,-81.72945949999999,38.8210362,TMJ-WVC Mgmt. Jobs,70038696,2020-03-17 15:11:33,"Charleston, WV",city,"Ripley, WV",United States
26580,-82.44882259999999,38.4214408,TMJ-WVC Mgmt. Jobs,70038696,2020-03-17 16:48:54,"Charleston, WV",city,"Huntington, WV",United States
16620,-81.8191658,38.3793695,TMJ-WVC Mgmt. Jobs,70038696,2020-03-17 20:03:38,"Charleston, WV",city,"St Albans, WV",United States
26580,-82.44882259999999,38.4214408,TMJ-WVC Mgmt. Jobs,70038696,2020-03-18 22:26:01,"Charleston, WV",city,"Huntington, WV",United States
38580,-81.72945949999999,38.8210362,TMJ-WVC Mgmt. Jobs,70038696,2020-03-19 19:28:31,"Charleston, WV",city,"Ripley, WV",United States
16620,-81.6326234,38.3498195,TMJ-WVC Mgmt. Jobs,70038696,2020-03-20 14:41:49,"Charleston, WV",city,"Charleston, WV",United States
13220,-81.1221358,38.0341211,TMJ-WVC Mgmt. Jobs,70038696,2020-03-20 17:18:27,"Charleston, WV",city,"Fayetteville, WV",United States
16620,-81.6326234,38.3498195,TMJ-WVC Mgmt. Jobs,70038696,2020-03-20 22:36:55,"Charleston, WV",city,"Charleston, WV",United States
13220,-81.184303,37.8101335,TMJ-WVC Mgmt. Jobs,70038696,2020-03-21 15:13:32,"Charleston, WV",city,"Beckley, WV",United States
16620,-81.6326234,38.3498195,TMJ-WVC Mgmt. Jobs,70038696,2020-03-21 20:26:47,"Charleston, WV",city,"Charleston, WV",United States
13220,-81.184303,37.8101335,TMJ-WVC Mgmt. Jobs,70038696,2020-03-22 20:53:22,"Charleston, WV",city,"Beckley, WV",United States
26580,-82.2613764,38.421175399999996,TMJ-WVC Mgmt. Jobs,70038696,2020-03-23 13:29:55,"Charleston, WV",city,"Barboursville, WV",United States
16620,-81.7174318,38.3584914,TMJ-WVC Mgmt. Jobs,70038696,2020-03-23 18:43:15,"Charleston, WV",city,"South Charleston, WV",United States
26580,-82.0201368,38.4325896,TMJ-WVC Mgmt. Jobs,70038696,2020-03-28 17:10:06,"Charleston, WV",city,"Hurricane, WV",United States
16620,-81.6326234,38.3498195,TMJ-WVC Mgmt. Jobs,70038696,2020-03-30 14:37:57,"Charleston, WV",city,"Charleston, WV",United States
13220,-81.18815570000001,37.778170200000005,TMJ-WVC Mgmt. Jobs,70038696,2020-04-01 17:32:50,"Charleston, WV",city,"Beckley, WV",United States
16620,-81.6326234,38.3498195,TMJ-WVC Mgmt. Jobs,70038696,2020-04-02 18:28:30,"Charleston, WV",city,"Charleston, WV",United States
26580,-82.0201368,38.4325896,TMJ-WVC Mgmt. Jobs,70038696,2020-04-03 15:08:34,"Charleston, WV",city,"Hurricane, WV",United States
13220,-81.18815570000001,37.778170200000005,TMJ-WVC Mgmt. Jobs,70038696,2020-04-03 20:35:56,"Charleston, WV",city,"Beckley, WV",United States
16620,-81.6326234,38.3498195,TMJ-WVC Mgmt. Jobs,70038696,2020-04-04 16:03:27,"Charleston, WV",city,"Charleston, WV",United States
13220,-81.18815570000001,37.778170200000005,TMJ-WVC Mgmt. Jobs,70038696,2020-04-05 22:26:07,"Charleston, WV",city,"Beckley, WV",United States
16620,-81.6326234,38.3498195,TMJ-WVC Mgmt. Jobs,70038696,2020-04-06 17:53:56,"Charleston, WV",city,"Charleston, WV",United States
26580,-82.4580752,38.397195200000006,TMJ-WVC Mgmt. Jobs,70038696,2020-04-07 13:01:01,"Charleston, WV",city,"Huntington, WV",United States
16620,-81.6326234,38.3498195,TMJ-WVC Mgmt. Jobs,70038696,2020-04-07 18:01:29,"Charleston, WV",city,"Charleston, WV",United States
13220,-81.1423203,37.7476157,TMJ-WVC Mgmt. Jobs,70038696,2020-04-08 13:29:04,"Charleston, WV",city,"Beaver, WV",United States
26580,-82.445154,38.41924960000001,TMJ-WVC Mgmt. Jobs,70038696,2020-04-10 21:57:05,"Charleston, WV",city,"Huntington, WV",United States
16620,-81.6326234,38.3498195,TMJ-WVC Mgmt. Jobs,70038696,2020-04-12 21:59:09,"Charleston, WV",city,"Charleston, WV",United States
26580,-82.0201368,38.4325896,TMJ-WVC Mgmt. Jobs,70038696,2020-04-13 18:39:59,"Charleston, WV",city,"Hurricane, WV",United States
16620,-81.6326234,38.3498195,TMJ-WVC Mgmt. Jobs,70038696,2020-04-15 21:11:32,"Charleston, WV",city,"Charleston, WV",United States
205,-3.1667955,56.117732999999994,Kirsty Nicol,700387110746984450,2020-03-06 20:15:00,"Kirkcaldy, Scotland",city,"Kirkcaldy, Scotland",United Kingdom
38300,-80.192559,40.653558,I am Groot,700387329819586561,2020-02-14 04:59:01,"Pittsburgh, PA",city,"Economy, PA",United States
35620,-73.9487755,40.655138,Satori_Xera,700387356625530880,2020-04-04 20:58:45,Village hidden in the clouds ,city,"Brooklyn, NY",United States
205,-0.44236099999999995,51.537061,kronologically ,700387559684358146,2020-02-14 09:20:26,"London, England",city,"Hillingdon, London",United Kingdom
35620,-74.80326,41.322309999999995,Moyer's Services Group Inc.,700387642240851968,2020-02-25 22:39:29,"Souderton, PA",city,"Milford, PA",United States
37980,-75.3247433,40.3141485,Moyer's Services Group Inc.,700387642240851968,2020-02-27 13:47:12,"Souderton, PA",city,"Souderton, PA",United States
21,-49.21431,-16.62957755,Ricardo Confessori,70038766,2020-03-09 09:40:04,So Paulo,city,"Goinia, Brasil",Brasil
82,91.363618,23.8361225,Imran Khan,700387715947368448,2020-04-17 07:26:19,"Agartala, India",city,"Agartala, India",India
21,-43.441578,-22.911421500000003,mandx. ,700387784100597760,2020-02-14 12:54:17,rj x zn,city,"Rio de Janeiro, Brasil",Brasil
171,123.94286100000001,10.3553425,yuuu,70038834,2020-02-23 18:32:55, ,city,"Lungsod ng Mandaue, Rehiyon ng Gitnang Visayas",Republika ng Pilipinas
88,139.745442,35.658578999999996,yuuu,70038834,2020-05-03 15:05:48, ,poi, (Tokyo Tower),
14660,-93.5338115,47.2276555,HibbingTrack&CC,700388354718699521,2020-02-22 22:44:45,,city,"Grand Rapids, MN",United States
20260,-92.92822,47.4121175,HibbingTrack&CC,700388354718699521,2020-02-26 00:05:11,,city,"Hibbing, MN",United States
222,106.774506,-6.185601999999999,afifah,70038849,2020-02-26 01:59:20,Indonesia,city,"Kebon Jeruk, Indonesia",Indonesia
200,29.0052225,41.0213205,zek_Selimolu,700388647321870336,2020-03-31 16:51:54,,city,"stanbul, Trkiye",Trkiye
12540,-119.025163,35.3469015,Rachel Pasillas,700388735066570752,2020-02-29 20:49:57,"Bakersfield, CA",city,"Bakersfield, CA",United States
42660,-122.3306025,47.614816999999995,Fluff Master,700388755161640960,2020-03-01 10:00:23,"Redmond, WA",city,"Seattle, WA",United States
186,3.167582,42.26486,emma,700388921964961793,2020-02-23 19:51:04,"france // she, her // ",poi,Playa de Roses,Espagne
65,3.1126915,45.786915,emma,700388921964961793,2020-03-09 18:11:32,"france // she, her // ",city,"Clermont-Ferrand, France",France
19100,-97.1356375,32.70185,MrsSanchezValdez,700389144212537344,2020-03-17 19:47:01,,city,"Arlington, TX",United States
205,-1.6453615000000001,54.992055500000006,Mekhla,700389386886717440,2020-02-15 00:16:44,"Newcastle Upon Tyne, England",city,"Newcastle Upon Tyne, England",United Kingdom
175,38.688284,31.6773935,  7e ,700389416146042880,2020-02-22 17:01:54,  ,city,",   ",  
50,33.796251,31.1336,Mohamed Ghaleb,700389423649841152,2020-04-11 08:29:13,"North Sinai, el.arish ",poi,El Arish Downtown,
222,112.74228049999999,-7.0190540000000015,LIA,700389823,2020-03-26 03:31:30,"Malang, Jawa Timur ",city,"Bangkalan, Indonesia",Indonesia
11680,-96.9894005,37.2302685,Sidnrella ,700389872,2020-02-14 03:55:00,405,city,"Winfield, KS",United States
36420,-97.552161,35.4828435,Sidnrella ,700389872,2020-03-08 16:05:39,405,city,"Oklahoma City, OK",United States
11680,-96.9894005,37.2302685,Sidnrella ,700389872,2020-03-18 23:54:17,405,city,"Winfield, KS",United States
36420,-97.552161,35.4828435,Sidnrella ,700389872,2020-04-03 19:04:54,405,city,"Oklahoma City, OK",United States
11680,-96.9894005,37.2302685,Sidnrella ,700389872,2020-04-07 20:30:28,405,city,"Winfield, KS",United States
160,-76.921885,-12.1773265,roberto Aspilcueta,700389982482124801,2020-02-15 02:25:59,,city,"Villa Maria del Triunfo, Peru",Peru
31080,-117.767354,34.1257705,Branden S,700389991,2020-03-13 21:22:20,"Upland , CA",city,"La Verne, CA",United States
40140,-117.661853,34.119646,Branden S,700389991,2020-03-18 05:46:59,"Upland , CA",city,"Upland, CA",United States
33100,-80.14917249999999,26.150368,freddy martin,70039002,2020-02-28 14:39:55,"Fort Lauderdale, FL, USA",city,"Fort Lauderdale, FL",United States
82,72.636678,22.980926999999998,Verma Chhatra Pal,700390286,2020-02-19 18:17:53,Ahmedabad (Gujarat) INDIA,city,"Daskroi, India",India
16620,-81.6326234,38.3498195,TMJ-WVC Finance Jobs,70039030,2020-02-16 14:01:25,"Charleston, WV",city,"Charleston, WV",United States
13220,-81.18815570000001,37.778170200000005,TMJ-WVC Finance Jobs,70039030,2020-03-12 13:00:54,"Charleston, WV",city,"Beckley, WV",United States
39,-84.0485615,9.93263,Katherine,70039039,2020-02-18 22:08:07,"San Jos, Costa Rica",city,"San Pedro, Costa Rica",Costa Rica
85,16.60445,40.66715,Martulli Viaggi - Matera,700390438411362306,2020-05-03 14:55:06,"Matera, Basilicata",city,"Matera, Basilicata",Italia
38900,-122.630908,45.536402,Martha Marlton,700390438750924800,2020-04-23 16:52:33,"Portland, Oregon",city,"Portland, OR",United States
28420,-119.1759405,46.1992915,RUN KANO,700390506,2020-02-19 23:44:39,,city,"Kennewick, WA",United States
36220,-102.344087,31.8738385,Rob $tone ,700390571945254912,2020-05-08 01:24:57,in or with GL,city,"Odessa, TX",United States
21,-48.771081,-26.9669185,bianquita,70039080,2020-02-18 00:23:50,SC ,city,"Itaja, Brasil",Brasil
82,77.5584485,12.9231145,"Geetha das, Deputy D",700390811070914561,2020-04-21 06:09:42,Bengaluru,city,"Bengaluru South, India",India
21,-57.558260499999996,-11.2751255,Mariana Ferreira,700391220066045954,2020-04-10 16:48:04,"Juara, Brasil",city,"Juara, Brasil",Brasil
137,7.419,43.7325,PIETER PETROS,700391455647363074,2020-05-02 10:03:49,"Antwerp, Belgium",city,Monaco,Monaco
82,75.96818400000002,22.6714825,Anand Fadnis,700391802,2020-04-10 18:20:34,"Indore,India",city,"Indore, India",India
82,76.80103409,30.73010985,Yeti Ink,700391990991585281,2020-02-16 11:33:05,"Chandigarh, India",city,"Chandigarh, India",India
21,-43.018208,-22.821465,cavanhaque ,700392141101604864,2020-02-14 00:49:20,Complexo da trindade ,city,"So Gonalo, Brasil",Brasil
88,139.43836249999998,35.68781749999999,,700392603523493889,2020-02-14 14:55:23,TOKYO,city,"Kunitachi-shi, Tokyo",Japan
34980,-86.791549,36.200008000000004,Kelsey Smith,70039283,2020-06-03 15:54:54,,city,"Nashville, TN",United States
88,139.7091805,35.701657,HaL,700393073495318528,2020-04-03 17:47:11,,city, ,
36540,-96.053431,41.275721,William,700393141,2020-03-10 17:07:11,"Omaha, NE",city,"Omaha, NE",United States
32340,-94.863354,40.345541,William,700393141,2020-03-21 19:05:43,"Omaha, NE",city,"Maryville, MO",United States
36540,-96.053431,41.275721,William,700393141,2020-05-31 05:18:52,"Omaha, NE",city,"Omaha, NE",United States
17980,-84.917307,32.4823035,Meer ,700393171612786688,2020-02-23 07:21:35,colga,city,"Columbus, GA",United States
12060,-84.43310600000001,33.7671945,MAY 12TH ,700393171612786688,2020-05-16 05:27:39,colga,city,"Atlanta, GA",United States
17980,-84.917307,32.4823035,MAY 12TH ,700393171612786688,2020-05-16 21:36:13,colga,city,"Columbus, GA",United States
60,24.949609,60.199918999999994,KPa 07,700393180223684608,2020-06-07 11:20:26,,poi,Vallilanlaakso,Suomi
119,-103.40861255,20.6757405,Jvenes Empresarios ,700393448,2020-03-12 15:20:37,"Guadalajara, Mxico. ",city,"Zapopan, Jalisco",Mxico
88,135.92921,35.077423,,70039363,2020-03-08 15:24:47,,city, ,
175,39.149753000000004,21.671502,Mohammed.,700393859,2020-02-19 15:25:54,   ,poi,Starbucks,  
33460,-93.7908165,44.8432825,Spencer Lund,700393900280680448,2020-04-25 15:36:36,,city,"Waconia, MN",United States
200,35.88496650000001,40.2994785,ferhat dogan,700394238404648962,2020-02-25 20:14:29,"Zile, Trkiye",city,"Zile, Trkiye",Trkiye
19780,-93.6248185,41.6700505,Edward Bunch sr,700394395288231936,2020-02-18 18:58:15,,city,"Saylorville, IA",United States
19100,-96.835249,33.1501395,Brad Hamilton,700394626247577600,2020-02-14 17:05:01,"Arizona, USA",city,"Frisco, TX",United States
31080,-118.130426,33.937673499999995,nate,700394655570001920,2020-05-13 23:18:05,"Downey, CA",city,"Downey, CA",United States
65,6.6240489,45.43257486,DECONFINONS-NOUS !,700394665095335939,2020-04-14 22:25:54,France,city,"Saint-Bon-Tarentaise, France",France
35620,-73.21958599999998,40.860507500000004,Amy,700394687471996928,2020-02-18 15:56:50,"Smithtown, NY",city,"Smithtown, NY",United States
175,44.3223565,17.5818875,ranooooshe,700395117,2020-02-22 14:24:51,,city,",   ",  
82,77.498726,28.545556,SYED SHOAIB AKHTAR,700395390,2020-05-15 03:59:32,Bihar,city,"Noida, India",India
49,-79.922888,-2.059607,Julio Pezo C.,700395607089881088,2020-03-12 05:17:53,"Guayaquil, Ecuador",poi,Mix Center,Ecuador
33460,-93.400136,44.927631,amber,700395708889894912,2020-03-16 01:18:39,,city,"Hopkins, MN",United States
19780,-93.6248185,41.6700505,amber,700395708889894912,2020-05-05 18:05:19,,city,"Saylorville, IA",United States
82,76.68780600000001,30.75403,Vinay Jain,700395728783302656,2020-04-01 13:01:08,,city,"Mohali, India",India
33100,-80.45211649999997,25.479449,Bryant ,700395810920538112,2020-02-25 05:27:04,"Homestead, FL",city,"Homestead, FL",United States
28580,-80.434003,25.109363,Bryant ,700395810920538112,2020-03-04 15:35:19,"Homestead, FL",city,"Key Largo, FL",United States
33100,-80.45211649999997,25.479449,Bryant ,700395810920538112,2020-03-05 03:05:58,"Homestead, FL",city,"Homestead, FL",United States
28580,-80.517356,25.0196045,Bryant ,700395810920538112,2020-03-10 17:41:20,"Homestead, FL",city,"Tavernier, FL",United States
33100,-80.45211649999997,25.479449,Bryant ,700395810920538112,2020-03-12 01:51:43,"Homestead, FL",city,"Homestead, FL",United States
28580,-80.434003,25.109363,Bryant ,700395810920538112,2020-03-13 14:12:15,"Homestead, FL",city,"Key Largo, FL",United States
33100,-80.489003,25.4331335,Bryant ,700395810920538112,2020-03-13 23:12:32,"Homestead, FL",city,"Florida City, FL",United States
28580,-80.434003,25.109363,Bryant,700395810920538112,2020-06-05 01:44:00,"Homestead, FL",city,"Key Largo, FL",United States
33100,-80.45211649999997,25.479449,Bryant,700395810920538112,2020-06-05 19:09:18,"Homestead, FL",city,"Homestead, FL",United States
49,-78.5566815,-0.16657049999999998,Paul valdivieso,70039595,2020-03-10 20:47:56,,city,"Quito, Ecuador",Ecuador
21,-52.7986925,-32.695986500000004,nycolas,700396067360210944,2020-02-14 12:56:59,feb ,city,"Rio Grande, Brasil",Brasil
82,77.095086,28.638489500000002,Anuj Gupta ,700396172511346688,2020-02-26 03:38:10,"Karol Bagh, New Delhi",city,"New Delhi, India",India
193,100.494,13.7522,Jen Asher,70039645,2020-02-27 11:42:11,Republic of the Philippines,city,"Phra Borom Maha Ratchawang, Thailand",Thailand
47900,-77.16310250000002,39.08705500000001,annette greene,700396453475307520,2020-02-24 15:28:53,,city,"Rockville, MD",United States
47900,-77.0236,38.9003,Jessica Lopez,700396554,2020-02-24 16:37:09,"Washington, DC",city,"Washington, DC",United States
41740,-117.00983799999999,32.956684,Mr. GoodStache,700397090,2020-03-26 21:07:36,"Serra Mesa, San Diego",poi,Quarantine,United States
36740,-81.5903435,28.546119,V Gordon,700397430903345153,2020-04-01 05:00:15,,city,"Winter Garden, FL",United States
26420,-95.4464865,29.838495,marie williams,700397576,2020-02-14 00:19:36,Houston  Texas,city,"Houston, TX",United States
186,-2.608701,36.7773725,Fran Lpez,700397645886578688,2020-05-04 23:42:18,"Almera, Espaa",city,"Roquetas de Mar, Spain",Spain
49,-79.91244186,-2.19806346,Ysra MF,700397736,2020-02-19 01:32:21,"Guayaquil, Ecuador",city,"Guayaquil, Ecuador",Ecuador
96,47.997687,29.39055,,700398061143650304,2020-02-21 19:10:38,      ,poi,Giovanni, 
21,-51.800533,-20.643065,o r c i,700398394771111937,2020-02-24 04:54:16,,poi,Sucuriu,Brasil
8,-68.844527,-32.889705,Sergio Terrera,700398412689235968,2020-02-22 14:33:55,"Mendoza, Argentina",poi,Plaza Independencia,Argentina
65,2.246929,48.9218135,Eric Charles,700398466124660736,2020-03-29 08:40:43,Colombes,city,"Colombes, France",France
85,16.558536,41.1024685,Barbare',700399043038543872,2020-02-16 08:00:13,"Bari, Puglia",city,"Terlizzi, Puglia",Italia
160,-76.9814185,-12.1265765,PuroRollo,70039931,2020-05-28 13:11:08,"Lima, Peru",city,"Santiago de Surco, Peru",Peru
21,-46.5955455,-23.682803,Larissa ,70039958,2020-06-03 23:14:35,So Paulo,city,"So Paulo, Brasil",Brasil
33860,-86.37314549999998,32.5197795,Coach Fisher,700399824634384385,2020-02-14 23:35:03,"Millbrook, AL",city,"Millbrook, AL",United States
71,13.407307000000001,52.536305000000006,Die mit dem Rolf tanzt,700400100405878784,2020-03-18 11:45:04,Germany,poi,Morning Glory,Deutschland
14260,-116.2038,43.6141,Lone Gems,700400315053404161,2020-02-15 15:25:26,"Boise, ID",city,"Boise, ID",United States
82,75.74752099999999,26.909683,Brad ,700400414374633472,2020-02-26 12:41:01,The world is my playground ,city,"Jaipur, India",India
154,86.828985,27.980882,Brad ,700400414374633472,2020-03-19 02:40:37,The world is my playground ,poi,Mount Everest Base Camp,Nepal
200,29.0052225,41.0213205,Brad ,700400414374633472,2020-03-21 08:31:36,The world is my playground ,city,"stanbul, Trkiye",Turkey
41860,-122.4231185,37.658798499999996,Brad ,700400414374633472,2020-03-23 02:41:23,The world is my playground ,city,"South San Francisco, CA",United States
24,-79.27256949999999,43.629311,Brad ,700400414374633472,2020-03-23 23:30:15,The world is my playground ,city,"Toronto, Ontario",Canada
200,44.273468,38.019059999999996,Fatih imek,700400442199642114,2020-04-22 20:51:44,,poi,Van Bakale (ran Siniri),Trkiye
17460,-81.609739,41.504526,"Sara Akhavanfard, MD, PhD",700400737,2020-05-25 15:59:30,,poi,Case Western Reserve University,United States
41620,-111.917026,40.765805,Joseph Snow,700401030215786496,2020-02-19 09:39:15,,city,"Salt Lake City, UT",United States
200,30.680889,36.89007,Ali BURUL,700401075032092673,2020-06-06 12:47:22,,city,"Antalya, Trkiye",Turkey
65,1.4329005,43.600757,Zlak_07,700401411817922560,2020-05-10 10:54:20,"Toulouse, France",city,"Toulouse, France",France
21,-43.6026115,-22.667465,       ,700401433221451783,2020-04-08 22:27:19,NA SUA ,city,"Japeri, Brasil",Brasil
37980,-75.13786200000001,40.1843485,IJ-Cinema,700401531087163392,2020-02-14 17:38:23,"Philadelphia, PA",city,"Horsham, PA",United States
119,-103.23313,25.244223,Rodolfo Robles,70040158,2020-02-17 03:28:35,"Monterrey, Mxico",city,"Torren, Coahuila de Zaragoza",Mxico
88,135.5800525,34.737883999999994,,700401643,2020-05-23 05:02:16,,city, ,
34060,-79.9438375,39.6293145,Alek Freedman,700401692,2020-02-23 07:53:22,Behind Dairy Mart,city,"Morgantown, WV",United States
33340,-88.240004,42.981638,Chapsicle,700402129,2020-02-17 00:46:45,"La Crosse, WI",city,"Waukesha, WI",United States
8,-58.647999,-34.443915999999994,Ministerio de Economa de la Nacin,700402159687503877,2020-04-17 03:06:44,Argentina,city,"Tigre, Argentina",Argentina
151,8.527467000000001,12.005,muftahu saminu,700402371172659200,2020-04-02 08:48:35,Nigeria,city,"Kano, Nigeria",Nigeria
200,32.8173,39.9091,Ankara Atl Okuluk,700402386834165760,2020-02-19 08:59:33,"Ankara, Trkiye",city,"Ankara, Trkiye",Trkiye
24,-75.80014150000001,45.248791,Marketing What's New,70040253,2020-02-29 17:46:55,"Ottawa, Canada",city,"Ottawa, Ontario",Canada
85,9.8647495,45.2008815,Antonio,700402978658893824,2020-02-14 00:05:50,"Corbetta, Lombardia",city,"Grumello Cremonese ed Uniti, Lombardia",Italia
14260,-116.399697,43.6120725,Arif Khan,700403352404791299,2020-05-24 22:26:49,"Idaho, USA",city,"Meridian, ID",United States
46300,-114.46515500000001,42.561254999999996,Arif Khan,700403352404791299,2020-05-30 20:04:25,"Idaho, USA",city,"Twin Falls, ID",United States
151,7.58034,9.013664,Ohema Gogo,700403596282761216,2020-02-14 03:56:59,"Abuja, Nigeria",city,"Karu, Nigeria",Nigeria
21,-47.796623,-15.776254000000002,,700403668043087872,2020-05-21 04:35:32,,city,"Braslia, Brasil",Brasil
15380,-78.85356300000002,42.8962295,Buffalos Best Catering by Kim,700404014438076416,2020-03-18 00:31:13,"Buffalo, NY",city,"Buffalo, NY",United States
45780,-83.7351115,41.624183,Morgan,700404211641688064,2020-03-12 01:14:06,"Toledo, OH",city,"Holland, OH",United States
178,28.19470756,-25.75335564,Tourist Mtalie,700404367208407043,2020-02-26 11:49:54,Africa,city,"Pretoria, South Africa",South Africa
180,23.428101,-19.975751000000002,Bakang Garebatho,700404466546294785,2020-02-24 09:22:26,"Gaborone, Botswana",poi,Maun Airport (MUB),Botswana
186,-5.5825375,42.593647,,700404551464153089,2020-03-16 18:05:43,Detras de ti ,city,"Leon, Spain",Spain
152,6.256231,52.990766,AlexeyTK,700404656321728513,2020-02-18 16:59:55,,city,"Ooststellingwerf, Nederland",Nederland
65,-1.1812995000000002,47.014276,Thibeaud,700404781001654274,2020-04-10 18:35:54,,city,"La Bruffire, France",France
